time(millisecond),datetime(utc),latitude,longitude,height_above_takeoff(feet),height_above_ground_at_drone_location(feet),ground_elevation_at_drone_location(feet),altitude_above_seaLevel(feet),height_sonar(feet),speed(mph),distance(feet),mileage(feet),satellites,gpslevel,voltage(v),max_altitude(feet),max_ascent(feet),max_speed(mph),max_distance(feet), xSpeed(mph), ySpeed(mph), zSpeed(mph), compass_heading(degrees), pitch(degrees), roll(degrees),isPhoto,isVideo,rc_elevator,rc_aileron,rc_throttle,rc_rudder,rc_elevator(percent),rc_aileron(percent),rc_throttle(percent),rc_rudder(percent),gimbal_heading(degrees),gimbal_pitch(degrees),gimbal_roll(degrees),battery_percent,voltageCell1,voltageCell2,voltageCell3,voltageCell4,voltageCell5,voltageCell6,current(A),battery_temperature(f),altitude(feet),ascent(feet),flycStateRaw,flycState,message
568400,2025-09-03 05:47:05,48.1487383050643,11.5721866111967,0,Available with any HD 360 subscription,Available with any HD 360 subscription,1692.909034488,0.328084,0,0,0,9,3,0,1692.909034488,0,0,0,0,0,0,188.5, -0.8, 2.7,0,0,1024,1024,1024,1024,0,0,0,0,247.3,-55.5,1,49,3.835,3.842,3.843,3.835,0,0,0,118.31,1692.909034488,0,41,Motors_Started,
568500,2025-09-03 05:47:05,48.1487380424842,11.5721865133829,0,,,1692.909034488,0.328084,0,0.098716866676,0.098716866676,9,3,0,1692.909034488,0,0,0.098716866676,0,0,0,188.5, -0.8, 2.7,0,0,1024,1024,1024,1024,0,0,0,0,247.2,-55.5,1,49,3.835,3.842,3.843,3.835,0,0,0,118.31,1692.909034488,0,41,Motors_Started,
568600,2025-09-03 05:47:05,48.1487379896673,11.5721864446644,0,,,1692.909034488,0.328084,0,0.122004268996,0.124234584028,9,3,0,1692.909034488,0,0,0.122004268996,0,0,0,188.3, -0.8, 2.7,0,0,1024,1024,1024,1024,0,0,0,0,247,-55.5,1,49,3.835,3.842,3.843,3.835,0,0,0,118.31,1692.909034488,0,41,Motors_Started,
568700,2025-09-03 05:47:05,48.1487379694127,11.5721863420263,0,,,1692.909034488,0.328084,0,0.138889768224,0.150289702972,9,3,0,1692.909034488,0,0,0.138889768224,0,0,0,188.4, -0.8, 2.7,0,0,1024,1024,1024,1024,0,0,0,0,247.1,-55.4,1.1,49,3.835,3.842,3.843,3.835,0,0,0,118.31,1692.909034488,0,41,Motors_Started,
568800,2025-09-03 05:47:05,48.1487379313852,11.5721862476661,0,,,1692.909034488,0.328084,0,0.162538391028,0.1771243495,9,3,0,1692.909034488,0,0,0.162538391028,0,0,0,188.3, -0.8, 2.7,0,0,1024,1024,1024,1024,0,0,0,0,246.9,-55.5,1.1,49,3.835,3.842,3.843,3.835,0,0,0,118.31,1692.909034488,0,41,Motors_Started,
568900,2025-09-03 05:47:05,48.1487377261362,11.5721861833769,0,,,1692.909034488,0.328084,0,0.235500007536,0.253627304704,9,3,0,1692.909034488,0,0,0.235500007536,0,0,0,188.4, -0.8, 2.7,0,0,365,364,364,1684,-100,-100,-100,100,246.9,-55.4,1.1,49,3.835,3.842,3.843,3.835,0,0,0,118.31,1692.909034488,0,41,Motors_Started,
569000,2025-09-03 05:47:05,48.1487372257121,11.57218612505,0,,,1692.909034488,0.328084,0,0.41119751972,0.43675854416,9,3,0,1692.909034488,0,0,0.41119751972,0,0,0,188.3, -0.8, 2.7,0,0,367,364,364,1684,-100,-100,-100,100,246.9,-55.4,1.2,49,3.835,3.842,3.843,3.835,0,0,0,118.31,1692.909034488,0,41,Motors_Started,
569100,2025-09-03 05:47:05,48.1487371179547,11.572186023054,0,,,1692.909034488,0.328084,0,0.45616471276,0.48325788948,9,3,0,1692.909034488,0,0,0.45616471276,0,0,0,188.4, -0.8, 2.7,0,0,367,364,364,1684,-100,-100,-100,100,246.9,-55.4,1.2,49,3.835,3.842,3.843,3.835,0,0,0,118.31,1692.909034488,0,41,Motors_Started,
569200,2025-09-03 05:47:05,48.1487370157438,11.5721859287095,0,,,1692.909034488,0.328084,0,0.4988845304,0.52705382264,9,3,15.314,1692.909034488,0,0,0.4988845304,0,0,0,188.3, -0.8, 2.7,0,0,368,364,364,1684,-99,-100,-100,100,246.8,-55.4,1.2,49,3.835,3.842,3.843,3.835,0,0,1.752,118.31,1692.909034488,0,41,Motors_Started,"Setting new Return-To-Home altitude to 100m (328 ft). Data Recorder File Index is 232. Setting new Maximum Flight Altitude to 150m (492 ft)"
569300,2025-09-03 05:47:06,48.1487369096669,11.5721858649146,0,,,1692.909034488,0.328084,0,5.77591882,0.56875329904,9,3,15.314,1692.909034488,0,0,5.77591882,0,0,0,188.4, -0.8, 2.7,0,0,532,447,621,1517,-75,-87,-61,75,246.7,-55.4,1.2,49,3.835,3.842,3.843,3.835,0,0,1.752,118.31,1692.909034488,0,41,Motors_Started,
569400,2025-09-03 05:47:06,48.1487367387129,11.5721858370286,0,,,1692.909034488,0.328084,0,5.737204908,0.6314960832,9,3,15.314,1692.909034488,0,0,5.77591882,0,0,0,188.4, -0.8, 2.7,0,0,983,773,1024,1088,-6,-38,0,10,246.7,-55.4,1.3,49,3.835,3.842,3.843,3.835,0,0,1.752,118.31,1692.909034488,0,41,Motors_Started,
569500,2025-09-03 05:47:06,48.1487366840395,11.5721857914647,0,,,1692.909034488,0.328084,0,5.7172902092,0.65431760624,9,3,15.314,1692.909034488,0,0,5.77591882,0,0,0,188.4, -0.8, 2.7,0,0,1024,1021,1024,1024,0,-0,0,0,246.7,-55.4,1.4,49,3.835,3.842,3.843,3.835,0,0,1.752,118.31,1692.909034488,0,41,Motors_Started,
569600,2025-09-03 05:47:06,48.1487366456147,11.5721857525438,0,,,1692.909034488,0.328084,0,5.7019030696,0.67124017896,8,3,15.314,1692.909034488,0,0,5.77591882,0,0,0,188.4, -0.8, 2.7,0,0,1024,1024,1024,1024,0,0,0,0,246.5,-55.4,1.4,49,3.835,3.842,3.843,3.835,0,0,1.752,118.31,1692.909034488,0,41,Motors_Started,
569700,2025-09-03 05:47:06,48.1487367189501,11.5721857640072,0,,,1692.909034488,0.328084,0,5.7182744612,0.69813978612,8,3,15.314,1692.909034488,0,0,5.77591882,0,0,0,188.4, -0.8, 2.7,0,0,1024,1024,1024,1024,0,0,0,0,246.6,-55.3,1.4,49,3.835,3.842,3.843,3.835,0,0,1.752,118.31,1692.909034488,0,41,Motors_Started,
569800,2025-09-03 05:47:06,48.1487370806177,11.5721859264197,0,,,1692.909034488,0.328084,0,5.8219490052,0.83588913436,7,3,15.314,1692.909034488,0,0,5.8219490052,0,0,0,188.4, -0.9, 2.7,0,0,1024,1024,1024,1024,0,0,0,0,246.5,-55.3,1.5,49,3.835,3.842,3.843,3.835,0,0,1.752,118.31,1692.909034488,0,41,Motors_Started,
569900,2025-09-03 05:47:06,48.1487372339813,11.5721858935388,0,,,1692.909034488,0.328084,0,5.8455382448,0.89241472672,7,3,15.314,1692.909034488,0,0,5.8455382448,0,0,0,188.4, -0.9, 2.6,0,0,1024,1024,1024,1024,0,0,0,0,246.3,-55.3,1.4,49,3.835,3.842,3.843,3.835,0,0,1.752,118.31,1692.909034488,0,10,Assisted_Takeoff,
570000,2025-09-03 05:47:06,48.1487373524864,11.5721858584745,0,,,1692.909034488,0.328084,0,5.8621392952,0.93648625044,7,3,15.314,1692.909034488,0,0,5.8621392952,0,0,0,188.4, -0.9, 2.7,0,0,1024,1024,1024,1024,0,0,0,0,246.3,-55.3,1.5,49,3.835,3.842,3.843,3.835,0,0,1.752,118.31,1692.909034488,0,10,Assisted_Takeoff,
570100,2025-09-03 05:47:06,48.1487373122606,11.5721858052764,0,,,1692.909034488,0.328084,0,5.8432416568,0.95605974188,7,3,15.314,1692.909034488,0,0,5.8621392952,0,0,0,188.4, -0.9, 2.7,0,0,1024,1024,1024,1024,0,0,0,0,246.2,-55.3,1.5,49,3.835,3.842,3.843,3.835,0,0,1.752,118.31,1692.909034488,0,10,Assisted_Takeoff,
570200,2025-09-03 05:47:07,48.1487371739569,11.5721857297345,0,,,1692.909034488,0.328084,0,5.800197036,1.00976381184,9,3,15.228,1692.909034488,0,0,5.8621392952,0,0,0,188.4, -0.9, 2.7,0,0,1024,1024,1024,1024,0,0,0,0,246.2,-55.3,1.5,49,3.835,3.842,3.843,3.835,0,0,1.752,118.31,1692.909034488,0,10,Assisted_Takeoff,
570300,2025-09-03 05:47:07,48.1487370446551,11.5721856692233,0,,,1692.909034488,0.328084,0,5.7621721004,1.0591863856,9,3,15.228,1692.909034488,0,0,5.8621392952,0,0,0,188.4, -0.9, 2.7,0,0,1024,1024,1024,1024,0,0,0,0,246.1,-55.2,1.6,49,3.835,3.842,3.843,3.835,0,0,1.752,118.31,1692.909034488,0,10,Assisted_Takeoff,
570400,2025-09-03 05:47:07,48.1487369510359,11.5721856116326,0,,,1692.909034488,0.328084,0,5.7319227556,1.09610895896,9,3,15.228,1692.909034488,0,0,5.8621392952,0,0,0,188.4, -0.8, 2.6,0,0,1024,1024,1024,1024,0,0,0,0,246.1,-55.2,1.6,49,3.835,3.842,3.843,3.835,0,0,1.752,118.31,1692.909034488,0,10,Assisted_Takeoff,
570500,2025-09-03 05:47:07,48.1487370671114,11.5721855534685,0,,,1692.909034488,0.328084,0,5.742946378,1.1407644722,9,3,15.228,1692.909034488,0,0,5.8621392952,0,0,0,188.4, -0.9, 2.6,0,0,1024,1024,1024,1024,0,0,0,0,246,-55.2,1.6,49,3.835,3.842,3.843,3.835,0,0,1.752,118.31,1692.909034488,0,10,Assisted_Takeoff,
570600,2025-09-03 05:47:07,48.1487371933907,11.572185513116,0,,,1692.909034488,0.328084,0,5.760006746,1.18787077292,9,3,15.228,1692.909034488,0,0,5.8621392952,0,0,0,188.4, -0.8, 2.7,0,0,1024,1024,1024,1024,0,0,0,0,246,-55.3,1.6,49,3.835,3.842,3.843,3.835,0,0,1.752,118.31,1692.909034488,0,10,Assisted_Takeoff,
570700,2025-09-03 05:47:07,48.1487377872484,11.5721857136779,0,,,1692.909034488,0.328084,0,5.9222114756,1.4099737984,9,3,15.228,1692.909034488,0,0,5.9222114756,0,0,0,188.4, -0.8, 2.7,0,0,1024,1024,1024,1024,0,0,0,0,245.8,-55.2,1.6,49,3.835,3.842,3.843,3.835,0,0,1.752,118.31,1692.909034488,0,10,Assisted_Takeoff,
570800,2025-09-03 05:47:07,48.1487379389738,11.5721857580883,0,,,1692.909034488,0.328084,0,5.9628938916,1.46637471884,9,3,15.228,1692.909034488,0,0,5.9628938916,0,0,0,188.4, -0.8, 2.6,0,0,1024,1024,1024,1024,0,0,0,0,245.7,-55.2,1.6,49,3.835,3.842,3.843,3.835,0,0,1.752,118.31,1692.909034488,0,10,Assisted_Takeoff,
570900,2025-09-03 05:47:07,48.1487380903702,11.5721857877353,0,,,1692.909034488,0.328084,0,6.0008532104,1.5220801012,9,3,15.228,1692.909034488,0,0,6.0008532104,0,0,0,188.4, -0.9, 2.6,0,0,1024,1024,1024,1024,0,0,0,0,245.6,-55.2,1.5,49,3.835,3.842,3.843,3.835,0,0,1.752,118.31,1692.909034488,0,10,Assisted_Takeoff,
571000,2025-09-03 05:47:07,48.1487382267589,11.572185821892,0,,,1692.909034488,0.328084,0,6.0367784084,1.57253285872,9,3,15.228,1692.909034488,0,0,6.0367784084,0,0,0,188.4, -0.8, 2.7,0,0,1024,1024,1024,1024,0,0,0,0,245.6,-55.2,1.6,49,3.835,3.842,3.843,3.835,0,0,1.752,118.31,1692.909034488,0,10,Assisted_Takeoff,
571100,2025-09-03 05:47:07,48.1487384046795,11.5721860658552,0,,,1692.909034488,0.328084,0,6.123031692,1.660515145,9,3,15.228,1692.909034488,0,0,6.123031692,0,0,0,188.4, -0.8, 2.7,0,0,1024,1024,1024,1024,0,0,0,0,245.6,-55.2,1.7,49,3.835,3.842,3.843,3.835,0,0,1.752,118.31,1692.909034488,0,10,Assisted_Takeoff,
571200,2025-09-03 05:47:08,48.1487384860398,11.5721861136163,0,,,1692.909034488,0.328084,0,6.1499673884,1.69239506728,9,3,15.275,1692.909034488,0,0,6.1499673884,0,0,0,188.4, -0.8, 2.7,0,0,1024,1024,1024,1024,0,0,0,0,245.4,-55.2,1.6,49,3.83,3.835,3.835,3.825,0,0,5.344,118.31,1692.909034488,0,10,Assisted_Takeoff,
571300,2025-09-03 05:47:08,48.1487385883745,11.5721860776275,0,,,1692.909034488,0.328084,0,6.1651576776,1.73074480604,9,3,15.275,1692.909034488,0,0,6.1651576776,0,0,0,188.4, -0.8, 2.7,0,0,1024,1024,1024,1024,0,0,0,0,245.4,-55.2,1.7,49,3.83,3.835,3.835,3.825,0,0,5.344,118.31,1692.909034488,0,10,Assisted_Takeoff,
571400,2025-09-03 05:47:08,48.1487386878496,11.572186042038,0,,,1692.909034488,0.328084,0,6.1799870744,1.76805779936,9,3,15.275,1692.909034488,0,0,6.1799870744,0,0,0,188.4, -0.8, 2.7,0,0,1024,1024,1024,1024,0,0,0,0,245.3,-55.2,1.7,49,3.83,3.835,3.835,3.825,0,0,5.344,118.31,1692.909034488,0,10,Assisted_Takeoff,
571500,2025-09-03 05:47:08,48.148738822675,11.5721859035221,0,,,1692.909034488,0.328084,0,6.1829726388,1.82769690888,9,3,15.275,1692.909034488,0,0,6.1829726388,0,0,0,188.4, -0.8, 2.6,0,0,1024,1024,1024,1024,0,0,0,0,245.3,-55.2,1.7,49,3.83,3.835,3.835,3.825,0,0,5.344,118.31,1692.909034488,0,10,Assisted_Takeoff,
571600,2025-09-03 05:47:08,48.1487389286378,11.5721858829348,0,,,1692.909034488,0.328084,0,6.2026904872,1.86667984976,9,3,15.275,1692.909034488,0,0,6.2026904872,0,0,0,188.4, -0.8, 2.7,0,0,1024,1024,1024,1024,0,0,0,0,245.3,-55.2,1.7,49,3.83,3.835,3.835,3.825,0,0,5.344,118.31,1692.909034488,0,10,Assisted_Takeoff,
571700,2025-09-03 05:47:08,48.148739039942,11.5721858725034,0,,,1692.909034488,0.328084,0,6.2256891756,1.90736882744,9,3,15.275,1692.909034488,0,0,6.2256891756,0,0,0,188.4, -0.8, 2.7,0,0,1024,1024,1024,1024,0,0,0,0,245.1,-55.2,1.7,49,3.83,3.835,3.835,3.825,0,0,5.344,118.31,1692.909034488,0,10,Assisted_Takeoff,
571800,2025-09-03 05:47:08,48.1487391385768,11.5721858633229,0,,,1692.909034488,0.328084,0,6.2462600424,1.94342525904,9,3,15.275,1692.909034488,0,0,6.2462600424,0,0,0,188.4, -0.8, 2.7,0,0,1024,1024,1024,1024,0,0,0,0,245.1,-55.1,1.8,49,3.83,3.835,3.835,3.825,0,0,5.344,118.31,1692.909034488,0,10,Assisted_Takeoff,
571900,2025-09-03 05:47:08,48.1487391303141,11.5721858591727,0,,,1692.909034488,0.328084,0,6.243602562,1.946604393,9,3,15.275,1692.909034488,0,0,6.2462600424,0,0,0,188.4, -0.8, 2.7,0,0,1024,1024,1024,1024,0,0,0,0,244.9,-55.1,1.7,49,3.83,3.835,3.835,3.825,0,0,5.344,118.31,1692.909034488,0,10,Assisted_Takeoff,
572000,2025-09-03 05:47:08,48.148739197292,11.5721858439562,0,,,1692.909034488,0.328084,0,6.2559385204,1.97131896072,9,3,15.275,1692.909034488,0,0,6.2559385204,0,0,0,188.4, -0.9, 2.6,0,0,1024,1024,1024,1024,0,0,0,0,244.9,-55.2,1.8,49,3.83,3.835,3.835,3.825,0,0,5.344,118.31,1692.909034488,0,10,Assisted_Takeoff,
572100,2025-09-03 05:47:09,48.1487393405593,11.5721857870708,0,,,1692.909034488,0.328084,0,6.2779529568,2.0253937656,9,3,15.275,1692.909034488,0,0,6.2779529568,0,0,0,188.4, -0.9, 2.6,0,0,1024,1024,1024,1024,0,0,0,0,244.8,-55.1,1.8,49,3.83,3.835,3.835,3.825,0,0,5.344,118.31,1692.909034488,0,10,Assisted_Takeoff,
572200,2025-09-03 05:47:09,48.1487394758667,11.5721857449831,0,,,1692.909034488,0.328084,0,6.3013125376,2.07581371472,9,3,15.305,1692.909034488,0,0,6.3013125376,0,0,0,188.4, -0.8, 2.7,0,0,1024,1024,1024,1024,0,0,0,0,244.8,-55.1,1.8,49,3.831,3.838,3.838,3.83,0,0,2.122,118.31,1692.909034488,0,10,Assisted_Takeoff,
572300,2025-09-03 05:47:09,48.148739600638,11.572185776184,0,,,1692.909034488,0.328084,0,6.3361878668,2.121965291,9,3,15.305,1692.909034488,0,0,6.3361878668,0,0,0,188.4, -0.8, 2.7,0,0,1024,1024,1024,1024,0,0,0,0,244.7,-55.1,1.8,49,3.831,3.838,3.838,3.83,0,0,2.122,118.31,1692.909034488,0,10,Assisted_Takeoff,
572400,2025-09-03 05:47:09,48.1487398351763,11.5721858376774,0,,,1692.909034488,0.328084,0,6.4026904936,2.20883537252,9,3,15.305,1692.909034488,0,0,6.4026904936,0,0,0,188.4, -0.8, 2.7,0,0,1024,1024,1024,1024,0,0,0,0,244.6,-55.1,1.9,49,3.831,3.838,3.838,3.83,0,0,2.122,118.31,1692.909034488,0,10,Assisted_Takeoff,
572500,2025-09-03 05:47:09,48.1487400557197,11.572185799683,0,,,1692.909034488,0.328084,0,6.4480317024,2.2898294696,9,3,15.305,1692.909034488,0,0,6.4480317024,0,0,0,188.4, -0.8, 2.7,0,0,1024,1024,1024,1024,0,0,0,0,244.5,-55.1,1.8,49,3.831,3.838,3.838,3.83,0,0,2.122,118.31,1692.909034488,0,10,Assisted_Takeoff,
572600,2025-09-03 05:47:10,48.1487402496642,11.5721857659612,0,,,1692.909034488,0.328084,0,6.4883860344,2.36106634852,9,3,15.305,1692.909034488,0,0,6.4883860344,0,0,0,188.4, -0.8, 2.7,0,0,1024,1024,1024,1024,0,0,0,0,244.5,-55,1.9,49,3.831,3.838,3.838,3.83,0,0,2.122,118.31,1692.909034488,0,10,Assisted_Takeoff,
572700,2025-09-03 05:47:10,48.1487403406779,11.5721857516009,0,,,1692.909034488,0.328084,0,6.5078086072,2.3944554572,9,3,15.305,1692.909034488,0,0,6.5078086072,0,0,0,188.4, -0.8, 2.7,0,0,1024,1024,1024,1024,0,0,0,0,244.4,-55,1.9,49,3.831,3.838,3.838,3.83,0,0,2.122,118.31,1692.909034488,0,10,Assisted_Takeoff,
572800,2025-09-03 05:47:10,48.1487404443186,11.5721857274704,0,,,1692.909034488,0.328084,0,6.5286091328,2.43272317496,9,3,15.305,1692.909034488,0,0,6.5286091328,0,0,0,188.4, -0.9, 2.7,0,0,1024,1024,1024,1024,0,0,0,0,244.4,-55,1.9,49,3.831,3.838,3.838,3.83,0,0,2.122,118.31,1692.909034488,0,10,Assisted_Takeoff,
572900,2025-09-03 05:47:10,48.1487405257343,11.5721857798095,0,,,1692.909034488,0.328084,0,6.5579398424,2.4650427298,9,3,15.305,1692.909034488,0,0,6.5579398424,0,0,0,188.4, -0.9, 2.7,0,0,1024,1024,1024,1024,0,0,0,0,244.3,-55,1.8,49,3.831,3.838,3.838,3.83,0,0,2.122,118.31,1692.909034488,0,10,Assisted_Takeoff,
573000,2025-09-03 05:47:10,48.1487405924288,11.572185822339,0,,,1692.909034488,0.328084,0,6.5819555912,2.4914863002,9,3,15.305,1692.909034488,0,0,6.5819555912,0,0,0,188.4, -0.8, 2.7,0,0,1024,1024,1024,1024,0,0,0,0,244.3,-55,1.9,49,3.831,3.838,3.838,3.83,0,0,2.122,118.31,1692.909034488,0,10,Assisted_Takeoff,
573100,2025-09-03 05:47:10,48.148740580336,11.5721857889121,0,,,1692.909034488,0.328084,0,6.5729660896,2.50074483068,9,3,15.305,1692.909034488,0,0,6.5819555912,0,0,0,188.4, -0.8, 2.7,0,0,1024,1024,1024,1024,0,0,0,0,244.2,-55,2,49,3.831,3.838,3.838,3.83,0,0,2.122,118.31,1692.909034488,0,10,Assisted_Takeoff,
573200,2025-09-03 05:47:10,48.1487403077833,11.5721857887789,0,,,1692.909034488,0.328084,0,6.5065946964,2.60018381024,9,3,15.31,1692.909034488,0,0,6.5819555912,0,0,0,188.4, -0.8, 2.7,0,0,1024,1024,1024,1024,0,0,0,0,244.1,-55,2,49,3.832,3.839,3.84,3.831,0,0,2.23,118.31,1692.909034488,0,10,Assisted_Takeoff,
573300,2025-09-03 05:47:10,48.1487403766926,11.5721857709436,0,,,1692.909034488,0.328084,0,6.5200461404,2.62569890292,9,3,15.31,1692.909034488,0,0,6.5819555912,0,0,0,188.4, -0.8, 2.7,0,0,1024,1024,1024,1024,0,0,0,0,244.1,-54.9,2,49,3.832,3.839,3.84,3.831,0,0,2.23,118.31,1692.909034488,0,10,Assisted_Takeoff,
573400,2025-09-03 05:47:10,48.1487404412441,11.5721857546711,0,,,1692.909034488,0.328084,0,6.5327757996,2.64958013728,9,3,15.31,1692.909034488,0,0,6.5819555912,0,0,0,188.4, -0.8, 2.7,0,0,1024,1024,1024,1024,0,0,0,0,244,-54.9,2,49,3.832,3.839,3.84,3.831,0,0,2.23,118.31,1692.909034488,0,10,Assisted_Takeoff,
573500,2025-09-03 05:47:10,48.148740495595,11.5721857473696,0,,,1692.909034488,0.328084,0,6.5447180572,2.66949155524,9,3,15.31,1692.909034488,0,0,6.5819555912,0,0,0,188.4, -0.8, 2.7,0,0,1024,1024,1024,1024,0,0,0,0,243.9,-55,2.1,49,3.832,3.839,3.84,3.831,0,0,2.23,118.31,1692.909034488,0,10,Assisted_Takeoff,
573600,2025-09-03 05:47:11,48.1487405609412,11.5721857692127,0,,,1692.909034488,0.328084,0,6.5646655644,2.69391740904,9,3,15.31,1692.909034488,0,0,6.5819555912,0,0,0,188.4, -0.8, 2.7,0,0,1024,1024,1024,1024,0,0,0,0,243.8,-55,2.1,49,3.832,3.839,3.84,3.831,0,0,2.23,118.31,1692.909034488,0,10,Assisted_Takeoff,
573900,2025-09-03 05:47:11,48.1487408830084,11.5721857024793,0,,,1692.909034488,0.328084,0,6.6321852516,2.81253946008,9,3,15.31,1692.909034488,0,0,6.6321852516,0,0,0,188.4, -0.8, 2.7,0,0,1024,1024,1024,1024,0,0,0,0,243.7,-54.9,2.2,49,3.832,3.839,3.84,3.831,0,0,2.23,118.31,1692.909034488,0,10,Assisted_Takeoff,
574000,2025-09-03 05:47:11,48.1487410046662,11.5721856519244,0,,,1692.909034488,0.328084,0,6.6535763284,2.85860245368,9,3,15.31,1692.909034488,0,0,6.6535763284,0,0,0,188.4, -0.9, 2.7,0,0,1024,1024,1024,1024,0,0,0,0,243.6,-54.9,2.1,49,3.832,3.839,3.84,3.831,0,0,2.23,118.31,1692.909034488,0,10,Assisted_Takeoff,
574100,2025-09-03 05:47:11,48.1487413413698,11.5721855871875,0,,,1692.909034488,0.328084,0,6.7271655696,2.98245416368,9,3,15.31,1692.909034488,0,0,6.7271655696,0,0,0,188.4, -0.8, 2.7,0,0,1024,1024,1024,1024,0,0,0,0,243.6,-54.9,2.1,49,3.832,3.839,3.84,3.831,0,0,2.23,118.31,1692.909034488,0,10,Assisted_Takeoff,
574200,2025-09-03 05:47:11,48.1487415025597,11.5721855699159,0,,,1692.909034488,0.328084,0,6.7652889304,3.04141413932,9,3,15.31,1692.909034488,0,0,6.7652889304,0,0,0,188.4, -0.8, 2.7,0,0,1024,1024,1024,1024,0,0,0,0,243.5,-54.9,2.2,49,3.832,3.839,3.84,3.831,0,0,2.23,118.31,1692.909034488,0,10,Assisted_Takeoff,
574300,2025-09-03 05:47:11,48.148741632972,11.5721855670319,0,,,1692.909034488,0.328084,0,6.7982613724,3.08899944268,9,3,15.31,1692.909034488,0,0,6.7982613724,0,0,0,188.4, -0.8, 2.7,0,0,1024,1024,1024,1024,0,0,0,0,243.4,-54.9,2.2,49,3.832,3.839,3.84,3.831,0,0,2.23,118.31,1692.909034488,0,10,Assisted_Takeoff,
574400,2025-09-03 05:47:11,48.1487417630749,11.572185558278,0,,,1692.909034488,0.328084,0,6.8303479876,3.1365158484,9,3,15.31,1692.909034488,0,0,6.8303479876,0,0,0,188.4, -0.8, 2.7,0,0,1024,1024,1024,1024,0,0,0,0,243.4,-54.9,2.3,49,3.832,3.839,3.84,3.831,0,0,2.23,118.31,1692.909034488,0,10,Assisted_Takeoff,
574500,2025-09-03 05:47:11,48.1487419950239,11.5721855048821,0,,,1692.909034488,0.328084,0,6.8815290916,3.22213592988,9,3,15.31,1692.909034488,0,0,6.8815290916,0,0,0,188.4, -0.8, 2.7,0,0,1024,1024,1024,1024,0,0,0,0,243.2,-54.9,2.2,49,3.832,3.839,3.84,3.831,0,0,2.23,118.31,1692.909034488,0,10,Assisted_Takeoff,
574600,2025-09-03 05:47:11,48.1487421390305,11.5721854529888,0,,,1692.909034488,0.328084,0,6.9104989088,3.27617464552,9,3,15.31,1692.909034488,0,0,6.9104989088,0,0,0,188.4, -0.8, 2.7,0,0,1024,1024,1024,1024,0,0,0,0,243.2,-54.9,2.3,49,3.832,3.839,3.84,3.831,0,0,2.23,118.31,1692.909034488,0,10,Assisted_Takeoff,
574700,2025-09-03 05:47:11,48.1487422073437,11.5721853852952,0,,,1692.909034488,0.328084,0,6.9170933972,3.3060368512,9,3,15.31,1692.909034488,0,0,6.9170933972,0,0,0,188.4, -0.8, 2.7,0,0,1024,1024,1024,1024,0,0,0,0,243.2,-54.8,2.3,49,3.832,3.839,3.84,3.831,0,0,2.23,118.31,1692.909034488,0,10,Assisted_Takeoff,
574800,2025-09-03 05:47:11,48.1487422808517,11.5721853191524,0,,,1692.909034488,0.328084,0,6.9254595392,3.3373360648,9,3,15.31,1692.909034488,0,0,6.9254595392,0,0,0,188.4, -0.8, 2.7,0,0,1024,1024,1024,1024,0,0,0,0,243.1,-54.9,2.3,49,3.832,3.839,3.84,3.831,0,0,2.23,118.31,1692.909034488,0,10,Assisted_Takeoff,
574900,2025-09-03 05:47:11,48.1487423291904,11.5721851598538,0,,,1692.909034488,0.328084,0,6.911745628,3.379921368,9,3,15.31,1692.909034488,0,0,6.9254595392,0,0,0,188.4, -0.8, 2.7,0,0,1024,1024,1024,1024,0,0,0,0,243,-54.8,2.3,49,3.832,3.839,3.84,3.831,0,0,2.23,118.31,1692.909034488,0,10,Assisted_Takeoff,
575000,2025-09-03 05:47:11,48.1487424639507,11.572185101106,0,,,1692.909034488,0.328084,0,6.9380251564,3.4311352804,9,3,15.31,1692.909034488,0,0,6.9380251564,0,0,0,188.4, -0.8, 2.7,0,0,1024,1024,1024,1024,0,0,0,0,243,-54.8,2.4,49,3.832,3.839,3.84,3.831,0,0,2.23,118.31,1692.909034488,0,10,Assisted_Takeoff,
575100,2025-09-03 05:47:11,48.148742629938,11.5721850895555,0,,,1692.909034488,0.328084,0,6.9807745016,3.4917652036,9,3,15.31,1692.909034488,0,0,6.9807745016,0,0,0,188.4, -0.8, 2.7,0,0,1024,1024,1024,1024,0,0,0,0,242.9,-54.8,2.4,49,3.832,3.839,3.84,3.831,0,0,2.23,118.31,1692.909034488,0,10,Assisted_Takeoff,
575200,2025-09-03 05:47:11,48.1487427830052,11.5721850854024,0,,,1692.909034488,0.328084,0,7.0214569176,3.5476051004,9,4,15.309,1692.909034488,0,0,7.0214569176,0,0,0,188.4, -0.8, 2.7,0,0,1024,1024,1024,1024,0,0,0,0,242.8,-54.8,2.4,49,3.832,3.839,3.84,3.832,0,0,2.224,116.51,1692.909034488,0,10,Assisted_Takeoff,
575300,2025-09-03 05:47:12,48.1487429276729,11.5721852368739,0,,,1692.909034488,0.328084,0,7.0853676808,3.6120079896,9,4,15.309,1692.909034488,0,0,7.0853676808,0,0,0,188.4, -0.8, 2.7,0,0,1024,1024,1024,1024,0,0,0,0,242.8,-54.8,2.4,49,3.832,3.839,3.84,3.832,0,0,2.224,116.51,1692.909034488,0,10,Assisted_Takeoff,
575400,2025-09-03 05:47:12,48.1487430324046,11.572185233969,0,,,1692.909034488,0.328084,0,7.113353246,3.6502297756,9,4,15.309,1692.909034488,0,0,7.113353246,0,0,0,188.4, -0.8, 2.7,0,0,1024,1024,1024,1024,0,0,0,0,242.8,-54.8,2.5,49,3.832,3.839,3.84,3.832,0,0,2.224,116.51,1692.909034488,0,10,Assisted_Takeoff,
575500,2025-09-03 05:47:12,48.1487430764052,11.5721851901331,0,,,1692.909034488,0.328084,0,7.1182416976,3.6694883064,9,4,15.309,1692.909034488,0,0,7.1182416976,0,0,0,188.4, -0.8, 2.7,0,0,1024,1024,1024,1024,0,0,0,0,242.7,-54.8,2.5,49,3.832,3.839,3.84,3.832,0,0,2.224,116.51,1692.909034488,0,10,Assisted_Takeoff,
575600,2025-09-03 05:47:12,48.1487431211939,11.5721851520845,0,,,1692.909034488,0.328084,0,7.12434406,3.6882875196,9,4,15.309,1692.909034488,0,0,7.12434406,0,0,0,188.4, -0.8, 2.6,0,0,1024,1024,1024,1024,0,0,0,0,242.7,-54.8,2.5,49,3.832,3.839,3.84,3.832,0,0,2.224,116.51,1692.909034488,0,10,Assisted_Takeoff,
575700,2025-09-03 05:47:12,48.1487431990873,11.5721851394615,0,,,1692.909034488,0.328084,0,7.1436353992,3.716863636,9,4,15.309,1692.909034488,0,0,7.1436353992,0,0,0,188.4, -0.8, 2.6,0,0,1024,1024,1024,1024,0,0,0,0,242.6,-54.8,2.5,49,3.832,3.839,3.84,3.832,0,0,2.224,116.51,1692.909034488,0,10,Assisted_Takeoff,
575800,2025-09-03 05:47:12,48.1487431100016,11.5721851787162,0,,,1692.909034488,0.328084,0,7.1255579708,3.7507547132,9,4,15.309,1692.909034488,0,0,7.1436353992,0,0,0,188.4, -0.8, 2.7,0,0,1024,1024,1024,1024,0,0,0,0,242.5,-54.8,2.5,49,3.832,3.839,3.84,3.832,0,0,2.224,116.51,1692.909034488,0,10,Assisted_Takeoff,
575900,2025-09-03 05:47:12,48.1487431554873,11.572185185907,0,,,1692.909034488,0.328084,0,7.1391734568,3.7674213804,9,4,15.309,1692.909034488,0,0,7.1436353992,0,0,0,188.4, -0.8, 2.7,0,0,1024,1024,1024,1024,0,0,0,0,242.5,-54.7,2.7,49,3.832,3.839,3.84,3.832,0,0,2.224,116.51,1692.909034488,0,10,Assisted_Takeoff,
576000,2025-09-03 05:47:12,48.1487432077392,11.5721851928057,0,,,1692.909034488,0.328084,0,7.1545605964,3.786581486,9,4,15.309,1692.909034488,0,0,7.1545605964,0,0,0,188.4, -0.8, 2.7,0,0,1024,1024,1024,1024,0,0,0,0,242.4,-54.8,2.6,49,3.832,3.839,3.84,3.832,0,0,2.224,116.51,1692.909034488,0,10,Assisted_Takeoff,
576100,2025-09-03 05:47:12,48.1487433509918,11.5721851999523,0,,,1692.909034488,0.328084,0,7.195046162,3.8388780756,9,4,15.309,1692.909034488,0,0,7.195046162,0,0,0,188.4, -0.8, 2.7,0,0,1024,1024,1024,1024,0,0,0,0,242.4,-54.8,2.7,49,3.832,3.839,3.84,3.832,0,0,2.224,116.51,1692.909034488,0,10,Assisted_Takeoff,
576200,2025-09-03 05:47:13,48.1487435008086,11.5721852553054,0,,,1692.909034488,0.328084,0,7.2451117804,3.89517729,9,4,15.311,1692.909034488,0,0,7.2451117804,0,0,0,188.4, -0.8, 2.7,0,0,1024,1024,1024,1024,0,0,0,0,242.3,-54.8,2.7,49,3.832,3.839,3.84,3.832,0,0,2.228,116.51,1692.909034488,0,10,Assisted_Takeoff,
576300,2025-09-03 05:47:13,48.148743679602,11.5721852563514,0,,,1692.909034488,0.328084,0,7.2947180812,3.9604003892,9,4,15.311,1692.909034488,0,0,7.2947180812,0,0,0,188.4, -0.8, 2.7,0,0,1024,1024,1024,1024,0,0,0,0,242.2,-54.7,2.7,49,3.832,3.839,3.84,3.832,0,0,2.228,116.51,1692.909034488,0,10,Assisted_Takeoff,
576400,2025-09-03 05:47:13,48.1487438486394,11.5721852573308,0,,,1692.909034488,0.328084,0,7.341863752,4.0220801812,9,4,15.311,1692.909034488,0,0,7.341863752,0,0,0,188.4, -0.8, 2.7,0,0,1024,1024,1024,1024,0,0,0,0,242.1,-54.7,2.7,49,3.832,3.839,3.84,3.832,0,0,2.228,116.51,1692.909034488,0,10,Assisted_Takeoff,
576500,2025-09-03 05:47:13,48.1487439813788,11.5721852561977,0,,,1692.909034488,0.328084,0,7.3787075852,4.0705053796,9,4,15.311,1692.909034488,0,0,7.3787075852,0,0,0,188.4, -0.8, 2.7,0,0,1024,1024,1024,1024,0,0,0,0,242.1,-54.7,2.7,49,3.832,3.839,3.84,3.832,0,0,2.228,116.51,1692.909034488,0,10,Assisted_Takeoff,
576600,2025-09-03 05:47:13,48.1487442155767,11.5721853073905,0,,,1692.909034488,0.328084,0,7.4523296348,4.1568570884,9,4,15.311,1692.909034488,0,0,7.4523296348,0,0,0,188.5, -0.8, 2.7,0,0,1024,1024,1024,1024,0,0,0,0,242.2,-54.7,2.9,49,3.832,3.839,3.84,3.832,0,0,2.228,116.51,1692.909034488,0,10,Assisted_Takeoff,
576700,2025-09-03 05:47:13,48.148744328449,11.5721853585134,0,,,1692.909034488,0.328084,0,7.4919949904,4.1998689008,9,4,15.311,1692.909034488,0,0,7.4919949904,0,0,0,188.4, -0.8, 2.7,0,0,1024,1024,1024,1024,0,0,0,0,242,-54.7,2.8,49,3.832,3.839,3.84,3.832,0,0,2.228,116.51,1692.909034488,0,10,Assisted_Takeoff,
576800,2025-09-03 05:47:13,48.1487444266996,11.5721853953339,0,,,1692.909034488,0.328084,0,7.5253611332,4.2368111592,9,4,15.311,1692.909034488,0,0,7.5253611332,0,0,0,188.4, -0.8, 2.7,0,0,1024,1024,1024,1024,0,0,0,0,241.9,-54.7,2.8,49,3.832,3.839,3.84,3.832,0,0,2.228,116.51,1692.909034488,0,10,Assisted_Takeoff,
576900,2025-09-03 05:47:13,48.1487444773572,11.5721853589512,0,,,1692.909034488,0.328084,0,7.5340553592,4.2573164092,9,4,15.311,1692.909034488,0,0,7.5340553592,0,0,0,188.4, -0.8, 2.7,0,0,1024,1024,1024,1024,0,0,0,0,241.9,-54.7,2.9,49,3.832,3.839,3.84,3.832,0,0,2.228,116.51,1692.909034488,0,10,Assisted_Takeoff,
577000,2025-09-03 05:47:13,48.1487442521678,11.5721853890836,0,,,1692.909034488,0.328084,0,7.4752955148,4.3397967268,9,4,15.311,1692.909034488,0,0,7.5340553592,0,0,0,188.4, -0.8, 2.7,0,0,1024,1024,1024,1024,0,0,0,0,241.8,-54.7,3,49,3.832,3.839,3.84,3.832,0,0,2.228,116.51,1692.909034488,0,10,Assisted_Takeoff,
577100,2025-09-03 05:47:13,48.1487442836961,11.5721854215604,0,,,1692.909034488,0.328084,0,7.4892062764,4.3537731052,9,4,15.311,1692.909034488,0,0,7.5340553592,0,0,0,188.5, -0.8, 2.7,0,0,1024,1024,1024,1024,0,0,0,0,241.8,-54.7,3,49,3.832,3.839,3.84,3.832,0,0,2.228,116.51,1692.909034488,0,10,Assisted_Takeoff,
577200,2025-09-03 05:47:13,48.1487443201716,11.5721854502219,0,,,1692.909034488,0.328084,0,7.5038716312,4.3687993524,9,4,15.312,1692.909034488,0,0,7.5340553592,0,0,0,188.5, -0.8, 2.7,0,0,1024,1024,1024,1024,0,0,0,0,241.6,-54.6,3,49,3.832,3.839,3.84,3.832,0,0,2.242,116.51,1692.909034488,0,10,Assisted_Takeoff,
577300,2025-09-03 05:47:14,48.1487444069889,11.5721854593863,0,,,1692.909034488,0.328084,0,7.5297246504,4.4005578836,9,4,15.312,1692.909034488,0,0,7.5340553592,0,0,0,188.5, -0.8, 2.7,0,0,1024,1024,1024,1024,0,0,0,0,241.6,-54.7,3,49,3.832,3.839,3.84,3.832,0,0,2.242,116.51,1692.909034488,0,10,Assisted_Takeoff,
577400,2025-09-03 05:47:14,48.1487444941676,11.5721854576595,0,,,1692.909034488,0.328084,0,7.5540028664,4.4323492232,9,4,15.312,1692.909034488,0,0,7.5540028664,0,0,0,188.5, -0.8, 2.7,0,0,1024,1024,1024,1024,0,0,0,0,241.6,-54.6,3.1,49,3.832,3.839,3.84,3.832,0,0,2.242,116.51,1692.909034488,0,10,Assisted_Takeoff,
577500,2025-09-03 05:47:14,48.1487446475312,11.572185309996,0,,,1692.909034488,0.328084,0,7.5747377752,4.49885185,9,4,15.312,1692.909034488,0,0,7.5747377752,0,0,0,188.5, -0.9, 2.6,0,0,1024,1024,1024,1024,0,0,0,0,241.5,-54.6,3.1,49,3.832,3.839,3.84,3.832,0,0,2.242,116.51,1692.909034488,0,10,Assisted_Takeoff,
577600,2025-09-03 05:47:14,48.1487447526733,11.5721852527122,0,,,1692.909034488,0.328084,0,7.5958991932,4.5396654996,9,4,15.312,1692.909034488,0,0,7.5958991932,0,0,0,188.5, -0.8, 2.7,0,0,1024,1024,1024,1024,0,0,0,0,241.5,-54.6,3.2,49,3.832,3.839,3.84,3.832,0,0,2.242,116.51,1692.909034488,0,10,Assisted_Takeoff,
577700,2025-09-03 05:47:14,48.1487448666498,11.572185178002,0,,,1692.909034488,0.328084,0,7.6171590364,4.5850723252,9,4,15.312,1692.909034488,0,0,7.6171590364,0,0,0,188.5, -0.8, 2.7,0,0,1024,1024,1024,1024,0,0,0,0,241.5,-54.6,3.2,49,3.832,3.839,3.84,3.832,0,0,2.242,116.51,1692.909034488,0,10,Assisted_Takeoff,
577800,2025-09-03 05:47:14,48.148744967483,11.5721851020954,0,,,1692.909034488,0.328084,0,7.6346459136,4.6262140588,9,4,15.312,1692.909034488,0,0,7.6346459136,0,0,0,188.5, -0.8, 2.7,0,0,1024,1024,1024,1024,0,0,0,0,241.4,-54.6,3.2,49,3.832,3.839,3.84,3.832,0,0,2.242,116.51,1692.909034488,0,10,Assisted_Takeoff,
577900,2025-09-03 05:47:14,48.1487450121903,11.5721848769068,0,,,1692.909034488,0.328084,0,7.6138781964,4.6834319084,9,4,15.312,1692.909034488,0,0,7.6346459136,0,0,0,188.5, -0.8, 2.7,0,0,1024,1024,1024,1024,0,0,0,0,241.4,-54.6,3.2,49,3.832,3.839,3.84,3.832,0,0,2.242,116.51,1692.909034488,0,10,Assisted_Takeoff,
578000,2025-09-03 05:47:15,48.14874507036,11.5721848133807,0,,,1692.909034488,0.328084,0,7.6212928948,4.7096786284,9,4,15.312,1692.909034488,0,0,7.6346459136,0,0,0,188.5, -0.9, 2.7,0,0,1024,1024,1024,1024,0,0,0,0,241.3,-54.6,3.3,49,3.832,3.839,3.84,3.832,0,0,2.242,116.51,1692.909034488,0,10,Assisted_Takeoff,
578100,2025-09-03 05:47:15,48.148745109783,11.5721847998486,0,,,1692.909034488,0.328084,0,7.6307089056,4.7244424084,9,4,15.312,1692.909034488,0,0,7.6346459136,0,0,0,188.5, -0.8, 2.7,0,0,1024,1024,1024,1024,0,0,0,0,241.3,-54.5,3.3,49,3.832,3.839,3.84,3.832,0,0,2.242,116.51,1692.909034488,0,10,Assisted_Takeoff,
578200,2025-09-03 05:47:15,48.1487451538096,11.5721847830561,0,,,1692.909034488,0.328084,0,7.6410107432,4.7410106504,9,4,15.31,1692.909034488,0,0,7.6410107432,0,0,0,188.5, -0.8, 2.7,0,0,1024,1024,1024,1024,0,0,0,0,241.2,-54.5,3.3,49,3.832,3.839,3.84,3.832,0,0,2.232,116.51,1692.909034488,0,10,Assisted_Takeoff,
578300,2025-09-03 05:47:15,48.1487452008944,11.5721848079004,0,,,1692.909034488,0.328084,0,7.6583335784,4.7592193124,9,4,15.31,1692.909034488,0,0,7.6583335784,0,0,0,188.5, -0.8, 2.6,0,0,1024,1024,1024,1024,0,0,0,0,241,-54.5,3.3,49,3.832,3.839,3.84,3.832,0,0,2.232,116.51,1692.909034488,0,10,Assisted_Takeoff,
578400,2025-09-03 05:47:15,48.1487453020354,11.5721847660096,0,,,1692.909034488,0.328084,0,7.6816275424,4.7975067152,9,4,15.31,1692.909034488,0,0,7.6816275424,0,0,0,188.5, -0.8, 2.6,0,0,1024,1024,1024,1024,0,0,0,0,241.1,-54.5,3.4,49,3.832,3.839,3.84,3.832,0,0,2.232,116.51,1692.909034488,0,10,Assisted_Takeoff,
578500,2025-09-03 05:47:15,48.1487454693678,11.572184710943,0,,,1692.909034488,0.328084,0,7.722441192,4.8600067172,9,4,15.31,1692.909034488,0,0,7.722441192,0,0,0,188.5, -0.8, 2.6,0,0,1024,1024,1024,1024,0,0,0,0,241,-54.5,3.5,49,3.832,3.839,3.84,3.832,0,0,2.232,116.51,1692.909034488,0,10,Assisted_Takeoff,
578600,2025-09-03 05:47:15,48.1487456192987,11.5721846654132,0,,,1692.909034488,0.328084,0,7.759842768,4.9158138056,9,4,15.31,1692.909034488,0,0,7.759842768,0,0,0,188.5, -0.9, 2.6,0,0,1024,1024,1024,1024,0,0,0,0,240.8,-54.5,3.4,49,3.832,3.839,3.84,3.832,0,0,2.232,116.51,1692.909034488,0,10,Assisted_Takeoff,
578700,2025-09-03 05:47:15,48.1487457637938,11.572184703924,0,,,1692.909034488,0.328084,0,7.8078742656,4.9693899228,9,4,15.31,1692.909034488,0,0,7.8078742656,0,0,0,188.5, -0.9, 2.6,0,0,1024,1024,1024,1024,0,0,0,0,240.9,-54.5,3.5,49,3.832,3.839,3.84,3.832,0,0,2.232,116.51,1692.909034488,0,10,Assisted_Takeoff,
578800,2025-09-03 05:47:15,48.1487458345904,11.572184693243,0,,,1692.909034488,0.328084,0,7.8272312216,4.9953413672,9,4,15.31,1692.909034488,0,0,7.8272312216,0,0,0,188.5, -0.8, 2.7,0,0,1024,1024,1024,1024,0,0,0,0,240.8,-54.5,3.5,49,3.832,3.839,3.84,3.832,0,0,2.232,116.51,1692.909034488,0,10,Assisted_Takeoff,
578900,2025-09-03 05:47:15,48.1487458791478,11.5721846510176,0,,,1692.909034488,0.328084,0,7.8343506444,5.0145670896,9,4,15.31,1692.909034488,0,0,7.8343506444,0,0,0,188.5, -0.8, 2.7,0,0,1024,1024,1024,1024,0,0,0,0,240.8,-54.5,3.5,49,3.832,3.839,3.84,3.832,0,0,2.232,116.51,1692.909034488,0,10,Assisted_Takeoff,
579000,2025-09-03 05:47:15,48.1487459272342,11.5721846069546,0,,,1692.909034488,0.328084,0,7.8422902772,5.0351379564,9,4,15.31,1692.909034488,0,0,7.8422902772,0,0,0,188.5, -0.8, 2.7,0,0,1024,1024,1024,1024,0,0,0,0,240.7,-54.4,3.5,49,3.832,3.839,3.84,3.832,0,0,2.232,116.51,1692.909034488,0,10,Assisted_Takeoff,
579100,2025-09-03 05:47:16,48.1487460157238,11.5721845481233,0,,,1692.909034488,0.328084,0,7.8601708552,5.0704397948,9,4,15.31,1692.909034488,0,0,7.8601708552,0,0,0,188.5, -0.8, 2.7,0,0,1024,1024,1024,1024,0,0,0,0,240.5,-54.4,3.5,49,3.832,3.839,3.84,3.832,0,0,2.232,116.51,1692.909034488,0,10,Assisted_Takeoff,
579200,2025-09-03 05:47:16,48.1487460488382,11.5721844430628,0,,,1692.909034488,0.328084,0,7.8551839784,5.0987206356,9,4,15.31,1692.909034488,0,0,7.8601708552,0,0,0,188.5, -0.9, 2.7,0,0,1024,1024,1024,1024,0,0,0,0,240.6,-54.4,3.5,49,3.832,3.839,3.84,3.832,0,0,2.232,116.51,1692.909034488,0,10,Assisted_Takeoff,
579300,2025-09-03 05:47:16,48.1487461605772,11.5721844318558,0,,,1692.909034488,0.328084,0,7.8868768928,5.139599902,9,4,15.31,1692.909034488,0,0,7.8868768928,0,0,0,188.5, -0.9, 2.6,0,0,1024,1024,1024,1024,0,0,0,0,240.5,-54.4,3.6,49,3.832,3.839,3.84,3.832,0,0,2.232,116.51,1692.909034488,0,10,Assisted_Takeoff,
579400,2025-09-03 05:47:16,48.1487462604675,11.5721844092515,0,,,1692.909034488,0.328084,0,7.913550122,5.1764437352,9,4,15.31,1692.909034488,0,0,7.913550122,0,0,0,188.5, -0.8, 2.6,0,0,1024,1024,1024,1024,0,0,0,0,240.4,-54.4,3.5,49,3.832,3.839,3.84,3.832,0,0,2.232,116.51,1692.909034488,0,10,Assisted_Takeoff,
579500,2025-09-03 05:47:16,48.1487463246836,11.572184314521,0,,,1692.909034488,0.328084,0,7.9195868676,5.209317752,9,4,15.31,1692.909034488,0,0,7.9195868676,0,0,0,188.5, -0.8, 2.6,0,0,1024,1024,1024,1024,0,0,0,0,240.3,-54.4,3.6,49,3.832,3.839,3.84,3.832,0,0,2.232,116.51,1692.909034488,0,10,Assisted_Takeoff,
579600,2025-09-03 05:47:16,48.148746337944,11.5721842112796,0,,,1692.909034488,0.328084,0,7.90928503,5.234908304,9,4,15.31,1692.909034488,0,0,7.9195868676,0,0,0,188.5, -0.8, 2.6,0,0,1024,1024,1024,1024,0,0,0,0,240.3,-54.3,3.7,49,3.832,3.839,3.84,3.832,0,0,2.232,116.51,1692.909034488,0,10,Assisted_Takeoff,
579700,2025-09-03 05:47:16,48.1487463828695,11.5721841414652,0,,,1692.909034488,0.328084,0,7.9131564212,5.258530352,9,4,15.31,1692.909034488,0,0,7.9195868676,0,0,0,188.5, -0.8, 2.6,0,0,1024,1024,1024,1024,0,0,0,0,240.3,-54.3,3.7,49,3.832,3.839,3.84,3.832,0,0,2.232,116.51,1692.909034488,0,10,Assisted_Takeoff,
579800,2025-09-03 05:47:16,48.1487464245512,11.572184076459,0,,,1692.909034488,0.328084,0,7.9167981536,5.2804791716,9,4,15.31,1692.909034488,0,0,7.9195868676,0,0,0,188.5, -0.8, 2.6,0,0,1024,1024,1024,1024,0,0,0,0,240.1,-54.3,3.7,49,3.832,3.839,3.84,3.832,0,0,2.232,116.51,1692.909034488,0,10,Assisted_Takeoff,
579900,2025-09-03 05:47:17,48.1487464676919,11.5721840197205,0,,,1692.909034488,0.328084,0,7.922080306,5.3014109308,9,4,15.31,1692.909034488,0,0,7.922080306,0,0,0,188.5, -0.8, 2.6,0,0,1024,1024,1024,1024,0,0,0,0,240.2,-54.3,3.8,49,3.832,3.839,3.84,3.832,0,0,2.232,116.51,1692.909034488,0,10,Assisted_Takeoff,
580000,2025-09-03 05:47:17,48.1487463961153,11.5721839429091,0,,,1692.909034488,0.328084,0,7.8899608824,5.3335303544,9,4,15.31,1692.909034488,0,0,7.922080306,0,0,0,188.5, -0.8, 2.6,0,0,1024,1024,1024,1024,0,0,0,0,240,-54.3,3.7,49,3.832,3.839,3.84,3.832,0,0,2.232,116.51,1692.909034488,0,10,Assisted_Takeoff,
580100,2025-09-03 05:47:17,48.1487464395703,11.5721838420943,0,,,1692.909034488,0.328084,0,7.8893703312,5.3627626388,9,4,15.31,1692.909034488,0,0,7.922080306,0,0,0,188.5, -0.8, 2.6,0,0,1024,1024,1024,1024,0,0,0,0,240,-54.3,3.7,49,3.832,3.839,3.84,3.832,0,0,2.232,116.51,1692.909034488,0,10,Assisted_Takeoff,
580200,2025-09-03 05:47:17,48.1487464863506,11.5721837483564,0,,,1692.909034488,0.328084,0,7.8908795176,5.39124033,9,4,15.309,1692.909034488,0,0,7.922080306,0,0,0,188.5, -0.9, 2.6,0,0,1024,1024,1024,1024,0,0,0,0,239.9,-54.3,3.7,49,3.832,3.839,3.84,3.832,0,0,2.232,116.51,1692.909034488,0,10,Assisted_Takeoff,
580300,2025-09-03 05:47:17,48.1487465872002,11.5721836838626,0,,,1692.909034488,0.328084,0,7.9128611456,5.431266578,9,4,15.309,1692.909034488,0,0,7.922080306,0,0,0,188.5, -0.8, 2.6,0,0,1024,1024,1024,1024,0,0,0,0,239.9,-54.3,3.8,49,3.832,3.839,3.84,3.832,0,0,2.232,116.51,1692.909034488,0,10,Assisted_Takeoff,
580400,2025-09-03 05:47:17,48.1487467066319,11.5721835181432,0,,,1692.909034488,0.328084,0,7.9271984164,5.490649782,8,4,15.309,1692.909034488,0,0,7.9271984164,0,0,0,188.5, -0.9, 2.6,0,0,1024,1024,1024,1024,0,0,0,0,239.8,-54.3,3.8,49,3.832,3.839,3.84,3.832,0,0,2.232,116.51,1692.909034488,0,10,Assisted_Takeoff,
580500,2025-09-03 05:47:17,48.1487467749028,11.5721834160907,0,,,1692.909034488,0.328084,0,7.9346459232,5.5258203868,8,4,15.309,1692.909034488,0,0,7.9346459232,0,0,0,188.5, -0.9, 2.6,0,0,1024,1024,1024,1024,0,0,0,0,239.7,-54.3,3.8,49,3.832,3.839,3.84,3.832,0,0,2.232,116.51,1692.909034488,0,10,Assisted_Takeoff,
580600,2025-09-03 05:47:17,48.1487468272296,11.5721833236953,0,,,1692.909034488,0.328084,0,7.9385829312,5.5553151384,8,4,15.309,1692.909034488,0,0,7.9385829312,0,0,0,188.5, -0.8, 2.7,0,0,1024,1024,1024,1024,0,0,0,0,239.7,-54.3,3.8,49,3.832,3.839,3.84,3.832,0,0,2.232,116.51,1692.909034488,0,10,Assisted_Takeoff,
580700,2025-09-03 05:47:17,48.1487467719879,11.5721832649996,0,,,1692.909034488,0.328084,0,7.913878206,5.5800198636,8,4,15.309,1692.909034488,0,0,7.9385829312,0,0,0,188.5, -0.8, 2.7,0,0,1024,1024,1024,1024,0,0,0,0,239.6,-54.3,3.9,49,3.832,3.839,3.84,3.832,0,0,2.232,116.51,1692.909034488,0,10,Assisted_Takeoff,
580800,2025-09-03 05:47:17,48.1487467381146,11.5721832048724,0,,,1692.909034488,0.328084,0,7.8956039272,5.5991799692,8,4,15.309,1692.909034488,0,0,7.9385829312,0,0,0,188.5, -0.9, 2.6,0,0,1024,1024,1024,1024,0,0,0,0,239.5,-54.2,3.8,49,3.832,3.839,3.84,3.832,0,0,2.232,116.51,1692.909034488,0,10,Assisted_Takeoff,
580900,2025-09-03 05:47:17,48.1487468161073,11.5721831049211,0,,,1692.909034488,0.328084,0,7.9065947412,5.6366143536,8,4,15.309,1692.909034488,0,0,7.9385829312,0,0,0,188.5, -0.8, 2.7,0,0,1024,1024,1024,1024,0,0,0,0,239.4,-54.1,3.9,49,3.832,3.839,3.84,3.832,0,0,2.232,116.51,1692.909034488,0,10,Assisted_Takeoff,
581000,2025-09-03 05:47:17,48.1487469187677,11.5721830152339,0,,,1692.909034488,0.328084,0,7.9267390988,5.6799870584,8,4,15.309,1692.909034488,0,0,7.9385829312,0,0,0,188.5, -0.8, 2.6,0,0,1024,1024,1024,1024,0,0,0,0,239.3,-54.1,3.8,49,3.832,3.839,3.84,3.832,0,0,2.232,116.51,1692.909034488,0,10,Assisted_Takeoff,
581100,2025-09-03 05:47:17,48.1487469503139,11.5721829537357,0,,,1692.909034488,0.328084,0,7.9285763692,5.6988518884,8,4,15.309,1692.909034488,0,0,7.9385829312,0,0,0,188.5, -0.8, 2.6,0,0,1024,1024,1024,1024,0,0,0,0,239.3,-54.2,3.9,49,3.832,3.839,3.84,3.832,0,0,2.232,116.51,1692.909034488,0,10,Assisted_Takeoff,
581200,2025-09-03 05:47:18,48.1487469821141,11.572182890328,0,,,1692.909034488,0.328084,0,7.9303152144,5.718176036,8,4,15.285,1692.909034488,0,0,7.9385829312,0,0,0,188.5, -0.8, 2.7,0,0,1024,1024,1024,1024,0,0,0,0,239.2,-54.2,4,49,3.832,3.84,3.84,3.832,0,0,2.23,116.51,1692.909034488,0,10,Assisted_Takeoff,
581300,2025-09-03 05:47:18,48.1487469833599,11.5721827947179,0,,,1692.909034488,0.328084,0,7.9185041904,5.7414371916,8,4,15.285,1692.909034488,0,0,7.9385829312,0,0,0,188.5, -0.8, 2.7,0,0,1024,1024,1024,1024,0,0,0,0,239.2,-54.2,4,49,3.832,3.84,3.84,3.832,0,0,2.23,116.51,1692.909034488,0,10,Assisted_Takeoff,
581400,2025-09-03 05:47:18,48.1487470312931,11.5721826940384,0,,,1692.909034488,0.328084,0,7.9206367364,5.7715553028,8,4,15.285,1692.909034488,0,0,7.9385829312,0,0,0,188.5, -0.8, 2.6,0,0,1024,1024,1024,1024,0,0,0,0,239.2,-54.2,4.1,49,3.832,3.84,3.84,3.832,0,0,2.23,116.51,1692.909034488,0,10,Assisted_Takeoff,
581500,2025-09-03 05:47:18,48.1487470873018,11.5721825776501,0,,,1692.909034488,0.328084,0,7.9234254504,5.8064962488,8,4,15.285,1692.909034488,0,0,7.9385829312,0,0,0,188.5, -0.8, 2.6,0,0,1024,1024,1024,1024,0,0,0,0,239.1,-54.1,4,49,3.832,3.84,3.84,3.832,0,0,2.23,116.51,1692.909034488,0,10,Assisted_Takeoff,
581700,2025-09-03 05:47:18,48.1487473223742,11.5721824403243,0,,,1692.909034488,0.328084,0,7.9799543236,5.8985238108,8,4,15.285,1692.909034488,0,0,7.9799543236,0,0,0,188.5, -0.8, 2.7,0,0,1024,1024,1024,1024,0,0,0,0,238.9,-54.1,4.1,49,3.832,3.84,3.84,3.832,0,0,2.23,116.51,1692.909034488,0,10,Assisted_Takeoff,
581800,2025-09-03 05:47:18,48.1487474217061,11.5721823688885,0,,,1692.909034488,0.328084,0,8.0023952692,5.9387469092,8,4,15.285,1692.909034488,0,0,8.0023952692,0,0,0,188.5, -0.9, 2.6,0,0,1024,1024,1024,1024,0,0,0,0,239,-54.1,4.2,49,3.832,3.84,3.84,3.832,0,0,2.23,116.51,1692.909034488,0,10,Assisted_Takeoff,
581900,2025-09-03 05:47:18,48.1487474945708,11.5721822220062,0,,,1692.909034488,0.328084,0,8.0074149544,5.9833007164,8,4,15.285,1692.909034488,0,0,8.0074149544,0,0,0,188.5, -0.9, 2.6,0,0,1024,1024,1024,1024,0,0,0,0,238.7,-54.1,4.1,49,3.832,3.84,3.84,3.832,0,0,2.23,116.51,1692.909034488,0,10,Assisted_Takeoff,
582000,2025-09-03 05:47:18,48.1487475538103,11.5721820836677,0,,,1692.909034488,0.328084,0,8.0093834584,6.023294156,9,4,15.285,1692.909034488,0,0,8.0093834584,0,0,0,188.5, -0.8, 2.6,0,0,1024,1024,1024,1024,0,0,0,0,238.7,-54.1,4.2,49,3.832,3.84,3.84,3.832,0,0,2.23,116.51,1692.909034488,0,10,Assisted_Takeoff,
582100,2025-09-03 05:47:18,48.1487474392916,11.5721818566486,0,,,1692.909034488,0.328084,0,7.9457679708,6.0925854968,9,4,15.285,1692.909034488,0,0,8.0093834584,0,0,0,188.5, -0.8, 2.6,0,0,1024,1024,1024,1024,0,0,0,0,238.7,-54,4.2,49,3.832,3.84,3.84,3.832,0,0,2.23,116.51,1692.909034488,0,10,Assisted_Takeoff,
582200,2025-09-03 05:47:18,48.1487474520782,11.5721817421734,0,,,1692.909034488,0.328084,0,7.9361223012,6.1208335292,9,4,15.309,1692.909034488,0,0,8.0093834584,0,0,0,188.5, -0.8, 2.6,0,0,1024,1024,1024,1024,0,0,0,0,238.7,-54.1,4.3,49,3.833,3.84,3.84,3.833,0,0,2.23,116.51,1692.909034488,0,10,Assisted_Takeoff,
582300,2025-09-03 05:47:19,48.1487475355864,11.5721816332992,0,,,1692.909034488,0.328084,0,7.949803404,6.1612206696,9,4,15.309,1692.909034488,0,0,8.0093834584,0,0,0,188.5, -0.8, 2.7,0,0,1024,1024,1024,1024,0,0,0,0,238.5,-54,4.2,49,3.833,3.84,3.84,3.833,0,0,2.23,116.51,1692.909034488,0,10,Assisted_Takeoff,
582400,2025-09-03 05:47:19,48.1487476294776,11.5721815299427,0,,,1692.909034488,0.328084,0,7.9676183652,6.2037075476,9,4,15.309,1692.909034488,0,0,8.0093834584,0,0,0,188.5, -0.9, 2.7,0,0,1024,1024,1024,1024,0,0,0,0,238.5,-54,4.3,49,3.833,3.84,3.84,3.833,0,0,2.23,116.51,1692.909034488,0,10,Assisted_Takeoff,
582500,2025-09-03 05:47:19,48.1487477990605,11.5721814262275,0,,,1692.909034488,0.328084,0,8.0098755844,6.2705382584,9,4,15.309,1692.909034488,0,0,8.0098755844,0,0,0,188.5, -0.9, 2.7,0,0,1024,1024,1024,1024,0,0,0,0,238.5,-54,4.3,49,3.833,3.84,3.84,3.833,0,0,2.23,116.51,1692.909034488,0,10,Assisted_Takeoff,
582600,2025-09-03 05:47:19,48.1487481586421,11.5721813251668,0,,,1692.909034488,0.328084,0,8.114009446,6.404035638,8,4,15.309,1692.909034488,0,0,8.114009446,0,0,0,188.5, -0.8, 2.6,0,0,1024,1024,1024,1024,0,0,0,0,238.5,-54,4.3,49,3.833,3.84,3.84,3.833,0,0,2.23,116.51,1692.909034488,0,10,Assisted_Takeoff,
582700,2025-09-03 05:47:19,48.1487482469738,11.5721812189488,0,,,1692.909034488,0.328084,0,8.1305448796,6.4453414136,8,4,15.309,1692.909034488,0,0,8.1305448796,0,0,0,188.5, -0.8, 2.6,0,0,1024,1024,1024,1024,0,0,0,0,238.3,-54,4.3,49,3.833,3.84,3.84,3.833,0,0,2.23,116.51,1692.909034488,0,10,Assisted_Takeoff,
582800,2025-09-03 05:47:19,48.1487483254013,11.5721811190404,0,,,1692.909034488,0.328084,0,8.1447181084,6.4829070316,8,4,15.309,1692.909034488,0,0,8.1447181084,0,0,0,188.5, -0.8, 2.6,0,0,1024,1024,1024,1024,0,0,0,0,238.4,-54,4.4,49,3.833,3.84,3.84,3.833,0,0,2.23,116.51,1692.909034488,0,10,Assisted_Takeoff,
582900,2025-09-03 05:47:19,48.1487483760313,11.572181014717,0,,,1692.909034488,0.328084,0,8.1495737516,6.5143046704,8,4,15.309,1692.909034488,0,0,8.1495737516,0,0,0,188.5, -0.8, 2.6,0,0,1024,1024,1024,1024,0,0,0,0,238.2,-54,4.3,49,3.833,3.84,3.84,3.833,0,0,2.23,116.51,1692.909034488,0,10,Assisted_Takeoff,
583000,2025-09-03 05:47:19,48.1487483558385,11.5721809772722,0,,,1692.909034488,0.328084,0,8.1388454048,6.5260172692,8,4,15.309,1692.909034488,0,0,8.1495737516,0,0,0,188.5, -0.8, 2.7,0,0,1024,1024,1024,1024,0,0,0,0,238.2,-53.9,4.4,49,3.833,3.84,3.84,3.833,0,0,2.23,116.51,1692.909034488,0,10,Assisted_Takeoff,
583100,2025-09-03 05:47:19,48.1487484538009,11.5721809250021,0,,,1692.909034488,0.328084,0,8.1649280828,6.5639437796,8,4,15.309,1692.909034488,0,0,8.1649280828,0,0,0,188.5, -0.8, 2.7,0,0,1024,1024,1024,1024,0,0,0,0,238.1,-54,4.4,49,3.833,3.84,3.84,3.833,0,0,2.23,116.51,1692.909034488,0,10,Assisted_Takeoff,
583200,2025-09-03 05:47:20,48.1487485402843,11.5721808592653,0,,,1692.909034488,0.328084,0,8.1859254588,6.5993440432,8,4,15.312,1692.909034488,0,0,8.1859254588,0,0,0,188.5, -0.9, 2.7,0,0,1024,1024,1024,1024,0,0,0,0,238,-54,4.5,49,3.833,3.84,3.84,3.833,0,0,2.232,116.51,1692.909034488,0,10,Assisted_Takeoff,
583300,2025-09-03 05:47:20,48.1487486025657,11.572180720012,0,,,1692.909034488,0.328084,0,8.191109186,6.6401576928,8,4,15.312,1692.909034488,0,0,8.191109186,0,0,0,188.5, -0.9, 2.7,0,0,1024,1024,1024,1024,0,0,0,0,238,-53.9,4.5,49,3.833,3.84,3.84,3.833,0,0,2.232,116.51,1692.909034488,0,10,Assisted_Takeoff,
583400,2025-09-03 05:47:20,48.1487485951514,11.5721805841161,0,,,1692.909034488,0.328084,0,8.174048818,6.6733269852,8,4,15.312,1692.909034488,0,0,8.191109186,0,0,0,188.5, -0.8, 2.6,0,0,1024,1024,1024,1024,0,0,0,0,237.9,-53.9,4.6,49,3.833,3.84,3.84,3.833,0,0,2.232,116.51,1692.909034488,0,10,Assisted_Takeoff,
583500,2025-09-03 05:47:20,48.148748636167,11.572180463588,0,,,1692.909034488,0.328084,0,8.1746065608,6.7062666188,8,4,15.312,1692.909034488,0,0,8.191109186,0,0,0,188.5, -0.8, 2.6,0,0,1024,1024,1024,1024,0,0,0,0,237.8,-53.9,4.6,49,3.833,3.84,3.84,3.833,0,0,2.232,116.51,1692.909034488,0,10,Assisted_Takeoff,
583600,2025-09-03 05:47:20,48.1487486830597,11.5721803503396,0,,,1692.909034488,0.328084,0,8.177985826,6.7387141264,8,4,15.312,1692.909034488,0,0,8.191109186,0,0,0,188.5, -0.8, 2.6,0,0,1024,1024,1030,1024,0,0,1,0,237.8,-53.9,4.6,49,3.833,3.84,3.84,3.833,0,0,2.232,116.51,1692.909034488,0,10,Assisted_Takeoff,
583700,2025-09-03 05:47:20,48.1487487776007,11.5721802409559,0,,,1692.909034488,0.328084,0,8.1976052492,6.7822836816,8,4,15.312,1692.909034488,0,0,8.1976052492,0,0,0,188.5, -0.8, 2.6,0,0,1024,1024,1033,1024,0,0,1,0,237.7,-53.9,4.6,49,3.833,3.84,3.84,3.833,0,0,2.232,116.51,1692.909034488,0,10,Assisted_Takeoff,
583800,2025-09-03 05:47:20,48.1487487591276,11.5721801421389,0,,,1692.909034488,0.328084,0,8.1812010492,6.8072836824,8,4,15.312,1692.909034488,0,0,8.1976052492,0,0,0,188.5, -0.8, 2.7,0,0,1024,1024,1042,1024,0,0,3,0,237.7,-53.9,4.6,49,3.833,3.84,3.84,3.833,0,0,2.232,116.51,1692.909034488,0,10,Assisted_Takeoff,
583900,2025-09-03 05:47:20,48.1487487699942,11.5721800354538,0,,,1692.909034488,0.328084,0,8.173720734,6.8335304024,8,4,15.312,1692.909034488,0,0,8.1976052492,0,0,0,188.5, -0.8, 2.7,0,0,1024,1024,1054,1024,0,0,5,0,237.6,-53.9,4.6,49,3.833,3.84,3.84,3.833,0,0,2.232,116.51,1692.909034488,0,10,Assisted_Takeoff,
584000,2025-09-03 05:47:20,48.1487487892212,11.5721799258446,0,,,1692.909034488,0.328084,0,8.168799474,6.8611222668,7,3,15.312,1692.909034488,0,0,8.1976052492,0,0,0,188.5, -0.9, 2.6,0,0,1024,1024,1093,1024,0,0,10,0,237.5,-53.8,4.5,49,3.833,3.84,3.84,3.833,0,0,2.232,116.51,1692.909034488,0,10,Assisted_Takeoff,
584100,2025-09-03 05:47:20,48.1487488710212,11.5721797691291,0,,,1692.909034488,0.328084,0,8.1798887132,6.9095802736,7,3,15.312,1692.909034488,0,0,8.1976052492,0,0,0,188.5, -0.9, 2.6,0,0,1024,1024,1108,1024,0,0,13,0,237.5,-53.8,4.7,49,3.833,3.84,3.84,3.833,0,0,2.232,116.51,1692.909034488,0,10,Assisted_Takeoff,
584200,2025-09-03 05:47:21,48.1487489303112,11.5721796323401,0,,,1692.909034488,0.328084,0,8.1857942252,6.9492784376,9,3,15.31,1692.909034488,0,0,8.1976052492,0,0,0,188.5, -1, 2.6,0,0,1024,1024,1114,1024,0,0,14,0,237.4,-53.8,4.7,49,3.833,3.84,3.84,3.833,0,0,2.232,116.51,1692.909034488,0,10,Assisted_Takeoff,
584300,2025-09-03 05:47:21,48.1487487175811,11.5721796061281,0,,,1692.909034488,0.328084,0.223694,8.1125002596,7.0271655792,9,3,15.31,1692.909034488,0,0.223694,8.1976052492,-0.223694,0,0,188.5, -1, 2.6,0,0,1024,1024,1117,1024,0,0,14,0,237.2,-53.8,4.6,49,3.833,3.84,3.84,3.833,0,0,2.232,116.51,1692.909034488,0,10,Assisted_Takeoff,
584400,2025-09-03 05:47:21,48.1487486293585,11.5721795272359,0,,,1692.909034488,0.328084,0,8.0752299172,7.064632772,9,3,15.31,1692.909034488,0,0.223694,8.1976052492,0,0,0,188.5, -0.8, 2.7,0,0,1024,1024,1119,1024,0,0,14,0,237.2,-53.8,4.6,49,3.833,3.84,3.84,3.833,0,0,2.232,116.51,1692.909034488,0,10,Assisted_Takeoff,
584500,2025-09-03 05:47:21,48.1487483758586,11.5721793390659,0,,,1692.909034488,0.328084,0,7.9720803076,7.1678479984,9,3,15.31,1692.909034488,0,0.223694,8.1976052492,0,0,0,188.5, -0.8, 2.6,0,0,1024,1024,1116,1024,0,0,14,0,237.2,-53.8,4.7,49,3.833,3.84,3.84,3.833,0,0,2.232,116.51,1692.909034488,0,10,Assisted_Takeoff,
584600,2025-09-03 05:47:21,48.1487481989754,11.5721791723808,0,,,1692.909034488,0.328084,0,7.8965225624,7.2440619116,9,3,15.31,1692.909034488,0,0.223694,8.1976052492,0,0,0,188.5, -0.9, 2.6,0,0,1024,1024,1111,1024,0,0,13,0,237.1,-53.8,4.7,49,3.833,3.84,3.84,3.833,0,0,2.232,116.51,1692.909034488,0,10,Assisted_Takeoff,
584700,2025-09-03 05:47:21,48.148748533466,11.5721790354457,0,,,1692.909034488,0.328084,0,7.9943244028,7.3706039104,9,3,15.31,1692.909034488,0,0.223694,8.1976052492,0,0,0,188.5, -1, 2.6,0,0,1024,1024,1120,1024,0,0,15,0,237.3,-53.7,4.8,49,3.833,3.84,3.84,3.833,0,0,2.232,116.51,1692.909034488,0,10,Assisted_Takeoff,
584800,2025-09-03 05:47:21,48.1487487311949,11.5721789487088,0,,,1692.909034488,0.328084,0,8.0519359532,7.4457679548,9,3,15.31,1692.909034488,0,0.223694,8.1976052492,0,0,0,188.5, -0.9, 2.6,0,0,1024,1024,1115,1024,0,0,14,0,237.3,-53.9,5,49,3.833,3.84,3.84,3.833,0,0,2.232,116.51,1692.909034488,0,10,Assisted_Takeoff,
584900,2025-09-03 05:47:21,48.1487487771138,11.5721788065449,0,,,1692.909034488,0.656168,0,8.0536091816,7.4842193996,9,3,15.31,1692.909034488,0,0.223694,8.1976052492,0,0,0,188.5, -1, 2.6,0,0,1024,1024,1112,1024,0,0,13,0,237.3,-53.9,5,49,3.833,3.84,3.84,3.833,0,0,2.232,116.51,1692.909034488,0,10,Assisted_Takeoff,
585000,2025-09-03 05:47:21,48.1487488129118,11.5721786756555,0,,,1692.909034488,0.656168,0,8.0531170556,7.5186354112,9,3,15.31,1692.909034488,0,0.223694,8.1976052492,0,0,0,188.5, -1.1, 2.5,0,0,1024,1024,1117,1024,0,0,14,0,237.4,-54,5.1,49,3.833,3.84,3.84,3.833,0,0,2.232,116.51,1692.909034488,0,10,Assisted_Takeoff,
585100,2025-09-03 05:47:21,48.1487487876221,11.5721785710496,0,,,1692.909034488,0.656168,0,8.0347443516,7.5457351496,9,3,15.31,1692.909034488,0,0.223694,8.1976052492,0,0,0,188.5, -1.2, 2.5,0,0,1024,1024,1115,1024,0,0,14,0,237.4,-54,5.3,49,3.833,3.84,3.84,3.833,0,0,2.232,116.51,1692.909034488,0,10,Assisted_Takeoff,
585200,2025-09-03 05:47:21,48.1487487765129,11.5721784610448,0,,,1692.909034488,0.656168,0,8.0206367396,7.5728020796,9,3,15.249,1692.909034488,0,0.223694,8.1976052492,0,0,0,188.4, -1.6, 2.4,0,0,1024,1024,1114,1024,0,0,14,0,237.4,-54.4,5.8,49,3.833,3.84,3.84,3.832,0,0,2.23,116.51,1692.909034488,0,10,Assisted_Takeoff,
585300,2025-09-03 05:47:22,48.1487486996796,11.5721783022422,0,,,1692.909034488,0.656168,0,7.9799215152,7.62057111,9,3,15.249,1692.909034488,0,0.223694,8.1976052492,0,0,0,188.2, -2.7, 2.2,0,0,1024,1024,1116,1024,0,0,14,0,237.4,-55.7,6.7,49,3.833,3.84,3.84,3.832,0,0,2.23,116.51,1692.909034488,0,10,Assisted_Takeoff,
585400,2025-09-03 05:47:22,48.1487485844167,11.5721781447162,0,,,1692.909034488,0.656168,0,7.9264438232,7.6774608756,9,3,15.249,1692.909034488,0,0.223694,8.1976052492,0,0,0,188, -4.2, 2,0,0,1024,1024,1118,1024,0,0,14,0,236.8,-56.9,7.2,49,3.833,3.84,3.84,3.832,0,0,2.23,116.51,1692.909034488,0,10,Assisted_Takeoff,
585500,2025-09-03 05:47:22,48.1487480296058,11.5721779719116,0,,,1692.909034488,0.656168,0.223694,7.7232942104,7.8842194124,9,3,15.249,1692.909034488,0,0.223694,8.1976052492,-0.223694,0,-0.223694,187.7, -4.9, 1.6,0,0,1024,1024,1113,1024,0,0,13,0,236.3,-57.2,6.9,49,3.833,3.84,3.84,3.832,0,0,2.23,116.51,1692.909034488,0,10,Assisted_Takeoff,
585600,2025-09-03 05:47:22,48.1487477483426,11.5721777715893,0,,,1692.909034488,0.656168,0.223694,7.6098099548,7.9978349016,9,3,15.249,1692.909034488,0,0.223694,8.1976052492,-0.447388,0,-0.671082,187.6, -2.8, 1.3,0,0,1024,1024,1108,1024,0,0,13,0,236.1,-52.8,6.5,49,3.833,3.84,3.84,3.832,0,0,2.23,116.51,1692.909034488,0,6,P-GPS,
585700,2025-09-03 05:47:22,48.148747398973,11.5721775235629,0,,,1692.909034488,0.656168,0.4921268,7.4689634936,8.1388782132,9,3,15.249,1692.909034488,0,0.4921268,8.1976052492,-0.447388,-0.223694,-0.671082,187.6, 0.8, -0.3,0,0,1024,1024,1105,1024,0,0,12,0,233.3,-49.6,5.2,49,3.833,3.84,3.84,3.832,0,0,2.23,116.51,1692.909034488,0,6,P-GPS,
585800,2025-09-03 05:47:22,48.1487470874256,11.5721772831341,0,,,1692.909034488,0.984252,0.4921268,7.341535668,8.266732548,10,3,15.249,1692.909034488,0,0.4921268,8.1976052492,-0.447388,-0.223694,-0.894776,187.6, 2.6, -1.4,0,0,1024,1024,1107,1024,0,0,13,0,233,-49.1,5.3,49,3.833,3.84,3.84,3.832,0,0,2.23,116.51,1692.909034488,0,6,P-GPS,
585900,2025-09-03 05:47:22,48.1487469878365,11.5721770565155,0.328084,,,1693.237118488,0.984252,0.4921268,7.2870081072,8.3327758572,10,3,15.249,1693.237118488,0.328084,0.4921268,8.1976052492,-0.447388,-0.223694,-0.671082,187.5, 2.9, -1,0,0,1024,1024,1106,1024,0,0,12,0,233,-49.1,5.3,49,3.833,3.84,3.84,3.832,0,0,2.23,116.51,1693.237118488,0.328084,6,P-GPS,
586000,2025-09-03 05:47:22,48.1487470643115,11.572176904386,0.328084,,,1693.237118488,1.312336,0.223694,7.2990159816,8.3791341264,10,3,15.249,1693.237118488,0.328084,0.4921268,8.1976052492,-0.223694,0,-0.671082,187.5, 2.8, 0.1,0,0,1024,1024,1108,1024,0,0,13,0,234.6,-48.8,7,49,3.833,3.84,3.84,3.832,0,0,2.23,116.51,1693.237118488,0.328084,6,P-GPS,
586100,2025-09-03 05:47:22,48.1487469965259,11.5721765943462,0.656168,,,1693.565202488,1.312336,0.3131716,7.2482941952,8.4585632628,10,3,15.249,1693.565202488,0.656168,0.4921268,8.1976052492,-0.223694,-0.223694,-0.671082,187.6, 2.3, -0.8,0,0,1024,1024,1113,1024,0,0,13,0,234.6,-48.8,7,49,3.833,3.84,3.84,3.832,0,0,2.23,116.51,1693.565202488,0.656168,6,P-GPS,
586200,2025-09-03 05:47:22,48.1487469455132,11.5721762974859,0.656168,,,1693.565202488,1.312336,0.3131716,7.2049542988,8.5332023728,9,3,15.066,1693.565202488,0.656168,0.4921268,8.1976052492,-0.223694,-0.223694,-0.447388,187.6, 2.7, -1.7,0,0,1024,1024,1112,1024,0,0,13,0,233.7,-49.1,5.2,48,3.803,3.815,3.814,3.798,0,0,7.276,116.51,1693.565202488,0.656168,6,P-GPS,
586300,2025-09-03 05:47:23,48.1487468314603,11.5721759107053,0.656168,,,1693.565202488,1.312336,0,7.1329398608,8.6361223236,9,3,15.066,1693.565202488,0.656168,0.4921268,8.1976052492,0,0,-0.447388,187.5, 2.8, -1.3,0,0,1024,1024,1114,1024,0,0,14,0,233.5,-48.9,6.1,48,3.803,3.815,3.814,3.798,0,0,7.276,116.51,1693.565202488,0.656168,6,P-GPS,
586400,2025-09-03 05:47:23,48.1487468374236,11.572175187806,0.984252,,,1693.893286488,1.64042,0,7.0760500952,8.8121065812,7,3,15.066,1693.893286488,0.984252,0.4921268,8.1976052492,0,0,-0.447388,187.5, 1.7, -0.8,0,0,1024,1024,1114,1024,0,0,14,0,234.1,-50.1,5.8,48,3.803,3.815,3.814,3.798,0,0,7.276,116.51,1693.893286488,0.984252,6,P-GPS,
586500,2025-09-03 05:47:23,48.1487468316199,11.5721749998142,0.984252,,,1693.893286488,1.64042,0,7.0593506196,8.857939916,7,3,15.066,1693.893286488,0.984252,0.4921268,8.1976052492,0,0,-0.447388,187.5, 1.2, -0.6,0,0,1024,1024,1116,1024,0,0,14,0,234.4,-50.4,5.8,48,3.803,3.815,3.814,3.798,0,0,7.276,116.51,1693.893286488,0.984252,6,P-GPS,
586600,2025-09-03 05:47:23,48.1487468328428,11.5721748259439,0.984252,,,1693.893286488,1.968504,0,7.04642411,8.900262752,6,3,15.066,1693.893286488,0.984252,0.4921268,8.1976052492,0,0,-0.447388,187.7, 0.8, -1.2,0,0,1024,1024,1122,1024,0,0,15,0,233.4,-50.3,5.8,48,3.803,3.815,3.814,3.798,0,0,7.276,116.51,1693.893286488,0.984252,6,P-GPS,
586700,2025-09-03 05:47:23,48.1487468120118,11.5721746988693,1.312336,,,1694.221370488,1.968504,0.223694,7.0295934008,8.9321197084,6,3,15.066,1694.221370488,1.312336,0.4921268,8.1976052492,-0.223694,0,-0.447388,187.8, 1.1, -1.9,0,0,1024,1024,1121,1024,0,0,15,0,233.3,-50,4.8,48,3.803,3.815,3.814,3.798,0,0,7.276,116.51,1694.221370488,1.312336,6,P-GPS,
586800,2025-09-03 05:47:23,48.1487466790412,11.5721748711154,1.312336,,,1694.221370488,1.968504,0.223694,6.9966209588,8.996227322,7,3,15.066,1694.221370488,1.312336,0.4921268,8.1976052492,-0.223694,0,-0.223694,187.8, 1.7, -1.6,0,0,1024,1024,1127,1024,0,0,16,0,233.2,-49.4,5.4,48,3.803,3.815,3.814,3.798,0,0,7.276,116.51,1694.221370488,1.312336,6,P-GPS,
586900,2025-09-03 05:47:23,48.1487464873098,11.5721747694593,1.312336,,,1694.221370488,1.968504,0,6.9224411664,9.0704399228,7,3,15.066,1694.221370488,1.312336,0.4921268,8.1976052492,0,0,-0.223694,187.7, 2, -1.5,0,0,1024,1024,1129,1024,0,0,16,0,232.5,-49.9,6,48,3.803,3.815,3.814,3.798,0,0,7.276,116.51,1694.221370488,1.312336,6,P-GPS,
587000,2025-09-03 05:47:23,48.1487463264863,11.5721747154432,1.312336,,,1694.221370488,1.968504,0,6.8625986448,9.13057772,7,3,15.066,1694.221370488,1.312336,0.4921268,8.1976052492,0,0,-0.223694,188, 2.1, -1,0,0,1024,1024,1129,1024,0,0,16,0,234.4,-49.7,6,48,3.803,3.815,3.814,3.798,0,0,7.276,116.51,1694.221370488,1.312336,6,P-GPS,
587100,2025-09-03 05:47:23,48.1487462405126,11.5721747561547,1.312336,,,1694.221370488,1.968504,0,6.8360238408,9.1634517368,7,3,15.066,1694.221370488,1.312336,0.4921268,8.1976052492,0,0,-0.447388,188, 2.2, 0,0,0,1024,1024,1131,1024,0,0,16,0,235.1,-49.6,5.9,48,3.803,3.815,3.814,3.798,0,0,7.276,116.51,1694.221370488,1.312336,6,P-GPS,
587200,2025-09-03 05:47:24,48.1487459600652,11.5721755562337,1.312336,,,1694.221370488,1.968504,0,6.8048558608,9.3834648672,7,3,14.903,1694.221370488,1.312336,0.4921268,8.1976052492,0,0,-0.447388,187.8, 2.4, -0.2,0,0,1024,1024,1146,1024,0,0,18,0,233.2,-50.6,6.3,48,3.736,3.761,3.761,3.736,0,0,18.106,116.51,1694.221370488,1.312336,6,P-GPS,
587300,2025-09-03 05:47:24,48.1487459993677,11.5721757264497,1.312336,,,1694.221370488,1.968504,0,6.8328742344,9.4272968896,7,3,14.903,1694.221370488,1.312336,0.4921268,8.1976052492,0,0,-0.447388,187.7, 1.2, -1.3,0,0,1024,1024,1165,1024,0,0,21,0,233.2,-50.6,6.3,48,3.736,3.761,3.761,3.736,0,0,18.106,116.51,1694.221370488,1.312336,6,P-GPS,
