time(millisecond),datetime(utc),latitude,longitude,height_above_takeoff(feet),height_above_ground_at_drone_location(feet),ground_elevation_at_drone_location(feet),altitude_above_seaLevel(feet),height_sonar(feet),speed(mph),distance(feet),mileage(feet),satellites,gpslevel,voltage(v),max_altitude(feet),max_ascent(feet),max_speed(mph),max_distance(feet), xSpeed(mph), ySpeed(mph), zSpeed(mph), compass_heading(degrees), pitch(degrees), roll(degrees),isPhoto,isVideo,rc_elevator,rc_aileron,rc_throttle,rc_rudder,rc_elevator(percent),rc_aileron(percent),rc_throttle(percent),rc_rudder(percent),gimbal_heading(degrees),gimbal_pitch(degrees),gimbal_roll(degrees),battery_percent,voltageCell1,voltageCell2,voltageCell3,voltageCell4,voltageCell5,voltageCell6,current(A),battery_temperature(f),altitude(feet),ascent(feet),flycStateRaw,flycState,message
330600,2025-09-03 11:05:07,48.1488103050588,11.5721743873745,0,Available with any HD 360 subscription,Available with any HD 360 subscription,1692.8075095504,0.656168,0,0,0,8,4,0,1692.8075095504,0,0,0,0,0,0,13.7, -0.8, 0.3,0,0,1024,1024,1024,1024,0,0,0,0,130.4,28.5,12.2,65,3.946,3.95,3.95,3.935,0,0,0,125.51,1692.8075095504,0,6,P-GPS,
330700,2025-09-03 11:05:07,48.148810341137,11.5721743576037,0,,,1692.8075095504,0.656168,0,0.0150261815832,0.0150261815832,8,4,0,1692.8075095504,0,0,0.0150261815832,0,0,0,13.6, -0.8, 0.3,0,0,1024,1024,1024,1024,0,0,0,0,130.4,28.5,12.1,65,3.946,3.95,3.95,3.935,0,0,0,125.51,1692.8075095504,0,41,Motors_Started,
330800,2025-09-03 11:05:07,48.1488103773503,11.5721743532769,0,,,1692.8075095504,0.656168,0,0.0276507226696,0.028280512716,8,4,0,1692.8075095504,0,0,0.0276507226696,0,0,0,13.8, -0.8, 0.3,0,0,366,364,364,1684,-100,-100,-100,100,130.3,28.6,12.1,65,3.946,3.95,3.95,3.935,0,0,0,125.51,1692.8075095504,0,41,Motors_Started,
330900,2025-09-03 11:05:07,48.1488103542215,11.5721743599308,0,,,1692.8075095504,0.656168,0,0.0191406830272,0.036873032676,8,4,0,1692.8075095504,0,0,0.0276507226696,0,0,0,13.7, -0.8, 0.3,0,0,467,430,364,1681,-84,-90,-100,100,130.3,28.5,12.1,65,3.946,3.95,3.95,3.935,0,0,0,125.51,1692.8075095504,0,41,Motors_Started,
331000,2025-09-03 11:05:07,48.1488103761941,11.5721743905586,0,,,1692.8075095504,0.656168,0,0.0259652567364,0.047820867672,8,4,0,1692.8075095504,0,0,0.0276507226696,0,0,0,13.7, -0.8, 0.3,0,0,1024,981,909,1227,0,-7,-17,31,130.3,28.5,12.1,65,3.946,3.95,3.95,3.935,0,0,0,125.51,1692.8075095504,0,41,Motors_Started,
331100,2025-09-03 11:05:07,48.1488103709326,11.5721744072431,0,,,1692.8075095504,0.656168,0,0.0245158472412,0.0523129938,8,4,0,1692.8075095504,0,0,0.0276507226696,0,0,0,13.7, -0.8, 0.3,0,0,1024,1024,1024,1024,0,0,0,0,130.2,28.5,12,65,3.946,3.95,3.95,3.935,0,0,0,125.51,1692.8075095504,0,41,Motors_Started,
331200,2025-09-03 11:05:07,48.148810396535,11.5721744375083,0,,,1692.8075095504,0.656168,0,0.03553641846,0.064209975808,8,4,15.693,1692.8075095504,0,0,0.03553641846,0,0,0,13.7, -0.8, 0.3,0,0,1024,1024,1024,1024,0,0,0,0,130.2,28.6,11.9,65,3.946,3.95,3.95,3.935,0,0,1.62,125.51,1692.8075095504,0,41,Motors_Started,"Setting new Return-To-Home altitude to 100m (328 ft). Data Recorder File Index is 238. Setting new Maximum Flight Altitude to 150m (492 ft)"
331300,2025-09-03 11:05:07,48.1488105180316,11.5721745398974,0,,,1692.8075095504,0.656168,0,2.86619431744,0.115064308144,8,4,15.693,1692.8075095504,0,0,2.86619431744,0,0,0,13.7, -0.8, 0.3,0,0,1024,1024,1024,1024,0,0,0,0,130.2,28.6,11.8,65,3.946,3.95,3.95,3.935,0,0,1.62,125.51,1692.8075095504,0,41,Motors_Started,
331400,2025-09-03 11:05:07,48.1488106001166,11.5721745835153,0,,,1692.8075095504,0.656168,0,2.84990822768,0.146839571628,8,4,15.693,1692.8075095504,0,0,2.86619431744,0,0,0,13.7, -0.8, 0.3,0,0,1024,1024,1024,1024,0,0,0,0,130.2,28.6,11.8,65,3.946,3.95,3.95,3.935,0,0,1.62,125.51,1692.8075095504,0,41,Motors_Started,
331500,2025-09-03 11:05:07,48.1488106733379,11.5721746038462,0,,,1692.8075095504,0.656168,0,2.83267397516,0.174008863836,8,4,15.693,1692.8075095504,0,0,2.86619431744,0,0,0,13.7, -0.8, 0.3,0,0,1024,1024,1024,1024,0,0,0,0,130.1,28.6,11.7,65,3.946,3.95,3.95,3.935,0,0,1.62,125.51,1692.8075095504,0,41,Motors_Started,
331600,2025-09-03 11:05:07,48.1488107211409,11.5721746167784,0,,,1692.8075095504,0.656168,0,2.82145350236,0.191731633432,8,4,15.693,1692.8075095504,0,0,2.86619431744,0,0,0,13.7, -0.8, 0.3,0,0,1024,1024,1024,1024,0,0,0,0,130,28.6,11.7,65,3.946,3.95,3.95,3.935,0,0,1.62,125.51,1692.8075095504,0,41,Motors_Started,
331700,2025-09-03 11:05:07,48.1488106710793,11.5721745435085,0,,,1692.8075095504,0.656168,0,2.823818988,0.21726050564,8,4,15.693,1692.8075095504,0,0,2.86619431744,0,0,0,13.7, -0.8, 0.3,0,0,1024,1024,1024,1024,0,0,0,0,130,28.6,11.6,65,3.946,3.95,3.95,3.935,0,0,1.62,125.51,1692.8075095504,0,41,Motors_Started,
331800,2025-09-03 11:05:08,48.148810704622,11.572174562902,0,,,1692.8075095504,0.656168,0,2.81752305604,0.230377632044,8,4,15.693,1692.8075095504,0,0,2.86619431744,0,0,0,13.7, -0.8, 0.3,0,0,1024,1024,1024,1024,0,0,0,0,130,28.6,11.5,65,3.946,3.95,3.95,3.935,0,0,1.62,125.51,1692.8075095504,0,41,Motors_Started,
331900,2025-09-03 11:05:08,48.1488107921231,11.5721746135333,0,,,1692.8075095504,0.656168,0,2.8013288298,0.264598761748,8,4,15.693,1692.8075095504,0,0,2.86619431744,0,0,0,13.7, -0.8, 0.3,0,0,1024,1024,1024,1024,0,0,0,0,129.9,28.7,11.5,65,3.946,3.95,3.95,3.935,0,0,1.62,125.51,1692.8075095504,0,41,Motors_Started,
332000,2025-09-03 11:05:08,48.1488108520629,11.5721746327118,0,,,1692.8075095504,0.656168,0,2.78792987924,0.286960639104,8,4,15.693,1692.8075095504,0,0,2.86619431744,0,0,0,13.7, -0.9, 0.3,0,0,1024,1024,1024,1024,0,0,0,0,129.9,28.7,11.5,65,3.946,3.95,3.95,3.935,0,0,1.62,125.51,1692.8075095504,0,41,Motors_Started,
332100,2025-09-03 11:05:08,48.1488108806714,11.5721745251356,0,,,1692.8075095504,0.656168,0,2.7628281724,0.315151256804,8,4,15.693,1692.8075095504,0,0,2.86619431744,0,0,0,13.7, -0.9, 0.3,0,0,1024,1024,1024,1024,0,0,0,0,129.9,28.7,11.3,65,3.946,3.95,3.95,3.935,0,0,1.62,125.51,1692.8075095504,0,41,Motors_Started,
332200,2025-09-03 11:05:08,48.1488109064057,11.5721745362736,0,,,1692.8075095504,0.656168,0,2.75754273916,0.324923894912,8,4,15.723,1692.8075095504,0,0,2.86619431744,0,0,0,13.7, -0.8, 0.3,0,0,1024,1024,1024,1024,0,0,0,0,129.8,28.8,11.2,65,3.92,3.926,3.926,3.907,0,0,3.92,125.51,1692.8075095504,0,10,Assisted_Takeoff,
332300,2025-09-03 11:05:08,48.1488109476135,11.5721746275761,0,,,1692.8075095504,0.656168,0,2.76101058704,0.35175854144,8,4,15.723,1692.8075095504,0,0,2.86619431744,0,0,0,13.7, -0.8, 0.3,0,0,1024,1024,1024,1024,0,0,0,0,129.8,28.8,11.2,65,3.92,3.926,3.926,3.907,0,0,3.92,125.51,1692.8075095504,0,10,Assisted_Takeoff,
332400,2025-09-03 11:05:08,48.1488109727143,11.5721746788237,0,,,1692.8075095504,0.656168,0,2.76253617764,0.36723098288,9,4,15.723,1692.8075095504,0,0,2.86619431744,0,0,0,13.7, -0.8, 0.3,0,0,1024,1024,1024,1024,0,0,0,0,129.8,28.7,11.1,65,3.92,3.926,3.926,3.907,0,0,3.92,125.51,1692.8075095504,0,10,Assisted_Takeoff,
332500,2025-09-03 11:05:08,48.1488109740203,11.5721746610382,0,,,1692.8075095504,0.656168,0,2.75928158436,0.3715879384,9,4,15.723,1692.8075095504,0,0,2.86619431744,0,0,0,13.7, -0.8, 0.3,0,0,1024,1024,1024,1024,0,0,0,0,129.8,28.8,11.1,65,3.92,3.926,3.926,3.907,0,0,3.92,125.51,1692.8075095504,0,10,Assisted_Takeoff,
332600,2025-09-03 11:05:08,48.1488108881997,11.572174656506,0,,,1692.8075095504,0.656168,0,2.78188329112,0.4029199604,9,4,15.723,1692.8075095504,0,0,2.86619431744,0,0,0,13.7, -0.8, 0.3,0,0,1024,1024,1024,1024,0,0,0,0,129.6,28.8,11,65,3.92,3.926,3.926,3.907,0,0,3.92,125.51,1692.8075095504,0,10,Assisted_Takeoff,
332700,2025-09-03 11:05:09,48.1488109245156,11.5721747453884,0,,,1692.8075095504,0.656168,0,2.78644693956,0.42829069612,9,4,15.723,1692.8075095504,0,0,2.86619431744,0,0,0,13.7, -0.8, 0.3,0,0,1024,1024,1024,1024,0,0,0,0,129.7,28.8,10.9,65,3.92,3.926,3.926,3.907,0,0,3.92,125.51,1692.8075095504,0,10,Assisted_Takeoff,
332800,2025-09-03 11:05:09,48.1488109684446,11.5721748543608,0,,,1692.8075095504,0.656168,0,2.79250665104,0.45928151076,9,4,15.723,1692.8075095504,0,0,2.86619431744,0,0,0,13.7, -0.8, 0.3,0,0,1024,1024,1024,1024,0,0,0,0,129.6,28.9,10.9,65,3.92,3.926,3.926,3.907,0,0,3.92,125.51,1692.8075095504,0,10,Assisted_Takeoff,
332900,2025-09-03 11:05:09,48.1488110238931,11.5721749851214,0,,,1692.8075095504,0.656168,0,2.79948827856,0.4969980474,9,4,15.723,1692.8075095504,0,0,2.86619431744,0,0,0,13.7, -0.8, 0.2,0,0,1024,1024,1024,1024,0,0,0,0,129.6,28.9,10.7,65,3.92,3.926,3.926,3.907,0,0,3.92,125.51,1692.8075095504,0,10,Assisted_Takeoff,
333000,2025-09-03 11:05:09,48.1488110955918,11.5721752966639,0,,,1692.8075095504,0.656168,0,2.83364182296,0.57722114708,8,4,15.723,1692.8075095504,0,0,2.86619431744,0,0,0,13.7, -0.8, 0.3,0,0,1024,1024,1024,1024,0,0,0,0,129.5,28.9,10.7,65,3.92,3.926,3.926,3.907,0,0,3.92,125.51,1692.8075095504,0,10,Assisted_Takeoff,
333100,2025-09-03 11:05:09,48.1488110479989,11.5721753233886,0,,,1692.8075095504,0.656168,0,2.85053486812,0.59576445476,8,4,15.723,1692.8075095504,0,0,2.86619431744,0,0,0,13.7, -0.8, 0.3,0,0,1024,1024,1024,1024,0,0,0,0,129.5,28.9,10.7,65,3.92,3.926,3.926,3.907,0,0,3.92,125.51,1692.8075095504,0,10,Assisted_Takeoff,
333200,2025-09-03 11:05:09,48.148811006358,11.5721753150849,0,,,1692.8075095504,0.656168,0,2.85991478968,0.6110892584,7,3,15.714,1692.8075095504,0,0,2.86619431744,0,0,0,13.7, -0.8, 0.3,0,0,1024,1024,1024,1024,0,0,0,0,129.4,28.9,10.7,65,3.938,3.941,3.944,3.926,0,0,2.988,125.51,1692.8075095504,0,10,Assisted_Takeoff,
333300,2025-09-03 11:05:09,48.1488109771909,11.5721752493066,0,,,1692.8075095504,0.656168,0,2.85632226988,0.6303149808,7,3,15.714,1692.8075095504,0,0,2.86619431744,0,0,0,13.7, -0.8, 0.3,0,0,1024,1024,1024,1024,0,0,0,0,129.5,28.9,10.6,65,3.938,3.941,3.944,3.926,0,0,2.988,125.51,1692.8075095504,0,10,Assisted_Takeoff,
333400,2025-09-03 11:05:09,48.1488107676265,11.5721749596485,0,,,1692.8075095504,0.656168,0,2.86388460608,0.73432417048,7,3,15.714,1692.8075095504,0,0,2.86619431744,0,0,0,13.7, -0.8, 0.3,0,0,1024,1024,1024,1024,0,0,0,0,129.4,29,10.5,65,3.938,3.941,3.944,3.926,0,0,2.988,125.51,1692.8075095504,0,10,Assisted_Takeoff,
333500,2025-09-03 11:05:09,48.1488106567327,11.5721749243889,0,,,1692.8075095504,0.656168,0,2.88833998744,0.77568572036,7,3,15.714,1692.8075095504,0,0,2.88833998744,0,0,0,13.7, -0.8, 0.3,0,0,1024,1024,1024,1024,0,0,0,0,129.4,29,10.4,65,3.938,3.941,3.944,3.926,0,0,2.988,125.51,1692.8075095504,0,10,Assisted_Takeoff,
333600,2025-09-03 11:05:09,48.1488105392014,11.572174897433,0,,,1692.8075095504,0.656168,0,2.91632883348,0.81906498684,8,3,15.714,1692.8075095504,0,0,2.91632883348,0,0,0,13.7, -0.8, 0.3,0,0,1024,1024,1024,1024,0,0,0,0,129.4,29,10.4,65,3.938,3.941,3.944,3.926,0,0,2.988,125.51,1692.8075095504,0,10,Assisted_Takeoff,
333700,2025-09-03 11:05:09,48.1488104033175,11.5721748851556,0,,,1692.8075095504,0.656168,0,2.95211295536,0.8687336236,8,3,15.714,1692.8075095504,0,0,2.95211295536,0,0,0,13.7, -0.8, 0.3,0,0,1024,1024,1024,1024,0,0,0,0,129.4,29,10.3,65,3.938,3.941,3.944,3.926,0,0,2.988,125.51,1692.8075095504,0,10,Assisted_Takeoff,
333800,2025-09-03 11:05:10,48.1488100535798,11.5721746775141,0,,,1692.8075095504,0.656168,0,3.01954405988,1.00598100332,9,3,15.714,1692.8075095504,0,0,3.01954405988,0,0,0,13.7, -0.8, 0.3,0,0,1024,1024,1024,1024,0,0,0,0,129.3,29,10.2,65,3.938,3.941,3.944,3.926,0,0,2.988,125.51,1692.8075095504,0,10,Assisted_Takeoff,
333900,2025-09-03 11:05:10,48.148810024942,11.57217462124,0,,,1692.8075095504,0.656168,0,3.01944563468,1.02320869416,9,3,15.714,1692.8075095504,0,0,3.01954405988,0,0,0,13.7, -0.8, 0.3,0,0,1024,1024,1024,1024,0,0,0,0,129.3,29,10.1,65,3.938,3.941,3.944,3.926,0,0,2.988,125.51,1692.8075095504,0,10,Assisted_Takeoff,
334000,2025-09-03 11:05:10,48.1488100123606,11.5721745624109,0,,,1692.8075095504,0.656168,0,3.0144029836,1.03824806472,8,3,15.714,1692.8075095504,0,0,3.01954405988,0,0,0,13.7, -0.8, 0.3,0,0,1024,1024,1024,1024,0,0,0,0,129.2,29.1,10,65,3.938,3.941,3.944,3.926,0,0,2.988,125.51,1692.8075095504,0,10,Assisted_Takeoff,
334100,2025-09-03 11:05:10,48.1488100283324,11.5721744952139,0,,,1692.8075095504,0.656168,0,2.99988198576,1.05561355084,8,3,15.714,1692.8075095504,0,0,3.01954405988,0,0,0,13.7, -0.8, 0.3,0,0,1024,1024,1024,1024,0,0,0,0,129.2,29.1,9.9,65,3.938,3.941,3.944,3.926,0,0,2.988,125.51,1692.8075095504,0,10,Assisted_Takeoff,
334200,2025-09-03 11:05:10,48.1488100179902,11.5721744619829,0,,,1692.8075095504,0.656168,0,2.998031592,1.06453743564,8,3,15.734,1692.8075095504,0,0,3.01954405988,0,0,0,13.7, -0.9, 0.3,0,0,1024,1024,1024,1024,0,0,0,0,129.1,29.1,9.9,65,3.94,3.945,3.944,3.928,0,0,2.082,125.51,1692.8075095504,0,10,Assisted_Takeoff,
334300,2025-09-03 11:05:10,48.1488099984912,11.5721745731316,0,,,1692.8075095504,0.656168,0,3.02000993916,1.09251315832,8,3,15.734,1692.8075095504,0,0,3.02000993916,0,0,0,13.7, -0.9, 0.3,0,0,1024,1024,1024,1024,0,0,0,0,129.1,29.1,9.9,65,3.94,3.945,3.944,3.928,0,0,2.082,125.51,1692.8075095504,0,10,Assisted_Takeoff,
334400,2025-09-03 11:05:10,48.1488099301552,11.5721746313605,0,,,1692.8075095504,0.656168,0,3.0484416986,1.1211942616,8,3,15.734,1692.8075095504,0,0,3.0484416986,0,0,0,13.7, -0.8, 0.3,0,0,1024,1024,1024,1024,0,0,0,0,129.1,29.2,9.8,65,3.94,3.945,3.944,3.928,0,0,2.082,125.51,1692.8075095504,0,10,Assisted_Takeoff,
334500,2025-09-03 11:05:10,48.1488098684941,11.5721747106841,0,,,1692.8075095504,0.656168,0,3.0780348754,1.15084321268,8,3,15.734,1692.8075095504,0,0,3.0780348754,0,0,0,13.7, -0.8, 0.3,0,0,1024,1024,1024,1024,0,0,0,0,129,29.2,9.8,65,3.94,3.945,3.944,3.928,0,0,2.082,125.51,1692.8075095504,0,10,Assisted_Takeoff,
334600,2025-09-03 11:05:10,48.1488097941459,11.5721747727936,0,,,1692.8075095504,0.656168,0,3.10878618872,1.18189636328,8,3,15.734,1692.8075095504,0,0,3.10878618872,0,0,0,13.7, -0.8, 0.3,0,0,1024,1024,1024,1024,0,0,0,0,129,29.2,9.7,65,3.94,3.945,3.944,3.928,0,0,2.082,125.51,1692.8075095504,0,10,Assisted_Takeoff,
334700,2025-09-03 11:05:10,48.1488095576209,11.5721749269663,0,,,1692.8075095504,0.656168,0,3.20033474808,1.276000697,8,3,15.734,1692.8075095504,0,0,3.20033474808,0,0,0,13.7, -0.8, 0.3,0,0,1024,1024,1044,1024,0,0,3,0,128.9,29.2,9.6,65,3.94,3.945,3.944,3.928,0,0,2.082,125.51,1692.8075095504,0,10,Assisted_Takeoff,
334800,2025-09-03 11:05:11,48.1488094295177,11.5721749278811,0,,,1692.8075095504,0.656168,0,3.23806112724,1.32273954364,7,3,15.734,1692.8075095504,0,0,3.23806112724,0,0,0,13.7, -0.8, 0.3,0,0,1024,1024,1084,1024,0,0,9,0,129,29.2,9.5,65,3.94,3.945,3.944,3.928,0,0,2.082,125.51,1692.8075095504,0,10,Assisted_Takeoff,
334900,2025-09-03 11:05:11,48.1488092564483,11.5721748801515,0,,,1692.8075095504,0.656168,0,3.28248042,1.3869423016,7,3,15.734,1692.8075095504,0,0,3.28248042,0,0,0,13.7, -0.8, 0.3,0,0,1024,1024,1085,1024,0,0,9,0,128.9,29.2,9.4,65,3.94,3.945,3.944,3.928,0,0,2.082,125.51,1692.8075095504,0,10,Assisted_Takeoff,
335000,2025-09-03 11:05:11,48.1488091197861,11.5721749154657,0,,,1692.8075095504,0.656168,0,3.3281825212,1.43753941608,7,3,15.734,1692.8075095504,0,0,3.3281825212,0,0,0,13.7, -0.8, 0.3,0,0,1024,1024,1085,1024,0,0,9,0,128.9,29.2,9.4,65,3.94,3.945,3.944,3.928,0,0,2.082,125.51,1692.8075095504,0,10,Assisted_Takeoff,
335100,2025-09-03 11:05:11,48.1488089230928,11.5721752738583,0,,,1692.8075095504,0.656168,0,3.4371392176,1.55050529896,7,3,15.734,1692.8075095504,0,0,3.4371392176,0,0,0,13.7, -0.8, 0.3,0,0,1024,1024,1094,1024,0,0,11,0,128.9,29.2,9.6,65,3.94,3.945,3.944,3.928,0,0,2.082,125.51,1692.8075095504,0,10,Assisted_Takeoff,
335200,2025-09-03 11:05:11,48.1488088577906,11.5721754338311,0,,,1692.8075095504,0.656168,0,3.4791995864,1.59615818756,7,3,15.67,1692.8075095504,0,0,3.4791995864,0,0,0,13.7, -0.9, 0.3,0,0,1024,1024,1098,1024,0,0,11,0,128.8,29.3,9.4,65,3.94,3.945,3.944,3.928,0,0,2.082,125.51,1692.8075095504,0,10,Assisted_Takeoff,
335300,2025-09-03 11:05:11,48.1488088137135,11.5721755504044,0,,,1692.8075095504,0.656168,0,3.5088911884,1.62877629884,7,3,15.67,1692.8075095504,0,0,3.5088911884,0,0,0,13.7, -0.9, 0.3,0,0,1024,1024,1093,1024,0,0,10,0,128.7,29.2,9.3,65,3.94,3.945,3.944,3.928,0,0,2.082,125.51,1692.8075095504,0,10,Assisted_Takeoff,
335400,2025-09-03 11:05:11,48.1488087785635,11.5721756668075,0,,,1692.8075095504,0.328084,0,3.5359581184,1.65987866204,7,3,15.67,1692.8075095504,0,0,3.5359581184,0,0,0,13.7, -0.9, 0.3,0,0,1024,1024,1092,1024,0,0,10,0,128.7,29.2,9.3,65,3.94,3.945,3.944,3.928,0,0,2.082,125.51,1692.8075095504,0,10,Assisted_Takeoff,
335500,2025-09-03 11:05:11,48.1488089011642,11.5721759110374,0,,,1692.8075095504,0.328084,0,3.5358596932,1.73427827072,7,3,15.67,1692.8075095504,0,0,3.5359581184,0,0,0,13.7, -0.9, 0.3,0,0,1024,1024,1095,1024,0,0,11,0,128.7,29.1,9.3,65,3.94,3.945,3.944,3.928,0,0,2.082,125.51,1692.8075095504,0,10,Assisted_Takeoff,
335600,2025-09-03 11:05:11,48.148808851342,11.5721760109775,0,,,1692.8075095504,0.328084,0,3.5650919776,1.76464572576,7,3,15.67,1692.8075095504,0,0,3.5650919776,0,0,0,13.7, -1.1, 0.3,0,0,1024,1024,1097,1024,0,0,11,0,128.8,29,9.3,65,3.94,3.945,3.944,3.928,0,0,2.082,125.51,1692.8075095504,0,10,Assisted_Takeoff,
335700,2025-09-03 11:05:12,48.148808767412,11.5721760798693,0,,,1692.8075095504,0.328084,0,3.5996064144,1.79956042504,7,3,15.67,1692.8075095504,0,0,3.5996064144,0,0,0,13.7, -1.2, 0.3,0,0,1024,1024,1095,1024,0,0,11,0,128.7,29,9.2,65,3.94,3.945,3.944,3.928,0,0,2.082,125.51,1692.8075095504,0,10,Assisted_Takeoff,
335800,2025-09-03 11:05:12,48.1488087164775,11.5721761732775,0,,,1692.8075095504,0.328084,0,3.6281825308,1.82892722388,7,3,15.67,1692.8075095504,0,0,3.6281825308,0,0,0,13.7, -1.5, 0.3,0,0,1024,1024,1100,1024,0,0,12,0,128.5,28.5,9.2,65,3.94,3.945,3.944,3.928,0,0,2.082,125.51,1692.8075095504,0,10,Assisted_Takeoff,
335900,2025-09-03 11:05:12,48.1488087236019,11.5721763286443,0,,,1692.8075095504,0.328084,0,3.6493767572,1.86683733008,7,3,15.67,1692.8075095504,0,0,3.6493767572,0,0,0,13.6, -2.2, 0.3,0,0,1024,1024,1107,1024,0,0,13,0,128.6,27.2,9.7,65,3.94,3.945,3.944,3.928,0,0,2.082,125.51,1692.8075095504,0,10,Assisted_Takeoff,
336000,2025-09-03 11:05:12,48.1488087848738,11.5721764822682,0,,,1692.8075095504,0.328084,0,3.6551182272,1.91040360444,7,3,15.67,1692.8075095504,0,0,3.6551182272,0,0,0,13.6, -3.7, 0.4,0,0,1024,1024,1110,1024,0,0,13,0,128,25.3,9.9,65,3.94,3.945,3.944,3.928,0,0,2.082,125.51,1692.8075095504,0,10,Assisted_Takeoff,
336100,2025-09-03 11:05:12,48.148808759711,11.5721765867534,0,,,1692.8075095504,0.328084,0,3.6782481492,1.93744428772,7,3,15.67,1692.8075095504,0,0,3.6782481492,0,0,0,13.6, -5.9, 0.7,0,0,1024,1024,1110,1024,0,0,13,0,128.2,22.7,10.6,65,3.94,3.945,3.944,3.928,0,0,2.082,125.51,1692.8075095504,0,10,Assisted_Takeoff,
336200,2025-09-03 11:05:12,48.1488088098704,11.5721767075667,0,,,1692.8075095504,0.328084,0.223694,3.6827100916,1.97208339644,7,3,15.637,1692.8075095504,0,0.223694,3.6827100916,0.223694,0,0,13.6, -7.8, 1.4,0,0,1024,1024,1107,1024,0,0,13,0,128.9,22.4,12,65,3.94,3.945,3.944,3.928,0,0,2.082,125.51,1692.8075095504,0,10,Assisted_Takeoff,
336300,2025-09-03 11:05:12,48.1488089923815,11.5721768896775,0,,,1692.8075095504,0.656168,0.4921268,3.660433188,2.05208011816,7,3,15.637,1692.8075095504,0,0.4921268,3.6827100916,0.447388,0.223694,-0.223694,13.9, -7.6, 2.2,0,0,1024,1024,1064,1024,0,0,6,0,128.9,22.4,12,65,3.94,3.945,3.944,3.928,0,0,2.082,125.51,1692.8075095504,0,6,P-GPS,
336400,2025-09-03 11:05:12,48.1488092424486,11.5721769914569,0,,,1692.8075095504,0.656168,0.8052984,3.6083662572,2.1466208036,7,3,15.637,1692.8075095504,0,0.8052984,3.6827100916,0.671082,0.447388,-0.447388,14, -3.1, 1.8,0,0,1024,1024,1075,1024,0,0,8,0,129.1,26.3,11.3,65,3.94,3.945,3.944,3.928,0,0,2.082,125.51,1692.8075095504,0,6,P-GPS,
336500,2025-09-03 11:05:12,48.1488094946539,11.5721773076567,0,,,1692.8075095504,0.656168,0.8052984,3.5934712436,2.2665847182,7,3,15.637,1692.8075095504,0,0.8052984,3.6827100916,0.671082,0.447388,-0.671082,13.9, 2, -0.2,0,0,1024,1024,1052,1024,0,0,4,0,128.8,32,8.2,65,3.94,3.945,3.944,3.928,0,0,2.082,125.51,1692.8075095504,0,6,P-GPS,
336600,2025-09-03 11:05:12,48.1488097599127,11.5721776054099,0,,,1692.8075095504,0.656168,0.8052984,3.5759843664,2.38749679556,7,3,15.637,1692.8075095504,0,0.8052984,3.6827100916,0.671082,0.447388,-0.671082,13.9, 4.9, -1.8,0,0,1024,1024,1034,1024,0,0,2,0,129.8,34,6.1,65,3.94,3.945,3.944,3.928,0,0,2.082,125.51,1692.8075095504,0,6,P-GPS,
336700,2025-09-03 11:05:12,48.1488100444622,11.5721778674125,0.328084,,,1693.1355935504,0.984252,0.8052984,3.5513780664,2.50934063148,7,3,15.637,1693.1355935504,0.328084,0.8052984,3.6827100916,0.447388,0.223694,-0.671082,13.8, 5.3, -1.7,0,0,1024,1024,1045,1024,0,0,3,0,130.2,34.1,6.6,65,3.94,3.945,3.944,3.928,0,0,2.082,125.51,1693.1355935504,0.328084,6,P-GPS,
336800,2025-09-03 11:05:13,48.1488101869298,11.5721778231302,0.328084,,,1693.1355935504,0.984252,0.3131716,3.5085631044,2.56242790352,8,3,15.637,1693.1355935504,0.328084,0.8052984,3.6827100916,0.223694,0.223694,-0.447388,13.8, 4.6, -0.7,0,0,1024,1024,1048,1024,0,0,4,0,129.3,33.3,7.1,65,3.94,3.945,3.944,3.928,0,0,2.082,125.51,1693.1355935504,0.328084,6,P-GPS,
336900,2025-09-03 11:05:13,48.1488104095723,11.5721778934921,0.328084,,,1693.1355935504,0.984252,0,3.468011922,2.64544299804,8,3,15.637,1693.1355935504,0.328084,0.8052984,3.6827100916,0,0,-0.223694,13.7, 3.7, -0.6,0,0,1024,1024,1053,1024,0,0,4,0,129.5,32.6,7,65,3.94,3.945,3.944,3.928,0,0,2.082,125.51,1693.1355935504,0.328084,6,P-GPS,
337000,2025-09-03 11:05:13,48.1488105764992,11.5721780335064,0.328084,,,1693.1355935504,0.984252,0,3.4549541788,2.71523630736,7,3,15.637,1693.1355935504,0.328084,0.8052984,3.6827100916,0,0,0,13.7, 2.9, -0.9,0,0,1024,1024,1067,1024,0,0,7,0,129.8,31.6,6.5,65,3.94,3.945,3.944,3.928,0,0,2.082,125.51,1693.1355935504,0.328084,6,P-GPS,
337100,2025-09-03 11:05:13,48.1488107100382,11.572178376431,0.328084,,,1693.1355935504,0.984252,0,3.489665466,2.81188985376,7,3,15.637,1693.1355935504,0.328084,0.8052984,3.6827100916,0,0,0,13.7, 1.8, -1.3,0,0,1024,1024,1086,1024,0,0,9,0,129.3,30.6,6.8,65,3.94,3.945,3.944,3.928,0,0,2.082,125.51,1693.1355935504,0.328084,6,P-GPS,
337200,2025-09-03 11:05:13,48.1488105790689,11.5721788089795,0.328084,,,1693.1355935504,0.984252,0,3.602198278,2.92751977872,7,3,15.437,1693.1355935504,0.328084,0.8052984,3.6827100916,0,0,0,13.8, 0.8, -1.3,0,0,1024,1024,1106,1024,0,0,12,0,128.8,30.2,7.2,65,3.921,3.926,3.924,3.903,0,0,2.808,125.51,1693.1355935504,0.328084,6,P-GPS,
337300,2025-09-03 11:05:13,48.1488104560156,11.5721789806713,0.328084,,,1693.1355935504,0.984252,0,3.6626969676,2.98885836336,7,3,15.437,1693.1355935504,0.328084,0.8052984,3.6827100916,0,0,0,13.8, 0.6, -1.2,0,0,1024,1024,1111,1024,0,0,13,0,129.2,29.8,7.3,65,3.921,3.926,3.924,3.903,0,0,2.808,125.51,1693.1355935504,0.328084,6,P-GPS,
337400,2025-09-03 11:05:13,48.1488103709978,11.5721789917322,0.328084,,,1693.1355935504,0.984252,0,3.6838583856,3.01999353496,7,3,15.437,1693.1355935504,0.328084,0.8052984,3.6838583856,0,0,0,13.8, 0.5, -0.9,0,0,1024,1024,1121,1024,0,0,15,0,128.7,30,7.7,65,3.921,3.926,3.924,3.903,0,0,2.808,125.51,1693.1355935504,0.328084,6,P-GPS,
337500,2025-09-03 11:05:13,48.1488103588512,11.5721787551834,0.328084,,,1693.1355935504,0.984252,0,3.6414371244,3.07774616148,7,3,15.437,1693.1355935504,0.328084,0.8052984,3.6838583856,0,0,0,13.8, 0.6, -0.3,0,0,1024,1024,1125,1024,0,0,15,0,128.1,30.7,7.8,65,3.921,3.926,3.924,3.903,0,0,2.808,125.51,1693.1355935504,0.328084,6,P-GPS,
337600,2025-09-03 11:05:13,48.1488104087353,11.5721785808916,0.328084,,,1693.1355935504,0.984252,0,3.596948934,3.12391086112,7,3,15.437,1693.1355935504,0.328084,0.8052984,3.6838583856,0,0,0,13.8, 1, -0.3,0,0,1024,1024,1139,1024,0,0,17,0,128.1,30.7,7.8,65,3.921,3.926,3.924,3.903,0,0,2.808,125.51,1693.1355935504,0.328084,6,P-GPS,
337700,2025-09-03 11:05:13,48.1488107959174,11.5721779507098,0.328084,,,1693.1355935504,1.312336,0,3.3889108696,3.3324476132,7,3,15.437,1693.1355935504,0.328084,0.8052984,3.6838583856,0,0,-0.223694,13.8, 1.6, -0.1,0,0,1024,1024,1148,1024,0,0,19,0,128.1,30.9,8.1,65,3.921,3.926,3.924,3.903,0,0,2.808,125.51,1693.1355935504,0.328084,6,P-GPS,
337800,2025-09-03 11:05:14,48.1488109845661,11.5721779505943,0.328084,,,1693.1355935504,1.312336,0,3.3463911832,3.4012796364,7,3,15.437,1693.1355935504,0.328084,0.8052984,3.6838583856,0,0,-0.447388,13.7, 1.7, -0.1,0,0,1024,1024,1152,1024,0,0,19,0,128.4,31,8.1,65,3.921,3.926,3.924,3.903,0,0,2.808,125.51,1693.1355935504,0.328084,6,P-GPS,
337900,2025-09-03 11:05:14,48.1488112621572,11.5721780545049,0.656168,,,1693.4636775504,1.312336,0.223694,3.3058728092,3.5056759652,7,3,15.437,1693.4636775504,0.656168,0.8052984,3.6838583856,0.223694,0,-0.447388,13.7, 1.6, -0.7,0,0,1024,1024,1161,1024,0,0,21,0,128.5,30.8,7.4,65,3.921,3.926,3.924,3.903,0,0,2.808,125.51,1693.4636775504,0.656168,6,P-GPS,
338000,2025-09-03 11:05:14,48.1488115646065,11.5721782953356,0.656168,,,1693.4636775504,1.312336,0,3.2907153284,3.6306103524,6,2,15.437,1693.4636775504,0.656168,0.8052984,3.6838583856,0,0,-0.671082,13.7, 1.8, -1.2,0,0,1024,1024,1162,1024,0,0,21,0,128.1,31,6.6,65,3.921,3.926,3.924,3.903,0,0,2.808,125.51,1693.4636775504,0.656168,6,P-GPS,
338100,2025-09-03 11:05:14,48.1488126362073,11.5721794877223,0.656168,,,1693.4636775504,1.64042,0,3.3493439392,4.1175526252,6,2,15.437,1693.4636775504,0.656168,0.8052984,3.6838583856,0,0,-0.671082,13.7, 2, -0.8,0,0,1024,1024,1159,1024,0,0,20,0,127.8,31.5,7,65,3.921,3.926,3.924,3.903,0,0,2.808,125.51,1693.4636775504,0.656168,6,P-GPS,
338200,2025-09-03 11:05:14,48.1488128703743,11.5721797663323,0.984252,,,1693.7917615504,1.64042,0,3.3754266172,4.2266405552,7,2,15.187,1693.7917615504,0.984252,0.8052984,3.6838583856,0,0,-0.671082,13.7, 2.4, -0.3,0,0,1024,1024,1156,1024,0,0,20,0,128,31.5,7.4,64,3.827,3.839,3.835,3.801,0,0,15.7,125.51,1693.7917615504,0.984252,6,P-GPS,
338300,2025-09-03 11:05:14,48.1488129917276,11.5721798671101,0.984252,,,1693.7917615504,1.64042,0,3.3804791108,4.2772639164,7,2,15.187,1693.7917615504,0.984252,0.8052984,3.6838583856,0,0,-0.894776,13.7, 2.3, -0.4,0,0,1024,1024,1143,1024,0,0,18,0,127.6,31.5,7.3,64,3.827,3.839,3.835,3.801,0,0,15.7,125.51,1693.7917615504,0.984252,6,P-GPS,
338400,2025-09-03 11:05:14,48.1488130233699,11.5721799735436,0.984252,,,1693.7917615504,1.968504,0,3.399934492,4.305610374,7,2,15.187,1693.7917615504,0.984252,0.8052984,3.6838583856,0,0,-0.894776,13.7, 1.9, -0.6,0,0,1024,1024,1093,1024,0,0,10,0,127.6,31.2,6.8,64,3.827,3.839,3.835,3.801,0,0,15.7,125.51,1693.7917615504,0.984252,6,P-GPS,
338500,2025-09-03 11:05:14,48.1488126652571,11.5721801423017,1.312336,,,1694.1198455504,1.968504,0,3.4894686156,4.442585444,7,2,15.187,1694.1198455504,1.312336,0.8052984,3.6838583856,0,0,-0.894776,13.7, 1.6, -0.6,0,0,1024,1024,1024,1024,0,0,0,0,127.6,31.2,6.8,64,3.827,3.839,3.835,3.801,0,0,15.7,125.51,1694.1198455504,1.312336,6,P-GPS,
338600,2025-09-03 11:05:14,48.1488126092843,11.5721803220565,1.312336,,,1694.1198455504,2.296588,0,3.5377625804,4.4908794088,7,2,15.187,1694.1198455504,1.312336,0.8052984,3.6838583856,0,0,-0.671082,13.7, 1.8, -0.7,0,0,1024,1024,1024,1024,0,0,0,0,127.6,30.9,6.9,64,3.827,3.839,3.835,3.801,0,0,15.7,125.51,1694.1198455504,1.312336,6,P-GPS,
338700,2025-09-03 11:05:15,48.1488126354143,11.5721805883762,1.64042,,,1694.4479295504,2.296588,0,3.5931103512,4.5563977836,7,2,15.187,1694.4479295504,1.64042,0.8052984,3.6838583856,0,0,-0.447388,13.8, 1.5, -0.5,0,0,1024,991,1024,1024,0,-5,0,0,127.4,30.6,7,64,3.827,3.839,3.835,3.801,0,0,15.7,125.51,1694.4479295504,1.64042,6,P-GPS,
338800,2025-09-03 11:05:15,48.1488126193562,11.5721807717228,1.64042,,,1694.4479295504,2.296588,0,3.6363846308,4.6014109084,7,2,15.187,1694.4479295504,1.64042,0.8052984,3.6838583856,0,0,-0.223694,13.8, 0.3, -0.2,0,0,1024,928,1024,1024,0,-15,0,0,127.3,28.5,7.4,64,3.827,3.839,3.835,3.801,0,0,15.7,125.51,1694.4479295504,1.64042,6,P-GPS,
338900,2025-09-03 11:05:15,48.1488124535545,11.5721808695508,1.64042,,,1694.4479295504,2.296588,0.223694,3.6826116664,4.6664371572,7,2,15.187,1694.4479295504,1.64042,0.8052984,3.6838583856,-0.223694,0,0,13.8, -0.7, -0.1,0,0,1024,895,1024,1024,0,-20,0,0,127.3,28.6,7.3,64,3.827,3.839,3.835,3.801,0,0,15.7,125.51,1694.4479295504,1.64042,6,P-GPS,
339000,2025-09-03 11:05:15,48.1488123826081,11.5721809380671,1.64042,,,1694.4479295504,2.296588,0,3.7084646856,4.6972114364,8,2,15.187,1694.4479295504,1.64042,0.8052984,3.7084646856,0,0,0,13.8, -0.7, -0.5,0,0,1024,1024,1024,1024,0,0,0,0,127.3,28.6,7.3,64,3.827,3.839,3.835,3.801,0,0,15.7,125.51,1694.4479295504,1.64042,6,P-GPS,
339100,2025-09-03 11:05:15,48.1488123355347,11.5721810411496,1.64042,,,1694.4479295504,2.296588,0,3.7384187548,4.7276248232,8,2,15.187,1694.4479295504,1.64042,0.8052984,3.7384187548,0,0,0,13.7, -0.3, -2,0,0,1024,1024,1024,1024,0,0,0,0,128,28.7,5.4,64,3.827,3.839,3.835,3.801,0,0,15.7,125.51,1694.4479295504,1.64042,6,P-GPS,
339200,2025-09-03 11:05:15,48.1488124680835,11.5721810980817,1.64042,,,1694.4479295504,2.296588,0,3.7312665236,4.7779529088,8,2,15.012,1694.4479295504,1.64042,0.8052984,3.7384187548,0,0,0,13.7, 0, -2.7,0,0,1024,1024,1024,1024,0,0,0,0,128.5,28.6,4.7,64,3.783,3.8,3.797,3.76,0,0,18.152,125.51,1694.4479295504,1.64042,6,P-GPS,"Braking now. Return sticks to midpoints, then continue flying."
339300,2025-09-03 11:05:15,48.1488129163062,11.5721810883175,1.64042,,,1694.4479295504,2.296588,0,3.6662074664,4.9415027828,8,2,15.012,1694.4479295504,1.64042,0.8052984,3.7384187548,0,0,0,13.8, 0, -0.9,0,0,1024,1024,1024,1024,0,0,0,0,127.3,28.5,7.1,64,3.783,3.8,3.797,3.76,0,0,18.152,125.51,1694.4479295504,1.64042,6,P-GPS,
339400,2025-09-03 11:05:15,48.1488140033137,11.5721809898025,1.64042,,,1694.4479295504,2.296588,0,3.5173557556,5.3388125068,8,2,15.012,1694.4479295504,1.64042,0.8052984,3.7384187548,0,0,0,13.7, 0, 0.7,0,0,1024,999,1024,1024,0,-4,0,0,126.1,28.3,8,64,3.783,3.8,3.797,3.76,0,0,18.152,125.51,1694.4479295504,1.64042,6,P-GPS,
339500,2025-09-03 11:05:15,48.148814416165,11.5721809379644,1.64042,,,1694.4479295504,2.296588,0,3.4676510296,5.4899608056,8,2,15.012,1694.4479295504,1.64042,0.8052984,3.7384187548,0,0,0,13.6, 0.1, 0.5,0,0,1024,762,1024,1024,0,-40,0,0,126.6,28.3,7.2,64,3.783,3.8,3.797,3.76,0,0,18.152,125.51,1694.4479295504,1.64042,6,P-GPS,
339600,2025-09-03 11:05:15,48.1488147856378,11.5721808882864,1.64042,,,1694.4479295504,2.296588,0,3.4274607396,5.6252954556,8,2,15.012,1694.4479295504,1.64042,0.8052984,3.7384187548,0,0,0,13.6, 0.2, -0.2,0,0,1024,742,1024,1024,0,-43,0,0,126.7,28.2,6.7,64,3.783,3.8,3.797,3.76,0,0,18.152,125.51,1694.4479295504,1.64042,6,P-GPS,
339700,2025-09-03 11:05:16,48.1488151106687,11.5721808154594,1.64042,,,1694.4479295504,2.296588,0,3.3891733368,5.7452101576,8,2,15.012,1694.4479295504,1.64042,0.8052984,3.7384187548,0,0,0,13.6, 0.4, -0.5,0,0,1024,754,1024,1024,0,-41,0,0,127,28.2,6.1,64,3.783,3.8,3.797,3.76,0,0,18.152,125.51,1694.4479295504,1.64042,6,P-GPS,
339800,2025-09-03 11:05:16,48.1488158148372,11.5721803628979,1.312336,,,1694.1198455504,2.296588,0,3.24805128504,6.0247377256,8,2,15.012,1694.4479295504,1.64042,0.8052984,3.7384187548,0,0,0,13.5, 0.6, -0.6,0,0,1024,751,1024,1024,0,-41,0,0,126.8,28.2,6.7,64,3.783,3.8,3.797,3.76,0,0,18.152,125.51,1694.1198455504,1.312336,6,P-GPS,
339900,2025-09-03 11:05:16,48.1488159510924,11.5721803184294,1.312336,,,1694.1198455504,2.296588,0,3.2333006284,6.075623554,8,2,15.012,1694.4479295504,1.64042,0.8052984,3.7384187548,0,0,0,13.5, 0.6, -0.6,0,0,1024,742,1024,1024,0,-43,0,0,127.4,27.9,5.4,64,3.783,3.8,3.797,3.76,0,0,18.152,125.51,1694.1198455504,1.312336,6,P-GPS,"Braking now. Return sticks to midpoints, then continue flying."
340000,2025-09-03 11:05:16,48.148816045972,11.5721802212273,1.312336,,,1694.1198455504,2.296588,0,3.20736886904,6.1175526892,8,2,15.012,1694.4479295504,1.64042,0.8052984,3.7384187548,0,0,0,13.5, 0.5, -1.3,0,0,1024,742,1024,1024,0,-43,0,0,126.5,28,6.3,64,3.783,3.8,3.797,3.76,0,0,18.152,125.51,1694.1198455504,1.312336,6,P-GPS,
340100,2025-09-03 11:05:16,48.1488160989404,11.5721800263864,1.312336,,,1694.1198455504,2.296588,0,3.158874773,6.1687666016,8,2,15.012,1694.4479295504,1.64042,0.8052984,3.7384187548,0,0,0,13.5, 0.5, -0.5,0,0,1024,717,1024,1024,0,-47,0,0,126.5,28,6.3,64,3.783,3.8,3.797,3.76,0,0,18.152,125.51,1694.1198455504,1.312336,6,P-GPS,
340200,2025-09-03 11:05:16,48.1488156580718,11.5721794308319,1.64042,,,1694.4479295504,2.296588,0,3.0279856612,6.3853020416,8,2,15.023,1694.4479295504,1.64042,0.8052984,3.7384187548,0,0,0,13.5, 0.5, -0.3,0,0,1024,709,1024,1024,0,-48,0,0,126,28,6.2,64,3.783,3.8,3.797,3.76,0,0,17.072,125.51,1694.4479295504,1.64042,6,P-GPS,
340300,2025-09-03 11:05:16,48.1488157001556,11.5721792130314,1.64042,,,1694.4479295504,2.296588,0,2.973589334,6.4405185788,8,2,15.023,1694.4479295504,1.64042,0.8052984,3.7384187548,0,0,0,13.5, 0.5, -2.4,0,0,1024,693,1024,1024,0,-50,0,0,127.9,27.8,4.4,64,3.783,3.8,3.797,3.76,0,0,17.072,125.51,1694.4479295504,1.64042,6,P-GPS,
340400,2025-09-03 11:05:16,48.1488157089362,11.5721789550122,1.64042,,,1694.4479295504,2.296588,0,2.9108104606,6.5034122816,9,2,15.023,1694.4479295504,1.64042,0.8052984,3.7384187548,0,0,0,13.6, 0.5, -4.8,0,0,1024,663,1024,1024,0,-55,0,0,129.2,27.6,2.2,64,3.783,3.8,3.797,3.76,0,0,17.072,125.51,1694.4479295504,1.64042,6,P-GPS,
340500,2025-09-03 11:05:16,48.148815677815,11.5721785828432,1.64042,,,1694.4479295504,2.296588,0.223694,2.82210638952,6.5947180588,9,2,15.023,1694.4479295504,1.64042,0.8052984,3.7384187548,0,-0.223694,0,13.7, 0.4, -6.1,0,0,1024,597,1024,1024,0,-65,0,0,129.6,27.5,0.8,64,3.783,3.8,3.797,3.76,0,0,17.072,125.51,1694.4479295504,1.64042,6,P-GPS,
340600,2025-09-03 11:05:16,48.1488150450603,11.5721773451632,1.64042,,,1694.4479295504,2.296588,0.223694,2.56388787732,6.9742784384,8,2,15.023,1694.4479295504,1.64042,0.8052984,3.7384187548,0,-0.447388,0,13.7, 0.4, -6.4,0,0,1024,581,1024,1024,0,-67,0,0,128.8,27.5,0.4,64,3.783,3.8,3.797,3.76,0,0,17.072,125.51,1694.4479295504,1.64042,6,P-GPS,
340700,2025-09-03 11:05:16,48.1488150398802,11.5721765900787,1.64042,,,1694.4479295504,2.296588,0.671082,2.38537409208,7.1581039036,8,2,15.023,1694.4479295504,1.64042,0.8052984,3.7384187548,0,-0.671082,0,13.7, 0.5, -6.2,0,0,1024,584,1024,1024,0,-67,0,0,128.8,27.5,0.4,64,3.783,3.8,3.797,3.76,0,0,17.072,125.51,1694.4479295504,1.64042,6,P-GPS,
340800,2025-09-03 11:05:17,48.148815053937,11.5721757199103,1.64042,,,1694.4479295504,2.296588,0.9171454,2.17885177576,7.3699805508,7,2,15.023,1694.4479295504,1.64042,0.9171454,3.7384187548,0.223694,-0.894776,0,13.8, 0.5, -6.1,0,0,1024,586,1024,1024,0,-66,0,0,129.8,27.2,0.7,64,3.783,3.8,3.797,3.76,0,0,17.072,125.51,1694.4479295504,1.64042,6,P-GPS,
340900,2025-09-03 11:05:17,48.1488150910948,11.5721746154463,1.64042,,,1694.4479295504,2.296588,0.9171454,1.91638457576,7.6391734728,7,2,15.023,1694.4479295504,1.64042,0.9171454,3.7384187548,0.223694,-0.894776,0,13.9, 0.7, -5.9,0,0,1024,587,1024,1024,0,-66,0,0,129,27.3,1.4,64,3.783,3.8,3.797,3.76,0,0,17.072,125.51,1694.4479295504,1.64042,6,P-GPS,
341000,2025-09-03 11:05:17,48.1488150991996,11.5721734773052,1.64042,,,1694.4479295504,2.296588,1.1408394,1.65178154892,7.9162404108,6,2,15.023,1694.4479295504,1.64042,1.1408394,3.7384187548,0.223694,-1.11847,0,14, 0.9, -5.6,0,0,1024,588,1024,1024,0,-66,0,0,128.9,26.9,0.7,64,3.783,3.8,3.797,3.76,0,0,17.072,125.51,1694.4479295504,1.64042,6,P-GPS,
341100,2025-09-03 11:05:17,48.14881473747,11.5721716553595,1.64042,,,1694.4479295504,2.296588,1.3645334,1.30491473992,8.3789700844,6,2,15.023,1694.4479295504,1.64042,1.3645334,3.7384187548,0.223694,-1.342164,0,14, 0.4, -5.7,0,0,1024,600,1024,1024,0,-64,0,0,129.6,26.3,1,64,3.783,3.8,3.797,3.76,0,0,17.072,125.51,1694.4479295504,1.64042,6,P-GPS,
341200,2025-09-03 11:05:17,48.1488147150757,11.5721704570026,1.64042,,,1694.4479295504,2.296588,1.3645334,1.07139439124,8.6708008024,6,2,14.983,1694.4479295504,1.64042,1.3645334,3.7384187548,0.223694,-1.342164,0,14, 0, -5.7,0,0,1024,611,1024,1024,0,-63,0,0,129.4,26,0.7,64,3.781,3.799,3.797,3.762,0,0,17.072,125.51,1694.4479295504,1.64042,6,P-GPS,
341300,2025-09-03 11:05:17,48.1488147446303,11.5721692549096,1.64042,,,1694.4479295504,2.296588,1.5882274,0.85815947628,8.9636157724,6,2,14.983,1694.4479295504,1.64042,1.5882274,3.7384187548,0.223694,-1.565858,0,14.1, -0.2, -5.8,0,0,1024,610,1024,1024,0,-63,0,0,129.4,26,0.7,64,3.781,3.799,3.797,3.762,0,0,17.072,125.51,1694.4479295504,1.64042,6,P-GPS,
341400,2025-09-03 11:05:17,48.148814791865,11.5721681593817,1.64042,,,1694.4479295504,2.296588,1.5882274,0.70784779168,9.2308729988,6,2,14.983,1694.4479295504,1.64042,1.5882274,3.7384187548,0.223694,-1.565858,0,14.1, -0.2, -6.3,0,0,1024,608,1024,1024,0,-63,0,0,129,26,0,64,3.781,3.799,3.797,3.762,0,0,17.072,125.51,1694.4479295504,1.64042,6,P-GPS,
341500,2025-09-03 11:05:17,48.1488147439154,11.5721680900213,1.64042,,,1694.4479295504,2.296588,2.0356154,0.71809057416,9.2551840232,6,2,14.983,1694.4479295504,1.64042,2.0356154,3.7384187548,0.223694,-2.013246,0,14, 0, -6.3,0,0,1024,611,1024,1024,0,-63,0,0,128.8,26.3,0.2,64,3.781,3.799,3.797,3.762,0,0,17.072,125.51,1694.4479295504,1.64042,6,P-GPS,
341600,2025-09-03 11:05:17,48.1488148068629,11.5721669929591,1.64042,,,1694.4479295504,2.296588,2.0356154,0.65116143816,9.5231958428,6,2,14.983,1694.4479295504,1.64042,2.0356154,3.7384187548,0.223694,-2.013246,0,14, 0.4, -6,0,0,1024,641,1024,1024,0,-58,0,0,128.9,27.1,0.1,64,3.781,3.799,3.797,3.762,0,0,17.072,125.51,1694.4479295504,1.64042,6,P-GPS,
341700,2025-09-03 11:05:18,48.1488148494712,11.572165637592,1.64042,,,1694.4479295504,2.296588,2.23694,0.72481301532,9.853510814,6,2,14.983,1694.4479295504,1.64042,2.23694,3.7384187548,0.223694,-2.23694,0,14.1, 0.4, -5.3,0,0,1024,651,1024,1024,0,-57,0,0,128.3,27.1,1,64,3.781,3.799,3.797,3.762,0,0,17.072,125.51,1694.4479295504,1.64042,6,P-GPS,
341800,2025-09-03 11:05:18,48.148814942242,11.5721643103395,1.64042,,,1694.4479295504,2.296588,2.23694,0.90182745668,10.1783795908,6,2,14.983,1694.4479295504,1.64042,2.23694,3.7384187548,0.223694,-2.23694,0,14, -0.5, -4.7,0,0,1024,656,1024,1024,0,-56,0,0,128.2,25.9,1.6,64,3.781,3.799,3.797,3.762,0,0,17.072,125.51,1694.4479295504,1.64042,6,P-GPS,
341900,2025-09-03 11:05:18,48.1488151745998,11.572163458597,1.64042,,,1694.4479295504,2.296588,2.5053728,1.01986223736,10.4023625376,6,2,14.983,1694.4479295504,1.64042,2.5053728,3.7384187548,0.447388,-2.460634,0,14, -1, -4.5,0,0,1024,656,1024,1024,0,-56,0,0,127.7,25.8,1.4,64,3.781,3.799,3.797,3.762,0,0,17.072,125.51,1694.4479295504,1.64042,6,P-GPS,
342000,2025-09-03 11:05:18,48.148815438126,11.5721620381995,1.64042,,,1694.4479295504,2.296588,2.5053728,1.29521985772,10.7612536252,6,2,14.983,1694.4479295504,1.64042,2.5053728,3.7384187548,0.447388,-2.460634,0,13.7, -0.5, -4.9,0,0,1024,672,1024,1024,0,-53,0,0,127.5,26.4,0.2,64,3.781,3.799,3.797,3.762,0,0,17.072,125.51,1694.4479295504,1.64042,6,P-GPS,"Braking now. Return sticks to midpoints, then continue flying."
342100,2025-09-03 11:05:18,48.1488157887951,11.5721604090195,1.64042,,,1694.4479295504,2.296588,2.7290668,1.64781501336,11.1779531136,6,2,14.983,1694.4479295504,1.64042,2.7290668,3.7384187548,0.447388,-2.684328,0,13.5, 0, -0.2,0,0,1024,853,1024,1024,0,-26,0,0,122.8,27.6,11.2,64,3.781,3.799,3.797,3.762,0,0,17.072,125.51,1694.4479295504,1.64042,6,P-GPS,
342200,2025-09-03 11:05:18,48.1488160036341,11.5721589408475,1.312336,,,1694.1198455504,2.296588,2.2816788,1.99057749152,11.5438323904,7,2,14.966,1694.4479295504,1.64042,2.7290668,3.7384187548,0.447388,-2.23694,0,13.4, -0.3, 12.8,0,0,1024,853,1024,1024,0,-26,0,0,117.7,29.2,18.9,64,3.771,3.789,3.786,3.75,0,0,18.246,125.51,1694.1198455504,1.312336,6,P-GPS,
342300,2025-09-03 11:05:18,48.148815921624,11.5721576658665,1.64042,,,1694.4479295504,2.296588,1.5882274,2.3023622784,11.855643424,7,2,14.966,1694.4479295504,1.64042,2.7290668,3.7384187548,0.223694,-1.565858,0,13.5, 0.4, 15.1,0,0,1024,912,1024,1024,0,-17,0,0,121.8,28.1,12.9,64,3.771,3.789,3.786,3.75,0,0,18.246,125.51,1694.4479295504,1.64042,6,P-GPS,"Braking now. Return sticks to midpoints, then continue flying."
342400,2025-09-03 11:05:18,48.1488159198246,11.5721568127052,1.64042,,,1694.4479295504,2.296588,0.894776,2.50903551336,12.063320596,7,2,14.966,1694.4479295504,1.64042,2.7290668,3.7384187548,0,-0.894776,0,13.7, 0.3, 9,0,0,1024,974,1024,1024,0,-8,0,0,124.9,26.7,8.2,64,3.771,3.789,3.786,3.75,0,0,18.246,125.51,1694.4479295504,1.64042,6,P-GPS,
342500,2025-09-03 11:05:18,48.1488159697445,11.5721561886894,1.64042,,,1694.4479295504,2.296588,0.223694,2.65863853652,12.2163389736,7,2,14.966,1694.4479295504,1.64042,2.7290668,3.7384187548,0,-0.223694,0,13.8, -0.3, 4.3,0,0,1024,1006,1024,1024,0,-3,0,0,125.8,26.2,6.2,64,3.771,3.789,3.786,3.75,0,0,18.246,125.51,1694.4479295504,1.64042,6,P-GPS,
342600,2025-09-03 11:05:18,48.1488161246096,11.5721559063143,1.64042,,,1694.4479295504,2.296588,0,2.72301845984,12.3053153544,6,2,14.966,1694.4479295504,1.64042,2.7290668,3.7384187548,0,0,0,13.8, -0.3, 2.2,0,0,1024,948,1024,1024,0,-12,0,0,125.8,26.2,6.2,64,3.771,3.789,3.786,3.75,0,0,18.246,125.51,1694.4479295504,1.64042,6,P-GPS,
342700,2025-09-03 11:05:19,48.1488164487334,11.5721559402578,1.64042,,,1694.4479295504,2.296588,0,2.70993446992,12.4238521036,6,2,14.966,1694.4479295504,1.64042,2.7290668,3.7384187548,0,0,0,13.9, 0.2, 1.8,0,0,1024,773,1024,1024,0,-38,0,0,126.1,26.6,6.3,64,3.771,3.789,3.786,3.75,0,0,18.246,125.51,1694.4479295504,1.64042,6,P-GPS,
342800,2025-09-03 11:05:19,48.1488170645149,11.5721565947298,1.64042,,,1694.4479295504,2.296588,0,2.5559712104,12.6992786216,6,2,14.966,1694.4479295504,1.64042,2.7290668,3.7384187548,0,0,0,13.9, 0.5, 1.3,0,0,1024,742,1024,1024,0,-43,0,0,126.3,27.1,5.8,64,3.771,3.789,3.786,3.75,0,0,18.246,125.51,1694.4479295504,1.64042,6,P-GPS,
342900,2025-09-03 11:05:19,48.1488170176613,11.5721569550515,1.64042,,,1694.4479295504,2.296588,0,2.46732947528,12.7886158948,6,2,14.966,1694.4479295504,1.64042,2.7290668,3.7384187548,0,0,0,13.8, 0.6, 0.7,0,0,1024,739,1024,1024,0,-43,0,0,126.7,26.9,5,64,3.771,3.789,3.786,3.75,0,0,18.246,125.51,1694.4479295504,1.64042,6,P-GPS,
343000,2025-09-03 11:05:19,48.1488170076757,11.5721573027651,1.64042,,,1694.4479295504,2.296588,0,2.38262474816,12.873359992,6,2,14.966,1694.4479295504,1.64042,2.7290668,3.7384187548,0,0,0,13.7, 0, 0,0,0,1024,736,1024,1024,0,-44,0,0,126.5,26.2,4.4,64,3.771,3.789,3.786,3.75,0,0,18.246,125.51,1694.4479295504,1.64042,6,P-GPS,
343100,2025-09-03 11:05:19,48.1488170644546,11.5721576082186,1.64042,,,1694.4479295504,2.296588,0,2.30988524452,12.9505253488,6,2,14.966,1694.4479295504,1.64042,2.7290668,3.7384187548,0,0,0,13.7, -0.3, -0.8,0,0,1024,731,1024,1024,0,-44,0,0,126.9,26.1,3.6,64,3.771,3.789,3.786,3.75,0,0,18.246,125.51,1694.4479295504,1.64042,6,P-GPS,
343200,2025-09-03 11:05:19,48.1488172326192,11.5721583359781,1.64042,,,1694.4479295504,2.296588,0,2.13910768,13.1380253548,6,2,14.856,1694.4479295504,1.64042,2.7290668,3.7384187548,0,0,0,13.8, 0.1, -0.9,0,0,1024,707,1024,1024,0,-48,0,0,126.9,26.8,3.9,64,3.754,3.771,3.771,3.736,0,0,18.46,125.51,1694.4479295504,1.64042,6,P-GPS,
343300,2025-09-03 11:05:19,48.1488172546259,11.5721584050897,1.64042,,,1694.4479295504,2.296588,0,2.12328746952,13.156660526,6,2,14.856,1694.4479295504,1.64042,2.7290668,3.7384187548,0,0,0,14, 0.7, -0.3,0,0,1024,700,1024,1024,0,-49,0,0,125.9,27.4,4.6,64,3.754,3.771,3.771,3.736,0,0,18.46,125.51,1694.4479295504,1.64042,6,P-GPS,
343400,2025-09-03 11:05:19,48.1488172440704,11.5721584664738,1.64042,,,1694.4479295504,2.296588,0,2.1080053168,13.172080474,6,2,14.856,1694.4479295504,1.64042,2.7290668,3.7384187548,0,0,0,14, 0.6, 0.2,0,0,1024,690,1024,1024,0,-51,0,0,125.9,26.9,4.8,64,3.754,3.771,3.771,3.736,0,0,18.46,125.51,1694.4479295504,1.64042,6,P-GPS,
343500,2025-09-03 11:05:19,48.1488171901282,11.5721585323179,1.64042,,,1694.4479295504,2.296588,0,2.08993116924,13.1974741756,6,2,14.856,1694.4479295504,1.64042,2.7290668,3.7384187548,0,0,0,14.1, 0.2, 0.2,0,0,1024,666,1024,1024,0,-54,0,0,125.7,27,4.7,64,3.754,3.771,3.771,3.736,0,0,18.46,125.51,1694.4479295504,1.64042,6,P-GPS,
343600,2025-09-03 11:05:19,48.1488169818274,11.5721580776604,1.64042,,,1694.4479295504,2.296588,0,2.19377959776,13.3317261484,6,2,14.856,1694.4479295504,1.64042,2.7290668,3.7384187548,0,0,0,14.1, 0.4, 0.1,0,0,1024,631,1024,1024,0,-60,0,0,125.8,27.5,3.6,64,3.754,3.771,3.771,3.736,0,0,18.46,125.51,1694.4479295504,1.64042,6,P-GPS,
343700,2025-09-03 11:05:19,48.1488168640974,11.57215815778,1.64042,,,1694.4479295504,2.296588,0,2.17192264168,13.3789046276,6,2,14.856,1694.4479295504,1.64042,2.7290668,3.7384187548,0,0,0,14.2, 0.7, -0.4,0,0,1024,564,1024,1024,0,-70,0,0,126.2,27.3,3.4,64,3.754,3.771,3.771,3.736,0,0,18.46,125.51,1694.4479295504,1.64042,6,P-GPS,
343800,2025-09-03 11:05:20,48.1488167858555,11.5721582679947,1.64042,,,1694.4479295504,2.296588,0,2.14398628908,13.4180778572,6,2,14.856,1694.4479295504,1.64042,2.7290668,3.7384187548,0,0,0,14.2, 0.5, -0.7,0,0,1024,471,1024,1024,0,-84,0,0,126.2,27.3,3.4,64,3.754,3.771,3.771,3.736,0,0,18.46,125.51,1694.4479295504,1.64042,6,P-GPS,
343900,2025-09-03 11:05:20,48.1488167734061,11.572158426942,1.64042,,,1694.4479295504,2.296588,0.223694,2.1051673902,13.4570542364,6,2,14.856,1694.4479295504,1.64042,2.7290668,3.7384187548,0,0.223694,0,14.1, 0, -0.9,0,0,1024,444,1024,1024,0,-88,0,0,126.5,26.8,3.4,64,3.754,3.771,3.771,3.736,0,0,18.46,125.51,1694.4479295504,1.64042,6,P-GPS,
344000,2025-09-03 11:05:20,48.1488167000137,11.5721584073157,1.64042,,,1694.4479295504,2.296588,0,2.10926515936,13.4842524,6,2,14.856,1694.4479295504,1.64042,2.7290668,3.7384187548,0,0,0,14, -0.1, -0.9,0,0,1024,441,1024,1024,0,-88,0,0,125.8,26.7,2.9,64,3.754,3.771,3.771,3.736,0,0,18.46,125.51,1694.4479295504,1.64042,6,P-GPS,
344100,2025-09-03 11:05:20,48.1488166580341,11.5721586209258,1.64042,,,1694.4479295504,2.296588,0,2.0570374674,13.5384518768,6,2,14.856,1694.4479295504,1.64042,2.7290668,3.7384187548,0,0,0,14, -0.1, -0.8,0,0,1024,862,1024,1024,0,-25,0,0,125.2,26.8,2.9,64,3.754,3.771,3.771,3.736,0,0,18.46,125.51,1694.4479295504,1.64042,6,P-GPS,
344200,2025-09-03 11:05:20,48.1488166261231,11.5721588013001,1.64042,,,1694.4479295504,2.296588,0,2.0130249988,13.5838587024,6,2,14.876,1694.4479295504,1.64042,2.7290668,3.7384187548,0,0,0,13.9, 0.1, -0.8,0,0,1024,1024,1024,1024,0,0,0,0,125.6,27.2,2.8,64,3.759,3.776,3.774,3.736,0,0,18.408,125.51,1694.4479295504,1.64042,6,P-GPS,
344300,2025-09-03 11:05:20,48.1488165975244,11.5721589446334,1.64042,,,1694.4479295504,2.296588,0,1.97809389532,13.6202760264,6,2,14.876,1694.4479295504,1.64042,2.7290668,3.7384187548,0,0,0,13.9, 0.5, -0.8,0,0,1024,1024,1024,1024,0,0,0,0,125.2,27.6,2.7,64,3.759,3.776,3.774,3.736,0,0,18.408,125.51,1694.4479295504,1.64042,6,P-GPS,
344400,2025-09-03 11:05:20,48.1488165589319,11.5721590993535,1.64042,,,1694.4479295504,2.296588,0,1.94046594136,13.6604991248,6,2,14.876,1694.4479295504,1.64042,2.7290668,3.7384187548,0,0,0,14, 0.6, -1.2,0,0,1024,1018,1024,1024,0,-1,0,0,125.3,27.6,2,64,3.759,3.776,3.774,3.736,0,0,18.408,125.51,1694.4479295504,1.64042,6,P-GPS,
344500,2025-09-03 11:05:20,48.1488163984357,11.5721592169041,1.64042,,,1694.4479295504,2.296588,0,1.91310373576,13.7256894156,6,2,14.876,1694.4479295504,1.64042,2.7290668,3.7384187548,0,0,0,14, 0.4, -1.4,0,0,1024,827,1024,1024,0,-30,0,0,125.9,27.3,2.2,64,3.759,3.776,3.774,3.736,0,0,18.408,125.51,1694.4479295504,1.64042,6,P-GPS,
344600,2025-09-03 11:05:20,48.1488163549546,11.5721593863025,1.64042,,,1694.4479295504,2.296588,0,1.87255911504,13.769849522,6,2,14.876,1694.4479295504,1.64042,2.7290668,3.7384187548,0,0,0,14, 0.3, -1.1,0,0,1040,531,1024,1024,2,-75,0,0,125.6,27.4,2.2,64,3.759,3.776,3.774,3.736,0,0,18.408,125.51,1694.4479295504,1.64042,6,P-GPS,
344700,2025-09-03 11:05:20,48.1488163613365,11.572159543913,1.64042,,,1694.4479295504,2.296588,0,1.83412407444,13.8083009668,6,2,14.876,1694.4479295504,1.64042,2.7290668,3.7384187548,0,0,0,13.9, 0.1, -1,0,0,1114,364,1024,1024,14,-100,0,0,124.6,27.1,2,64,3.759,3.776,3.774,3.736,0,0,18.408,125.51,1694.4479295504,1.64042,6,P-GPS,
344800,2025-09-03 11:05:21,48.1488163609619,11.5721596999859,1.64042,,,1694.4479295504,2.296588,0,1.796177879,13.846293094,6,2,14.876,1694.4479295504,1.64042,2.7290668,3.7384187548,0,0,0,13.8, 0.3, -1.2,0,0,1036,364,1024,1024,2,-100,0,0,125.4,27.6,1.5,64,3.759,3.776,3.774,3.736,0,0,18.408,125.51,1694.4479295504,1.64042,6,P-GPS,
344900,2025-09-03 11:05:21,48.1488163855319,11.5721598605911,1.64042,,,1694.4479295504,2.296588,0,1.75672249716,13.8863849588,6,2,14.876,1694.4479295504,1.64042,2.7290668,3.7384187548,0,0,0,13.8, 0.7, -1.5,0,0,1024,411,1024,1024,0,-93,0,0,125.8,27.4,1.6,64,3.759,3.776,3.774,3.736,0,0,18.408,125.51,1694.4479295504,1.64042,6,P-GPS,
345000,2025-09-03 11:05:21,48.1488163756766,11.5721600149131,1.64042,,,1694.4479295504,2.296588,0,1.71935044872,13.9241474272,6,2,14.876,1694.4479295504,1.64042,2.7290668,3.7384187548,0,0,0,13.9, 0.6, -1.6,0,0,1024,913,1024,1024,0,-17,0,0,125.8,27.4,1.6,64,3.759,3.776,3.774,3.736,0,0,18.408,125.51,1694.4479295504,1.64042,6,P-GPS,
345100,2025-09-03 11:05:21,48.1488163837781,11.5721601688371,1.64042,,,1694.4479295504,2.296588,0,1.68178811156,13.9617130452,6,2,14.876,1694.4479295504,1.64042,2.7290668,3.7384187548,0,0,0,13.9, 0.5, -1.4,0,0,1024,1024,1024,1024,0,0,0,0,125.5,27.4,1.5,64,3.759,3.776,3.774,3.736,0,0,18.408,125.51,1694.4479295504,1.64042,6,P-GPS,
345200,2025-09-03 11:05:21,48.1488163752988,11.5721603120565,1.64042,,,1694.4479295504,2.296588,0,1.64710307108,13.996719608,6,2,14.927,1694.4479295504,1.64042,2.7290668,3.7384187548,0,0,0,13.9, 0.5, -1.1,0,0,1024,1024,1024,1024,0,0,0,0,125.4,27.4,1.7,64,3.759,3.776,3.774,3.736,0,0,18.408,125.51,1694.4479295504,1.64042,6,P-GPS,
345300,2025-09-03 11:05:21,48.1488163066875,11.5721605572686,1.64042,,,1694.4479295504,2.296588,0,1.58892065452,14.0614505812,6,2,14.927,1694.4479295504,1.64042,2.7290668,3.7384187548,0,0,0,13.9, 0.5, -1,0,0,1024,1024,1143,1024,0,0,18,0,125.5,27.3,1.8,64,3.759,3.776,3.774,3.736,0,0,18.408,125.51,1694.4479295504,1.64042,6,P-GPS,
345400,2025-09-03 11:05:21,48.1488162663151,11.5721607154006,1.64042,,,1694.4479295504,2.296588,0,1.55156501028,14.1026579316,6,2,14.927,1694.4479295504,1.64042,2.7290668,3.7384187548,0,0,0,14, 0.2, -1.1,0,0,1024,1024,1220,1024,0,0,30,0,126.5,26.9,2.1,64,3.759,3.776,3.774,3.736,0,0,18.408,125.51,1694.4479295504,1.64042,6,P-GPS,
345500,2025-09-03 11:05:21,48.1488162431522,11.5721608921671,1.64042,,,1694.4479295504,2.296588,0,1.509350442,14.1465227624,6,2,14.927,1694.4479295504,1.64042,2.7290668,3.7384187548,0,0,0,14, 0, -1.1,0,0,1024,1024,1245,1024,0,0,33,0,125.8,26.3,2.2,64,3.759,3.776,3.774,3.736,0,0,18.408,125.51,1694.4479295504,1.64042,6,P-GPS,
345600,2025-09-03 11:05:21,48.1488162302077,11.5721610892179,1.64042,,,1694.4479295504,2.296588,0,1.4619751124,14.194718302,6,2,14.927,1694.4479295504,1.64042,2.7290668,3.7384187548,0,0,-0.223694,13.9, -0.1, -1.4,0,0,1024,1024,1240,1024,0,0,33,0,125.4,26.2,1.5,64,3.759,3.776,3.774,3.736,0,0,18.408,125.51,1694.4479295504,1.64042,6,P-GPS,
345700,2025-09-03 11:05:22,48.1488163003431,11.57216152821,1.64042,,,1694.4479295504,2.296588,0,1.35333665748,14.3045936336,6,2,14.927,1694.4479295504,1.64042,2.7290668,3.7384187548,0,0,-0.894776,13.9, -0.1, -2,0,0,1024,1024,1227,1024,0,0,31,0,125.4,26.3,1.2,64,3.759,3.776,3.774,3.736,0,0,18.408,125.51,1694.4479295504,1.64042,6,P-GPS,
345800,2025-09-03 11:05:22,48.1488163067429,11.5721617148273,1.968504,,,1694.7760135504,2.624672,0,1.30786749592,14.3500988844,6,2,14.927,1694.7760135504,1.968504,2.7290668,3.7384187548,0,0,-1.342164,13.8, 0, -1.5,0,0,1024,1024,1205,1024,0,0,27,0,124.8,27.6,1.3,64,3.759,3.776,3.774,3.736,0,0,18.408,125.51,1694.7760135504,1.968504,6,P-GPS,
345900,2025-09-03 11:05:22,48.1488162964511,11.57216184562,1.968504,,,1694.7760135504,2.624672,0,1.2764436104,14.3821526912,6,2,14.927,1694.7760135504,1.968504,2.7290668,3.7384187548,0,0,-1.565858,13.9, 0.8, -1.1,0,0,1024,1024,1202,1024,0,0,27,0,125,28.1,1.6,64,3.759,3.776,3.774,3.736,0,0,18.408,125.51,1694.7760135504,1.968504,6,P-GPS,
346000,2025-09-03 11:05:22,48.14881631709,11.5721619413745,2.296588,,,1695.1040975504,2.952756,0,1.25259518444,14.4066277576,6,2,14.927,1695.1040975504,2.296588,2.7290668,3.7384187548,0,0,-1.789552,13.9, 0.9, -1.3,0,0,1024,1024,1194,1024,0,0,26,0,125.4,27.5,1.7,64,3.759,3.776,3.774,3.736,0,0,18.408,125.51,1695.1040975504,2.296588,6,P-GPS,
346100,2025-09-03 11:05:22,48.1488163932963,11.5721619984671,2.624672,,,1695.4321815504,3.28084,0,1.2368110632,14.4377301208,6,2,14.927,1695.4321815504,2.624672,2.7290668,3.7384187548,0,0,-1.789552,14, 0.3, -1.2,0,0,1024,1024,1195,1024,0,0,26,0,124.3,27.2,2.1,64,3.759,3.776,3.774,3.736,0,0,18.408,125.51,1695.4321815504,2.624672,6,P-GPS,
346200,2025-09-03 11:05:22,48.1488164932421,11.5721618318949,2.624672,,,1695.4321815504,3.608924,0,1.27575135316,14.4922576816,7,2,15.013,1695.4321815504,2.624672,2.7290668,3.7384187548,0,0,-1.565858,14, -0.1, -0.5,0,0,1024,1024,1200,1024,0,0,27,0,124.3,27.2,2.1,64,3.754,3.772,3.77,3.733,0,0,18.24,125.51,1695.4321815504,2.624672,6,P-GPS,
346300,2025-09-03 11:05:22,48.1488164376144,11.5721617633081,2.952756,,,1695.7602655504,3.608924,0.223694,1.2931594902,14.51853721,7,2,15.013,1695.7602655504,2.952756,2.7290668,3.7384187548,0,-0.223694,-1.565858,13.9, 0, 0,0,0,1024,1024,1199,1024,0,0,27,0,124.1,27.3,2.4,64,3.754,3.772,3.77,3.733,0,0,18.24,125.51,1695.7602655504,2.952756,6,P-GPS,
346400,2025-09-03 11:05:22,48.1488164498734,11.5721617185314,3.28084,,,1696.0883495504,3.937008,0,1.30386487112,14.5303154256,7,2,15.013,1696.0883495504,3.28084,2.7290668,3.7384187548,0,0,-1.565858,13.9, 0.1, 0.5,0,0,1024,964,1197,1024,0,-9,26,0,124.1,27.6,2.9,64,3.754,3.772,3.77,3.733,0,0,18.24,125.51,1696.0883495504,3.28084,6,P-GPS,
346500,2025-09-03 11:05:22,48.1488165824482,11.5721617168367,3.608924,,,1696.4164335504,4.265092,0,1.30326775824,14.5786750072,7,2,15.013,1696.4164335504,3.608924,2.7290668,3.7384187548,0,0,-1.565858,13.9, 0.3, 0.4,0,0,1024,843,1196,1024,0,-27,26,0,124.2,27.7,2.7,64,3.754,3.772,3.77,3.733,0,0,18.24,125.51,1696.4164335504,3.608924,6,P-GPS,
346600,2025-09-03 11:05:22,48.148816880219,11.5721615348575,3.937008,,,1696.7445175504,4.593176,0,1.35169295664,14.696030654,7,2,15.013,1696.7445175504,3.937008,2.7290668,3.7384187548,0,0,-1.565858,13.9, 0.6, 0.2,0,0,1024,759,1188,1024,0,-40,25,0,124,28,2.4,64,3.754,3.772,3.77,3.733,0,0,18.24,125.51,1696.7445175504,3.937008,6,P-GPS,
346700,2025-09-03 11:05:22,48.1488172311291,11.5721614919795,4.265092,,,1697.0726015504,4.92126,0,1.37794623832,14.82447554,7,2,15.013,1697.0726015504,4.265092,2.7290668,3.7384187548,0,0,-1.565858,13.9, 0.8, -0.8,0,0,1024,749,1190,1024,0,-42,25,0,124.7,28.1,0.8,64,3.754,3.772,3.77,3.733,0,0,18.24,125.51,1697.0726015504,4.265092,6,P-GPS,
346800,2025-09-03 11:05:23,48.1488175707688,11.5721614823886,4.265092,,,1697.0726015504,4.92126,0,1.40653219724,14.9483928668,8,2,15.013,1697.0726015504,4.265092,2.7290668,3.7384187548,0,0,-1.342164,13.9, 0.8, -3.7,0,0,1024,757,1187,1024,0,-40,25,0,127.1,27.9,-2.9,64,3.754,3.772,3.77,3.733,0,0,18.24,125.51,1697.0726015504,4.265092,6,P-GPS,
346900,2025-09-03 11:05:23,48.1488179249391,11.572161497733,4.593176,,,1697.4006855504,5.249344,0,1.44127629284,15.0776907712,8,2,15.013,1697.4006855504,4.593176,2.7290668,3.7384187548,0,0,-1.342164,13.9, 0.5, -6.2,0,0,1024,804,1187,1024,0,-33,25,0,127,27.5,-3.8,64,3.754,3.772,3.77,3.733,0,0,18.24,125.51,1697.4006855504,4.593176,6,P-GPS,
347000,2025-09-03 11:05:23,48.1488190269365,11.5721611889686,4.92126,,,1697.7287695504,5.249344,0.223694,1.685203466,15.486713094,7,2,15.013,1697.7287695504,4.92126,2.7290668,3.7384187548,0,-0.223694,-1.342164,13.9, 0.4, -6.9,0,0,1024,925,1197,1024,0,-15,26,0,127,27.1,-4.1,64,3.754,3.772,3.77,3.733,0,0,18.24,125.51,1697.7287695504,4.92126,6,P-GPS,
347100,2025-09-03 11:05:23,48.1488195840646,11.5721604732442,4.92126,,,1697.7287695504,5.577428,0.447388,1.94211620388,15.754429638,7,2,15.013,1697.7287695504,4.92126,2.7290668,3.7384187548,0,-0.447388,-1.342164,14, 0.2, -7,0,0,1024,974,1196,1024,0,-8,26,0,126.8,27,-4.1,64,3.754,3.772,3.77,3.733,0,0,18.24,125.51,1697.7287695504,4.92126,6,P-GPS,
347200,2025-09-03 11:05:23,48.1488199239192,11.5721596351064,5.249344,,,1698.0568535504,5.577428,0.671082,2.18058734012,15.9931763648,7,2,14.884,1698.0568535504,5.249344,2.7290668,3.7384187548,0,-0.671082,-1.342164,13.9, 0.1, -6.9,0,0,1024,1021,1201,1024,0,-0,27,0,126.4,26.9,-3.5,64,3.746,3.764,3.758,3.715,0,0,21.034,125.51,1698.0568535504,5.249344,6,P-GPS,
347300,2025-09-03 11:05:23,48.1488198974228,11.5721586070948,5.249344,,,1698.0568535504,5.905512,0.894776,2.38748039136,16.243602882,7,2,14.884,1698.0568535504,5.249344,2.7290668,3.7384187548,0,-0.894776,-1.342164,14, 0.2, -5.5,0,0,1024,1024,1206,1024,0,0,28,0,125.5,26.7,-0.9,64,3.746,3.764,3.758,3.715,0,0,21.034,125.51,1698.0568535504,5.249344,6,P-GPS,
347400,2025-09-03 11:05:23,48.148819232933,11.572155773477,5.577428,,,1698.3849375504,6.233596,1.11847,2.9140913006,16.974738076,9,2,14.884,1698.3849375504,5.577428,2.7290668,3.7384187548,0,-1.11847,-1.342164,14, -0.1, -2.4,0,0,1024,1024,1206,1024,0,0,28,0,125.5,26.7,-0.9,64,3.746,3.764,3.758,3.715,0,0,21.034,125.51,1698.3849375504,5.577428,6,P-GPS,
347500,2025-09-03 11:05:23,48.148819254733,11.5721545253138,5.905512,,,1698.7130215504,6.233596,0.894776,3.20480325216,17.278707902,9,2,14.884,1698.7130215504,5.905512,2.7290668,3.7384187548,0,-0.894776,-1.342164,14, -0.1, 1.8,0,0,1024,1024,1205,1024,0,0,27,0,123.3,26.8,3.4,64,3.746,3.764,3.758,3.715,0,0,21.034,125.51,1698.7130215504,5.905512,6,P-GPS,
347600,2025-09-03 11:05:23,48.148819328223,11.5721534350564,6.233596,,,1699.0411055504,6.56168,0.894776,3.4662730768,17.545440194,7,2,14.884,1699.0411055504,6.233596,2.7290668,3.7384187548,0,-0.894776,-1.342164,14, -0.2, 3.9,0,0,1024,1024,1204,1024,0,0,27,0,121.9,27.1,4.7,64,3.746,3.764,3.758,3.715,0,0,21.034,125.51,1699.0411055504,6.233596,6,P-GPS,
347700,2025-09-03 11:05:23,48.1488195195945,11.5721524913982,6.233596,,,1699.0411055504,6.889764,0.447388,3.706364948,17.7855320652,7,2,14.884,1699.0411055504,6.233596,2.7290668,3.7384187548,0,-0.447388,-1.565858,14.1, 0, 3.5,0,0,1024,1024,1209,1024,0,0,28,0,122.2,27.3,4.2,64,3.746,3.764,3.758,3.715,0,0,21.034,125.51,1699.0411055504,6.233596,6,P-GPS,
347800,2025-09-03 11:05:24,48.1488198141328,11.572151814928,6.56168,,,1699.3691895504,7.217848,0.447388,3.8954069488,17.9821528064,7,2,14.884,1699.3691895504,6.56168,2.7290668,3.8954069488,0,-0.447388,-1.565858,14.1, 0, 2.8,0,0,1024,974,1210,1024,0,-8,28,0,122.7,27.2,3.2,64,3.746,3.764,3.758,3.715,0,0,21.034,125.51,1699.3691895504,6.56168,6,P-GPS,
347900,2025-09-03 11:05:24,48.1488209230462,11.5721518962176,6.889764,,,1699.6972735504,7.217848,0.223694,4.0178150892,18.3872381212,7,2,14.884,1699.6972735504,6.889764,2.7290668,4.0178150892,0,-0.223694,-1.565858,14.2, 0.1, 2.3,0,0,1024,838,1192,1024,0,-28,25,0,122.8,27.3,2.5,64,3.746,3.764,3.758,3.715,0,0,21.034,125.51,1699.6972735504,6.889764,6,P-GPS,
348000,2025-09-03 11:05:24,48.1488213584725,11.5721516991861,6.889764,,,1699.6972735504,7.545932,0,4.1263780848,18.5531830084,8,2,14.884,1699.6972735504,6.889764,2.7290668,4.1263780848,0,0,-1.565858,14.1, 0, 1.2,0,0,1024,813,1196,1024,0,-32,26,0,123.8,27.5,1.4,64,3.746,3.764,3.758,3.715,0,0,21.034,125.51,1699.6972735504,6.889764,6,P-GPS,
348100,2025-09-03 11:05:24,48.1488216854706,11.572151663904,7.217848,,,1700.0253575504,7.874016,0.223694,4.1857612888,18.6728024348,8,2,14.884,1700.0253575504,7.217848,2.7290668,4.1857612888,0.223694,0,-1.565858,14.1, 0.1, -1.3,0,0,1024,824,1199,1024,0,-30,27,0,125.4,27.5,-1.2,64,3.746,3.764,3.758,3.715,0,0,21.034,125.51,1700.0253575504,7.217848,6,P-GPS,
348200,2025-09-03 11:05:24,48.1488221459205,11.5721515892908,7.545932,,,1700.3534415504,7.874016,0.223694,4.2790027616,18.8417656948,7,2,14.93,1700.3534415504,7.545932,2.7290668,4.2790027616,0.223694,0,-1.565858,14.2, 0.7, -4.6,0,0,1024,934,1206,1024,0,-14,28,0,126.7,27.7,-3.5,64,3.742,3.763,3.76,3.718,0,0,18.742,125.51,1700.3534415504,7.545932,6,P-GPS,
