time(millisecond),datetime(utc),latitude,longitude,height_above_takeoff(feet),height_above_ground_at_drone_location(feet),ground_elevation_at_drone_location(feet),altitude_above_seaLevel(feet),height_sonar(feet),speed(mph),distance(feet),mileage(feet),satellites,gpslevel,voltage(v),max_altitude(feet),max_ascent(feet),max_speed(mph),max_distance(feet), xSpeed(mph), ySpeed(mph), zSpeed(mph), compass_heading(degrees), pitch(degrees), roll(degrees),isPhoto,isVideo,rc_elevator,rc_aileron,rc_throttle,rc_rudder,rc_elevator(percent),rc_aileron(percent),rc_throttle(percent),rc_rudder(percent),gimbal_heading(degrees),gimbal_pitch(degrees),gimbal_roll(degrees),battery_percent,voltageCell1,voltageCell2,voltageCell3,voltageCell4,voltageCell5,voltageCell6,current(A),battery_temperature(f),altitude(feet),ascent(feet),flycStateRaw,flycState,message
20700,2025-09-03 07:35:08,48.1488448984917,11.5722485850234,0,Available with any HD 360 subscription,Available with any HD 360 subscription,1693.1034741268,0.328084,0,0,0,9,3,0,1693.1034741268,0,0,0,0,0,0,116.3, 7.7, 3.7,0,0,366,364,364,1684,-100,-100,-100,100,306.5,-9.3,-39.3,99,4.294,4.297,4.297,4.295,0,0,0,80.51,1693.1034741268,0,6,P-GPS,
20800,2025-09-03 07:35:09,48.1488447776229,11.5722487530509,0,,,1693.1034741268,0.328084,0,0.06014763972,0.06014763972,9,3,0,1693.1034741268,0,0,0.06014763972,0,0,0,116.5, 7.7, 3.7,0,0,367,364,364,1684,-100,-100,-100,100,305.6,-10,-39.1,99,4.294,4.297,4.297,4.295,0,0,0,80.51,1693.1034741268,0,41,Motors_Started,
20900,2025-09-03 07:35:09,48.1488445758294,11.5722485846334,0,,,1693.1034741268,0.328084,0,0.11772310088,0.144416671288,9,3,17.065,1693.1034741268,0,0,0.11772310088,0,0,0,116.3, 7.7, 3.7,0,0,368,364,364,1684,-99,-100,-100,100,306.1,-9.5,-38.8,99,4.294,4.297,4.297,4.295,0,0,1.428,80.51,1693.1034741268,0,41,Motors_Started,"Setting new Return-To-Home altitude to 100m (328 ft). Data Recorder File Index is 234. Setting new Maximum Flight Altitude to 150m (492 ft)"
21000,2025-09-03 07:35:09,48.1488443525074,11.5722483796505,0,,,1693.1034741268,0.328084,0,0.205379599748,0.2399606376,9,3,17.065,1693.1034741268,0,0,0.205379599748,0,0,0,116.3, 7.7, 3.7,0,0,369,364,364,1684,-99,-100,-100,100,306,-9.6,-39.1,99,4.294,4.297,4.297,4.295,0,0,1.428,80.51,1693.1034741268,0,41,Motors_Started,
21100,2025-09-03 07:35:09,48.1488441608107,11.5722481784067,0,,,1693.1034741268,0.328084,0,0.286766413376,0.32535106028,9,3,17.065,1693.1034741268,0,0,0.286766413376,0,0,0,116.3, 7.7, 3.7,0,0,430,378,370,1675,-90,-98,-99,99,305.9,-9.7,-39.2,99,4.294,4.297,4.297,4.295,0,0,1.428,80.51,1693.1034741268,0,41,Motors_Started,
21200,2025-09-03 07:35:09,48.1488438499745,11.5722478343661,0,,,1693.1034741268,0.328084,0,0.42395342564,0.46633203592,9,3,17.065,1693.1034741268,0,0,0.42395342564,0,0,0,116.2, 7.7, 3.7,0,0,1024,1024,1024,1024,0,0,0,0,305.8,-9.7,-39.3,99,4.294,4.297,4.297,4.295,0,0,1.428,80.51,1693.1034741268,0,41,Motors_Started,
21300,2025-09-03 07:35:09,48.1488437331438,11.572247648872,0,,,1693.1034741268,0.328084,0,0.48239502856,0.52842521376,9,3,17.065,1693.1034741268,0,0,0.48239502856,0,0,0,116.3, 7.7, 3.6,0,0,1024,1024,1024,1024,0,0,0,0,305.8,-9.7,-39.3,99,4.294,4.297,4.297,4.295,0,0,1.428,80.51,1693.1034741268,0,41,Motors_Started,
21400,2025-09-03 07:35:09,48.1488436222594,11.5722474535487,0,,,1693.1034741268,0.328084,0,0.5409941118,0.59085631812,9,3,17.065,1693.1034741268,0,0,0.5409941118,0,0,0,116.2, 7.7, 3.6,0,0,1024,1024,1024,1024,0,0,0,0,305.7,-9.8,-39.3,99,4.294,4.297,4.297,4.295,0,0,1.428,80.51,1693.1034741268,0,41,Motors_Started,
21500,2025-09-03 07:35:09,48.148843474439,11.572247253352,0,,,1693.1034741268,0.328084,0,0.61239831356,0.66354332832,9,3,17.065,1693.1034741268,0,0,0.61239831356,0,0,0,116.3, 7.7, 3.7,0,0,1024,1024,1024,1024,0,0,0,0,305.6,-9.8,-39.4,99,4.294,4.297,4.297,4.295,0,0,1.428,80.51,1693.1034741268,0,41,Motors_Started,
21600,2025-09-03 07:35:09,48.1488434161831,11.5722470856796,0,,,1693.1034741268,0.328084,0,0.65245408912,0.709563671,9,3,17.065,1693.1034741268,0,0,0.65245408912,0,0,0,116.2, 7.7, 3.7,0,0,1024,1024,1024,1024,0,0,0,0,305.6,-9.8,-39.4,99,4.294,4.297,4.297,4.295,0,0,1.428,80.51,1693.1034741268,0,41,Motors_Started,
21700,2025-09-03 07:35:09,48.1488432517021,11.5722468810374,0,,,1693.1034741268,0.328084,0,0.73010501024,0.78755579948,9,3,17.065,1693.1034741268,0,0,0.73010501024,0,0,0,116.2, 7.8, 3.7,0,0,1024,1024,1024,1024,0,0,0,0,305.5,-9.8,-39.5,99,4.294,4.297,4.297,4.295,0,0,1.428,80.51,1693.1034741268,0,41,Motors_Started,
21800,2025-09-03 07:35:10,48.1488430847687,11.572246670758,0,,,1693.1034741268,0.328084,0,0.80934057708,0.86711288864,9,2,17.065,1693.1034741268,0,0,0.80934057708,0,0,0,116.2, 7.9, 3.7,0,0,1024,1024,1024,1024,0,0,0,0,305.5,-9.8,-39.5,99,4.294,4.297,4.297,4.295,0,0,1.428,80.51,1693.1034741268,0,41,Motors_Started,
21900,2025-09-03 07:35:10,48.1488429160928,11.5722464539674,0,,,1693.1034741268,0.328084,0,0.89007876864,0.94818244504,9,2,16.951,1693.1034741268,0,0,0.89007876864,0,0,0,116.2, 7.8, 3.7,0,0,1024,1024,1024,1024,0,0,0,0,305.5,-9.8,-39.5,99,4.294,4.297,4.297,4.295,0,0,1.434,80.51,1693.1034741268,0,41,Motors_Started,
22000,2025-09-03 07:35:10,48.1488427452585,11.5722462366794,0,,,1693.1034741268,0.328084,0,0.97157483424,1.02993113532,9,2,16.951,1693.1034741268,0,0,0.97157483424,0,0,0,116.2, 7.8, 3.7,0,0,1024,1024,1024,1024,0,0,0,0,305.4,-9.8,-39.5,99,4.294,4.297,4.297,4.295,0,0,1.434,80.51,1693.1034741268,0,41,Motors_Started,
22100,2025-09-03 07:35:10,48.1488425909015,11.5722459975542,0,,,1693.1034741268,0.656168,0,1.05145344572,1.1109252324,9,2,16.951,1693.1034741268,0,0,1.05145344572,0,0,0,116.2, 7.8, 3.7,0,0,1024,1024,1024,1024,0,0,0,0,305.3,-9.9,-39.6,99,4.294,4.297,4.297,4.295,0,0,1.434,80.51,1693.1034741268,0,41,Motors_Started,
22200,2025-09-03 07:35:10,48.1488424191438,11.5722457652338,0,,,1693.1034741268,0.328084,0,1.13553481324,1.19533468392,9,2,16.951,1693.1034741268,0,0,1.13553481324,0,0,0,116.2, 7.9, 3.8,0,0,1024,1024,1024,1024,0,0,0,0,305.3,-9.8,-39.6,99,4.294,4.297,4.297,4.295,0,0,1.434,80.51,1693.1034741268,0,41,Motors_Started,
22300,2025-09-03 07:35:10,48.1488422448596,11.5722455263349,0,,,1693.1034741268,0.328084,0,1.22137143016,1.28150594652,9,2,16.951,1693.1034741268,0,0,1.22137143016,0,0,0,116.2, 7.8, 3.7,0,0,1024,1024,1024,1024,0,0,0,0,305.2,-9.9,-39.7,99,4.294,4.297,4.297,4.295,0,0,1.434,80.51,1693.1034741268,0,10,Assisted_Takeoff,
22400,2025-09-03 07:35:10,48.148842067864,11.5722452898136,0,,,1693.1034741268,0.328084,0,1.30767392636,1.36802169732,9,2,16.951,1693.1034741268,0,0,1.30767392636,0,0,0,116.2, 7.8, 3.8,0,0,1024,1024,1024,1024,0,0,0,0,305.1,-10,-39.6,99,4.294,4.297,4.297,4.295,0,0,1.434,80.51,1693.1034741268,0,10,Assisted_Takeoff,
22500,2025-09-03 07:35:10,48.1488418916965,11.572245030656,0,,,1693.1034741268,0.328084,0,1.39717196072,1.45808403616,9,2,16.951,1693.1034741268,0,0,1.39717196072,0,0,0,116.2, 7.8, 3.8,0,0,1024,1024,1024,1024,0,0,0,0,305,-10.1,-39.6,99,4.294,4.297,4.297,4.295,0,0,1.434,80.51,1693.1034741268,0,10,Assisted_Takeoff,
22600,2025-09-03 07:35:10,48.1488417106526,11.5722447757891,0,,,1693.1034741268,0.328084,0,1.48747708172,1.5487041178,9,2,16.951,1693.1034741268,0,0,1.48747708172,0,0,0,116.2, 7.8, 3.8,0,0,1024,1024,1024,1024,0,0,0,0,304.9,-10.1,-39.7,99,4.294,4.297,4.297,4.295,0,0,1.434,80.51,1693.1034741268,0,10,Assisted_Takeoff,
22700,2025-09-03 07:35:10,48.148841527552,11.5722445149423,-0.328084,,,1692.7753901268,0.328084,0,1.579314355,1.64087275592,9,2,16.951,1693.1034741268,0,0,1.579314355,0,0,0,116.1, 7.8, 3.7,0,0,1024,1024,1024,1024,0,0,0,0,304.9,-10.1,-39.7,99,4.294,4.297,4.297,4.295,0,0,1.434,80.51,1692.7753901268,-0.328084,10,Assisted_Takeoff,
22800,2025-09-03 07:35:10,48.1488413423027,11.5722442500993,0,,,1693.1034741268,0.328084,0,1.67241147084,1.73427827072,9,2,16.951,1693.1034741268,0,0,1.67241147084,0,0,0,116.1, 7.8, 3.7,0,0,1024,1024,1024,1024,0,0,0,0,304.8,-10.2,-39.7,99,4.294,4.297,4.297,4.295,0,0,1.434,80.51,1693.1034741268,0,10,Assisted_Takeoff,
22900,2025-09-03 07:35:11,48.148841165816,11.5722439943545,0,,,1693.1034741268,0.328084,0,1.7616634422,1.82384192188,9,2,16.994,1693.1034741268,0,0,1.7616634422,0,0,0,116.1, 7.8, 3.7,0,0,1024,1024,1024,1024,0,0,0,0,304.7,-10.2,-39.7,99,4.271,4.276,4.272,4.262,0,0,4.7,80.51,1693.1034741268,0,10,Assisted_Takeoff,
23000,2025-09-03 07:35:11,48.1488409782624,11.5722437212695,0,,,1693.1034741268,0.328084,0,1.85674874708,1.91924546824,9,2,16.994,1693.1034741268,0,0,1.85674874708,0,0,0,116.1, 7.8, 3.7,0,0,1024,1024,1024,1024,0,0,0,0,304.6,-10.3,-39.8,99,4.271,4.276,4.272,4.262,0,0,4.7,80.51,1693.1034741268,0,10,Assisted_Takeoff,
23100,2025-09-03 07:35:11,48.1488407882946,11.572243441964,0,,,1693.1034741268,0.328084,0,1.9535105612,2.01633536636,9,2,16.994,1693.1034741268,0,0,1.9535105612,0,0,0,116.1, 7.8, 3.8,0,0,1024,1024,1024,1024,0,0,0,0,304.5,-10.3,-39.8,99,4.271,4.276,4.272,4.262,0,0,4.7,80.51,1693.1034741268,0,10,Assisted_Takeoff,
23200,2025-09-03 07:35:11,48.148840595692,11.5722431553296,0,,,1693.1034741268,0.328084,0,2.05218838588,2.11536096008,9,2,16.994,1693.1034741268,0,0,2.05218838588,0,0,0,116.1, 7.8, 3.8,0,0,1024,1024,1024,1024,0,0,0,0,304.4,-10.4,-39.8,99,4.271,4.276,4.272,4.262,0,0,4.7,80.51,1693.1034741268,0,10,Assisted_Takeoff,
23300,2025-09-03 07:35:11,48.1488403983059,11.5722428721353,0,,,1693.1034741268,0.328084,0,2.1516897014,2.21505584516,9,2,16.994,1693.1034741268,0,0,2.1516897014,0,0,0,116.1, 7.7, 3.7,0,0,1024,1024,1024,1024,0,0,0,0,304.4,-10.4,-39.8,99,4.271,4.276,4.272,4.262,0,0,4.7,80.51,1693.1034741268,0,10,Assisted_Takeoff,
23400,2025-09-03 07:35:11,48.1488402022005,11.5722425796566,0,,,1693.1034741268,0.328084,0,2.25231634504,2.31599088776,9,2,16.994,1693.1034741268,0,0,2.25231634504,0,0,0,116.1, 7.7, 3.7,0,0,1024,1024,1024,1024,0,0,0,0,304.3,-10.4,-39.8,99,4.271,4.276,4.272,4.262,0,0,4.7,80.51,1693.1034741268,0,10,Assisted_Takeoff,
23500,2025-09-03 07:35:11,48.148840004255,11.5722422823914,0,,,1693.1034741268,0.328084,0,2.35423892048,2.41822842384,9,2,16.994,1693.1034741268,0,0,2.35423892048,0,0,0,116.1, 7.8, 3.7,0,0,1024,1024,1024,1024,0,0,0,0,304.2,-10.5,-39.9,99,4.271,4.276,4.272,4.262,0,0,4.7,80.51,1693.1034741268,0,10,Assisted_Takeoff,
23600,2025-09-03 07:35:11,48.1488398045345,11.5722419798162,0,,,1693.1034741268,0.328084,0,2.45752304452,2.52183735104,9,2,16.994,1693.1034741268,0,0,2.45752304452,0,0,0,116.1, 7.8, 3.7,0,0,1024,1024,1024,1024,0,0,0,0,304.1,-10.5,-39.9,99,4.271,4.276,4.272,4.262,0,0,4.7,80.51,1693.1034741268,0,10,Assisted_Takeoff,
23700,2025-09-03 07:35:11,48.1488396027988,11.5722416711818,0,,,1693.1034741268,0.328084,0,2.56235572504,2.62701123892,9,2,16.994,1693.1034741268,0,0,2.56235572504,0,0,0,116.1, 7.8, 3.7,0,0,1024,1024,1024,1024,0,0,0,0,304,-10.6,-39.9,99,4.271,4.276,4.272,4.262,0,0,4.7,80.51,1693.1034741268,0,10,Assisted_Takeoff,
23800,2025-09-03 07:35:11,48.148839402339,11.5722413352415,0,,,1693.1034741268,0.328084,0,2.67125336632,2.73672252852,9,2,16.994,1693.1034741268,0,0,2.67125336632,0,0,0,116.1, 7.8, 3.7,0,0,1024,1024,1024,1024,0,0,0,0,304,-10.6,-39.9,99,4.271,4.276,4.272,4.262,0,0,4.7,80.51,1693.1034741268,0,10,Assisted_Takeoff,
23900,2025-09-03 07:35:12,48.1488391975116,11.5722410117706,0,,,1693.1034741268,0.328084,0,2.77938985272,2.84528224328,9,2,17.054,1693.1034741268,0,0,2.77938985272,0,0,0,116.1, 7.8, 3.7,0,0,1024,1024,1024,1024,0,0,0,0,303.9,-10.7,-39.9,99,4.281,4.285,4.284,4.282,0,0,1.954,80.51,1693.1034741268,0,10,Assisted_Takeoff,
24000,2025-09-03 07:35:12,48.1488389904737,11.5722406823863,0,,,1693.1034741268,0.328084,0,2.88912082736,2.95543972712,9,2,17.054,1693.1034741268,0,0,2.88912082736,0,0,0,116.1, 7.8, 3.7,0,0,1024,1024,1024,1024,0,0,0,0,303.8,-10.7,-40,99,4.281,4.285,4.284,4.282,0,0,1.954,80.51,1693.1034741268,0,10,Assisted_Takeoff,
24100,2025-09-03 07:35:12,48.1488387810184,11.572240346085,0,,,1693.1034741268,0.328084,0,3.00066282568,3.06743120052,9,2,17.054,1693.1034741268,0,0,3.00066282568,0,0,0,116.1, 7.8, 3.7,0,0,1024,1024,1024,1024,0,0,0,0,303.7,-10.8,-40,99,4.281,4.285,4.284,4.282,0,0,1.954,80.51,1693.1034741268,0,10,Assisted_Takeoff,
24200,2025-09-03 07:35:12,48.1488385729374,11.5722400109953,0,,,1693.1034741268,0.328084,0,3.11166676624,3.17886165028,9,2,17.054,1693.1034741268,0,0,3.11166676624,0,0,0,116.1, 7.8, 3.7,0,0,1024,1024,1024,1024,0,0,0,0,303.6,-10.8,-40,99,4.281,4.285,4.284,4.282,0,0,1.954,80.51,1693.1034741268,0,10,Assisted_Takeoff,
24300,2025-09-03 07:35:12,48.1488383607617,11.5722396648639,0,,,1693.1034741268,0.328084,0,3.22561690112,3.2932743836,9,2,17.054,1693.1034741268,0,0,3.22561690112,0,0,0,116.1, 7.8, 3.8,0,0,1024,1024,1024,1024,0,0,0,0,303.5,-10.9,-40,99,4.281,4.285,4.284,4.282,0,0,1.954,80.51,1693.1034741268,0,10,Assisted_Takeoff,
24400,2025-09-03 07:35:12,48.148838146198,11.5722393120657,0,,,1693.1034741268,0.328084,0,3.3413386896,3.4094817364,9,2,17.054,1693.1034741268,0,0,3.3413386896,0,0,0,116.1, 7.8, 3.8,0,0,1024,1024,1024,1024,0,0,0,0,303.5,-10.9,-40,99,4.281,4.285,4.284,4.282,0,0,1.954,80.51,1693.1034741268,0,10,Assisted_Takeoff,
24500,2025-09-03 07:35:12,48.1488379292151,11.5722389530292,0,,,1693.1034741268,0.328084,0,3.4587599532,3.5274279344,9,2,17.054,1693.1034741268,0,0,3.4587599532,0,0,0,116, 7.8, 3.8,0,0,1024,1024,1024,1024,0,0,0,0,303.3,-11,-40.1,99,4.281,4.285,4.284,4.282,0,0,1.954,80.51,1693.1034741268,0,10,Assisted_Takeoff,
24600,2025-09-03 07:35:12,48.1488377015937,11.5722385651189,0,,,1693.1034741268,0.328084,0,3.5838583824,3.6531497232,9,2,17.054,1693.1034741268,0,0,3.5838583824,0,0,0,116, 7.8, 3.8,0,0,1024,1024,1024,1024,0,0,0,0,303.2,-11,-40.1,99,4.281,4.285,4.284,4.282,0,0,1.954,80.51,1693.1034741268,0,10,Assisted_Takeoff,
24700,2025-09-03 07:35:12,48.1488374787851,11.572238188475,0,,,1693.1034741268,0.328084,0,3.7058400136,3.7756890972,9,2,17.054,1693.1034741268,0,0,3.7058400136,0,0,0,116, 7.8, 3.8,0,0,1024,1024,1024,1024,0,0,0,0,303.2,-11,-40.1,99,4.281,4.285,4.284,4.282,0,0,1.954,80.51,1693.1034741268,0,10,Assisted_Takeoff,
24800,2025-09-03 07:35:13,48.1488372528336,11.5722378048033,0,,,1693.1034741268,0.328084,0,3.8298557656,3.900262592,9,2,17.054,1693.1034741268,0,0,3.8298557656,0,0,0,116, 7.8, 3.8,0,0,1024,1024,1024,1024,0,0,0,0,303.2,-11.1,-40.1,99,4.281,4.285,4.284,4.282,0,0,1.954,80.51,1693.1034741268,0,10,Assisted_Takeoff,
24900,2025-09-03 07:35:13,48.1488370241105,11.5722374154245,0,,,1693.1034741268,0.328084,0,3.9556103628,4.0265421236,9,2,17.073,1693.1034741268,0,0,3.9556103628,0,0,0,116.1, 7.8, 3.7,0,0,1024,1024,1024,1024,0,0,0,0,303.1,-11.1,-40.1,99,4.281,4.285,4.284,4.282,0,0,1.954,80.51,1693.1034741268,0,10,Assisted_Takeoff,
25000,2025-09-03 07:35:13,48.1488367967048,11.5722370390679,0,,,1693.1034741268,0.328084,0,4.0788387132,4.1501641748,9,2,17.073,1693.1034741268,0,0,4.0788387132,0,0,0,116.1, 7.8, 3.7,0,0,1024,1024,1024,1024,0,0,0,0,303,-11.2,-40.2,99,4.281,4.285,4.284,4.282,0,0,1.954,80.51,1693.1034741268,0,10,Assisted_Takeoff,
25100,2025-09-03 07:35:13,48.1488365671992,11.5722366403855,0,,,1693.1034741268,0.328084,0,4.2064305808,4.2783465936,9,2,17.073,1693.1034741268,0,0,4.2064305808,0,0,0,116.1, 7.9, 3.8,0,0,1024,1024,1024,1024,0,0,0,0,302.9,-11.2,-40.2,99,4.281,4.285,4.284,4.282,0,0,1.954,80.51,1693.1034741268,0,10,Assisted_Takeoff,
25200,2025-09-03 07:35:13,48.1488363354309,11.5722362338037,0,,,1693.1034741268,0.328084,0,4.335958144,4.4085303248,9,2,17.073,1693.1034741268,0,0,4.335958144,0,0,0,116.1, 7.8, 3.8,0,0,1024,1024,1024,1024,0,0,0,0,302.8,-11.2,-40.2,99,4.281,4.285,4.284,4.282,0,0,1.954,80.51,1693.1034741268,0,10,Assisted_Takeoff,
25300,2025-09-03 07:35:13,48.1488361019984,11.5722358197993,0,,,1693.1034741268,0.328084,0,4.4672245524,4.5404529012,9,2,17.073,1693.1034741268,0,0,4.4672245524,0,0,0,116.1, 7.8, 3.8,0,0,1024,1024,1024,1024,0,0,0,0,302.7,-11.3,-40.2,99,4.281,4.285,4.284,4.282,0,0,1.954,80.51,1693.1034741268,0,10,Assisted_Takeoff,
25400,2025-09-03 07:35:13,48.1488358661003,11.5722353999658,0,,,1693.1034741268,0.328084,0,4.6001641892,4.6740815144,9,2,17.073,1693.1034741268,0,0,4.6001641892,0,0,0,116.1, 7.8, 3.7,0,0,1024,1024,1024,1024,0,0,0,0,302.6,-11.4,-40.2,99,4.281,4.285,4.284,4.282,0,0,1.954,80.51,1693.1034741268,0,10,Assisted_Takeoff,
25500,2025-09-03 07:35:13,48.1488356143201,11.5722349660348,0,,,1693.1034741268,0.328084,0,4.7396983144,4.8140749572,9,2,17.073,1693.1034741268,0,0,4.7396983144,0,0,0,116.1, 7.8, 3.7,0,0,1024,1024,1024,1024,0,0,0,0,302.5,-11.4,-40.3,99,4.281,4.285,4.284,4.282,0,0,1.954,80.51,1693.1034741268,0,10,Assisted_Takeoff,
25600,2025-09-03 07:35:13,48.1488353729212,11.5722345343668,0,,,1693.1034741268,0.328084,0,4.87614845,4.9511812608,9,2,17.073,1693.1034741268,0,0,4.87614845,0,0,0,116.1, 7.8, 3.7,0,0,1024,1024,1024,1024,0,0,0,0,302.5,-11.4,-40.3,99,4.281,4.285,4.284,4.282,0,0,1.954,80.51,1693.1034741268,0,10,Assisted_Takeoff,
25700,2025-09-03 07:35:13,48.1488351294314,11.5722340958924,0,,,1693.1034741268,0.328084,0,5.0143702392,5.0900264096,9,2,17.073,1693.1034741268,0,0,5.0143702392,0,0,0,116, 7.8, 3.8,0,0,1024,1024,1024,1024,0,0,0,0,302.4,-11.5,-40.3,99,4.281,4.285,4.284,4.282,0,0,1.954,80.51,1693.1034741268,0,10,Assisted_Takeoff,
25800,2025-09-03 07:35:13,48.1488348831178,11.5722336507255,0,,,1693.1034741268,0.328084,0,5.1544949156,5.230807254,9,2,17.073,1693.1034741268,0,0,5.1544949156,0,0,0,116, 7.8, 3.8,0,0,1024,1024,1024,1024,0,0,0,0,302.3,-11.6,-40.3,99,4.281,4.285,4.284,4.282,0,0,1.954,80.51,1693.1034741268,0,10,Assisted_Takeoff,
25900,2025-09-03 07:35:14,48.1488346431812,11.5722332166292,0,,,1693.1034741268,0.328084,0,5.2910762848,5.3680447912,9,2,17.075,1693.1034741268,0,0,5.2910762848,0,0,0,116, 7.8, 3.8,0,0,1024,1024,1024,1024,0,0,0,0,302.2,-11.6,-40.3,99,4.282,4.287,4.286,4.283,0,0,2.016,80.51,1693.1034741268,0,10,Assisted_Takeoff,
26000,2025-09-03 07:35:14,48.1488343937443,11.5722327603259,0,,,1693.1034741268,0.328084,0,5.4339896752,5.511647158,9,2,17.075,1693.1034741268,0,0,5.4339896752,0,0,0,116, 7.8, 3.8,0,0,1024,1024,1024,1024,0,0,0,0,302.1,-11.6,-40.4,99,4.282,4.287,4.286,4.283,0,0,2.016,80.51,1693.1034741268,0,10,Assisted_Takeoff,
26100,2025-09-03 07:35:14,48.1488341420129,11.5722322970461,0,,,1693.1034741268,0.328084,0,5.578740336,5.6570867952,9,2,17.075,1693.1034741268,0,0,5.578740336,0,0,0,116, 7.8, 3.7,0,0,1024,1024,1024,1024,0,0,0,0,302.1,-11.6,-40.4,99,4.282,4.287,4.286,4.283,0,0,2.016,80.51,1693.1034741268,0,10,Assisted_Takeoff,
26200,2025-09-03 07:35:14,48.1488338880799,11.5722318270882,0,,,1693.1034741268,0.328084,0,5.725229842,5.804298086,9,2,17.075,1693.1034741268,0,0,5.725229842,0,0,0,116, 7.8, 3.7,0,0,1024,1024,1024,1024,0,0,0,0,302,-11.7,-40.4,99,4.282,4.287,4.286,4.283,0,0,2.016,80.51,1693.1034741268,0,10,Assisted_Takeoff,
26300,2025-09-03 07:35:14,48.1488336401623,11.5722313638052,0,,,1693.1034741268,0.328084,0,5.869094676,5.9488518964,9,2,17.075,1693.1034741268,0,0,5.869094676,0,0,0,116, 7.8, 3.7,0,0,1024,1024,1024,1024,0,0,0,0,301.9,-11.7,-40.4,99,4.282,4.287,4.286,4.283,0,0,2.016,80.51,1693.1034741268,0,10,Assisted_Takeoff,
26400,2025-09-03 07:35:14,48.1488333844185,11.5722308842821,0,,,1693.1034741268,0.328084,0,6.0177823448,6.0982941584,9,2,17.075,1693.1034741268,0,0,6.0177823448,0,0,0,116, 7.8, 3.7,0,0,1024,1024,1024,1024,0,0,0,0,301.8,-11.8,-40.4,99,4.282,4.287,4.286,4.283,0,0,2.016,80.51,1693.1034741268,0,10,Assisted_Takeoff,
26500,2025-09-03 07:35:14,48.1488331265934,11.572230397553,0,,,1693.1034741268,0.328084,0,6.168307284,6.2495736908,9,2,17.075,1693.1034741268,0,0,6.168307284,0,0,0,116, 7.8, 3.7,0,0,1024,1024,1024,1024,0,0,0,0,301.8,-11.8,-40.4,99,4.282,4.287,4.286,4.283,0,0,2.016,80.51,1693.1034741268,0,10,Assisted_Takeoff,
26600,2025-09-03 07:35:14,48.148832866925,11.5722299052902,0,,,1693.1034741268,0.328084,0,6.3203086012,6.4023296012,9,2,17.075,1693.1034741268,0,0,6.3203086012,0,0,0,116, 7.8, 3.7,0,0,1024,1024,1024,1024,0,0,0,0,301.6,-11.9,-40.5,99,4.282,4.287,4.286,4.283,0,0,2.016,80.51,1693.1034741268,0,10,Assisted_Takeoff,
26700,2025-09-03 07:35:14,48.1488326107675,11.5722294149211,-0.328084,,,1692.7753901268,0.328084,0,6.4710960076,6.5539372176,9,2,17.075,1693.1034741268,0,0,6.4710960076,0,0,0,116, 7.8, 3.7,0,0,1024,1024,1024,1024,0,0,0,0,301.5,-12,-40.5,99,4.282,4.287,4.286,4.283,0,0,2.016,80.51,1692.7753901268,-0.328084,10,Assisted_Takeoff,
26800,2025-09-03 07:35:14,48.1488323487232,11.5722289141266,0,,,1693.1034741268,0.328084,0,6.6252626792,6.7088584824,10,2,17.075,1693.1034741268,0,0,6.6252626792,0,0,0,116, 7.8, 3.7,0,0,1024,1024,1024,1024,0,0,0,0,301.4,-12,-40.5,99,4.282,4.287,4.286,4.283,0,0,2.016,80.51,1693.1034741268,0,10,Assisted_Takeoff,
26900,2025-09-03 07:35:15,48.1488320844805,11.5722284075192,0,,,1693.1034741268,0.328084,0,6.7810369624,6.8654201672,10,2,17.075,1693.1034741268,0,0,6.7810369624,0,0,0,116, 7.8, 3.7,0,0,1024,1024,1024,1024,0,0,0,0,301.4,-12,-40.5,99,4.282,4.287,4.286,4.283,0,0,2.016,80.51,1693.1034741268,0,10,Assisted_Takeoff,
27000,2025-09-03 07:35:15,48.1488318177837,11.5722278929626,0,,,1693.1034741268,0.328084,0,6.9388781748,7.0240159728,10,2,17.075,1693.1034741268,0,0,6.9388781748,0,0,0,116, 7.8, 3.8,0,0,1024,1024,1024,1024,0,0,0,0,301.3,-12.1,-40.5,99,4.282,4.287,4.286,4.283,0,0,2.016,80.51,1693.1034741268,0,10,Assisted_Takeoff,
27100,2025-09-03 07:35:15,48.1488315487094,11.5722273724808,0,,,1693.1034741268,0.328084,0,7.0983926156,7.1842850068,10,2,17.075,1693.1034741268,0,0,7.0983926156,0,0,0,116, 7.8, 3.7,0,0,1024,1024,1024,1024,0,0,0,0,301.2,-12.2,-40.6,99,4.282,4.287,4.286,4.283,0,0,2.016,80.51,1693.1034741268,0,10,Assisted_Takeoff,
27200,2025-09-03 07:35:15,48.1488312769204,11.5722268310662,-0.328084,,,1692.7753901268,0.328084,0,7.2623361904,7.349245642,10,2,17.075,1693.1034741268,0,0,7.2623361904,0,0,0,116, 7.8, 3.7,0,0,1024,1024,1024,1024,0,0,0,0,301.1,-12.2,-40.6,99,4.282,4.287,4.286,4.283,0,0,2.016,80.51,1692.7753901268,-0.328084,10,Assisted_Takeoff,
27300,2025-09-03 07:35:15,48.1488310042863,11.5722262963857,0,,,1693.1034741268,0.328084,0,7.4253283216,7.5130579832,10,2,17.075,1693.1034741268,0,0,7.4253283216,0,0,0,116.1, 7.8, 3.7,0,0,1024,1024,1024,1024,0,0,0,0,301,-12.2,-40.6,99,4.282,4.287,4.286,4.283,0,0,2.016,80.51,1693.1034741268,0,10,Assisted_Takeoff,
27400,2025-09-03 07:35:15,48.1488307296672,11.5722257566113,0,,,1693.1034741268,0.328084,0,7.5897640224,7.6782810856,10,2,17.075,1693.1034741268,0,0,7.5897640224,0,0,0,116.1, 7.8, 3.7,0,0,1024,1024,1024,1024,0,0,0,0,301,-12.2,-40.6,99,4.282,4.287,4.286,4.283,0,0,2.016,80.51,1693.1034741268,0,10,Assisted_Takeoff,
27500,2025-09-03 07:35:15,48.1488304532111,11.5722252104814,0,,,1693.1034741268,0.328084,0,7.7558073348,7.845144608,10,2,17.075,1693.1034741268,0,0,7.7558073348,0,0,0,116, 7.8, 3.7,0,0,1024,1024,1024,1024,0,0,0,0,300.9,-12.3,-40.6,99,4.282,4.287,4.286,4.283,0,0,2.016,80.51,1693.1034741268,0,10,Assisted_Takeoff,
27600,2025-09-03 07:35:15,48.1488301743694,11.5722246697569,-0.328084,,,1692.7753901268,0.328084,0,7.9215225632,8.0115160044,10,2,17.075,1693.1034741268,0,0,7.9215225632,0,0,0,116, 7.8, 3.7,0,0,1024,1024,1024,1024,0,0,0,0,300.8,-12.4,-40.6,99,4.282,4.287,4.286,4.283,0,0,2.016,80.51,1692.7753901268,-0.328084,10,Assisted_Takeoff,
27700,2025-09-03 07:35:15,48.1488298928782,11.5722241134231,-0.328084,,,1692.7753901268,0.328084,0,8.090715482,8.1814963248,10,2,17.075,1693.1034741268,0,0,8.090715482,0,0,0,116, 7.8, 3.8,0,0,1024,1024,1024,1024,0,0,0,0,300.7,-12.4,-40.7,99,4.282,4.287,4.286,4.283,0,0,2.016,80.51,1692.7753901268,-0.328084,10,Assisted_Takeoff,
27800,2025-09-03 07:35:15,48.1488296090665,11.5722235506247,-0.328084,,,1692.7753901268,0.328084,0,8.2616800544,8.3532154904,10,2,17.075,1693.1034741268,0,0,8.2616800544,0,0,0,116, 7.8, 3.8,0,0,1024,1024,1024,1024,0,0,0,0,300.6,-12.5,-40.7,99,4.282,4.287,4.286,4.283,0,0,2.016,80.51,1692.7753901268,-0.328084,10,Assisted_Takeoff,
27900,2025-09-03 07:35:16,48.1488293222877,11.5722229820294,-0.328084,,,1692.7753901268,0.328084,0,8.4344162804,8.5267063096,10,2,17.073,1693.1034741268,0,0,8.4344162804,0,0,0,116, 7.8, 3.8,0,0,1024,1024,1024,1024,0,0,0,0,300.5,-12.5,-40.7,99,4.282,4.287,4.286,4.283,0,0,2.022,80.51,1692.7753901268,-0.328084,10,Assisted_Takeoff,
28000,2025-09-03 07:35:16,48.1488290265395,11.5722224123203,-0.328084,,,1692.7753901268,0.328084,0,8.6096131364,8.7024281,10,2,17.073,1693.1034741268,0,0,8.6096131364,0,0,0,116, 7.8, 3.7,0,0,1024,1024,1024,1024,0,0,0,0,300.4,-12.6,-40.7,99,4.282,4.287,4.286,4.283,0,0,2.022,80.51,1692.7753901268,-0.328084,10,Assisted_Takeoff,
28100,2025-09-03 07:35:16,48.1488287340367,11.5722218320445,-0.328084,,,1692.7753901268,0.328084,0,8.7859582864,8.8794622264,10,2,17.073,1693.1034741268,0,0,8.7859582864,0,0,0,116, 7.8, 3.7,0,0,1024,1024,1024,1024,0,0,0,0,300.3,-12.6,-40.7,99,4.282,4.287,4.286,4.283,0,0,2.022,80.51,1692.7753901268,-0.328084,10,Assisted_Takeoff,
28200,2025-09-03 07:35:16,48.1488284394626,11.5722212446173,-0.328084,,,1692.7753901268,0.328084,0,8.9641078984,9.0583664316,10,2,17.073,1693.1034741268,0,0,8.9641078984,0,0,0,116, 7.8, 3.7,0,0,1024,1024,1024,1024,0,0,0,0,300.3,-12.7,-40.8,99,4.282,4.287,4.286,4.283,0,0,2.022,80.51,1692.7753901268,-0.328084,10,Assisted_Takeoff,
28300,2025-09-03 07:35:16,48.1488281430679,11.5722206510529,-0.328084,,,1692.7753901268,0.328084,0,9.1438323136,9.23884544,10,2,17.073,1693.1034741268,0,0,9.1438323136,0,0,0,116, 7.8, 3.7,0,0,1024,1024,1025,1024,0,0,0,0,300.2,-12.7,-40.8,99,4.282,4.287,4.286,4.283,0,0,2.022,80.51,1692.7753901268,-0.328084,10,Assisted_Takeoff,
28400,2025-09-03 07:35:16,48.1488278447418,11.572220024084,-0.328084,,,1692.7753901268,0.328084,0,9.3301184088,9.4262798292,10,2,17.073,1693.1034741268,0,0,9.3301184088,0,0,0,116, 7.8, 3.7,0,0,1024,1024,1059,1024,0,0,5,0,300.1,-12.8,-40.8,99,4.282,4.287,4.286,4.283,0,0,2.022,80.51,1692.7753901268,-0.328084,10,Assisted_Takeoff,
28500,2025-09-03 07:35:16,48.1488275625472,11.5722194486518,-0.328084,,,1692.7753901268,0.328084,0,9.5031827188,9.6001315408,10,2,17.073,1693.1034741268,0,0,9.5031827188,0,0,0,116.1, 7.8, 3.7,0,0,1024,1024,1121,1024,0,0,15,0,300,-12.8,-40.8,99,4.282,4.287,4.286,4.283,0,0,2.022,80.51,1692.7753901268,-0.328084,10,Assisted_Takeoff,
28600,2025-09-03 07:35:16,48.148827262946,11.5722188363356,-0.328084,,,1692.7753901268,0.328084,0,9.687172226,9.7849740664,10,2,17.073,1693.1034741268,0,0,9.687172226,0,0,0,116.1, 7.8, 3.7,0,0,1024,1024,1135,1024,0,0,17,0,299.9,-13,-40.8,99,4.282,4.287,4.286,4.283,0,0,2.022,80.51,1692.7753901268,-0.328084,10,Assisted_Takeoff,
28700,2025-09-03 07:35:16,48.1488269612442,11.5722182187137,-0.328084,,,1692.7753901268,0.328084,0,9.872703728,9.97129297,10,2,17.073,1693.1034741268,0,0,9.872703728,0,0,0,116, 7.7, 3.7,0,0,1024,1024,1139,1024,0,0,17,0,299.9,-13,-40.9,99,4.282,4.287,4.286,4.283,0,0,2.022,80.51,1692.7753901268,-0.328084,10,Assisted_Takeoff,
28800,2025-09-03 07:35:17,48.1488266571372,11.5722175978082,-0.328084,,,1692.7753901268,0.328084,0,10.0594491408,10.158792976,10,2,17.073,1693.1034741268,0,0,10.0594491408,0,0,0,116, 7.6, 3.7,0,0,1024,1024,1148,1024,0,0,19,0,299.8,-13.1,-40.9,99,4.282,4.287,4.286,4.283,0,0,2.022,80.51,1692.7753901268,-0.328084,10,Assisted_Takeoff,
28900,2025-09-03 07:35:17,48.148826339558,11.572216965251,-0.328084,,,1692.7753901268,0.656168,0,10.2515751312,10.3515095176,10,2,17.009,1693.1034741268,0,0,10.2515751312,0,0,0,116, 7.6, 3.6,0,0,1024,1024,1159,1024,0,0,20,0,299.8,-13.1,-40.9,99,4.282,4.287,4.286,4.283,0,0,2.022,80.51,1692.7753901268,-0.328084,10,Assisted_Takeoff,
29000,2025-09-03 07:35:17,48.1488260300918,11.5722163267107,-0.328084,,,1692.7753901268,0.656168,0,10.4428809116,10.543635508,10,2,17.009,1693.1034741268,0,0,10.4428809116,0,0,0,116, 7.7, 3.6,0,0,1024,1024,1157,1024,0,0,20,0,299.8,-13.1,-40.9,99,4.282,4.287,4.286,4.283,0,0,2.022,80.51,1692.7753901268,-0.328084,10,Assisted_Takeoff,
29100,2025-09-03 07:35:17,48.1488334058472,11.5722290138298,-0.328084,,,1692.7753901268,0.656168,0,6.3465881296,14.6399610984,10,2,17.009,1693.1034741268,0,0,10.4428809116,0,0,0,116, 7.6, 3.6,0,0,1024,1024,1155,1024,0,0,20,0,299.5,-13.3,-41,99,4.282,4.287,4.286,4.283,0,0,2.022,80.51,1692.7753901268,-0.328084,10,Assisted_Takeoff,
29200,2025-09-03 07:35:17,48.1488433214931,11.5722460928895,-0.328084,,,1692.7753901268,0.656168,0,0.8361056698,20.151083322,10,2,17.009,1693.1034741268,0,0,10.4428809116,0,0,0,116, 7.8, 3.6,0,0,1024,1024,1162,1024,0,0,21,0,299.8,-12.9,-41,99,4.282,4.287,4.286,4.283,0,0,2.022,80.51,1692.7753901268,-0.328084,10,Assisted_Takeoff,
29300,2025-09-03 07:35:17,48.1488484087526,11.5722546669042,-0.328084,,,1692.7753901268,0.656168,0,1.95757224112,22.9441608392,10,2,17.009,1693.1034741268,0,0,10.4428809116,0,0,0,116, 7.9, 3.7,0,0,1024,1024,1163,1024,0,0,21,0,299.2,-13,-40.8,99,4.282,4.287,4.286,4.283,0,0,2.022,80.51,1692.7753901268,-0.328084,10,Assisted_Takeoff,
29400,2025-09-03 07:35:17,48.1488488294568,11.5722552254836,-0.328084,,,1692.7753901268,0.656168,0,2.16100072532,23.1492133392,10,2,17.009,1693.1034741268,0,0,10.4428809116,0,0,0,116, 8.3, 3.8,0,0,1024,1024,1162,1024,0,0,21,0,299.5,-11.9,-41,99,4.282,4.287,4.286,4.283,0,0,2.022,80.51,1692.7753901268,-0.328084,10,Assisted_Takeoff,
29500,2025-09-03 07:35:17,48.1488492398314,11.5722556711604,-0.328084,,,1692.7753901268,0.656168,0,2.341863592,23.3341214816,10,2,17.009,1693.1034741268,0,0,10.4428809116,0,0,0,116.1, 9, 3.9,0,0,1024,1024,1160,1024,0,0,21,0,298.6,-11.7,-40.8,99,4.282,4.287,4.286,4.283,0,0,2.022,80.51,1692.7753901268,-0.328084,10,Assisted_Takeoff,
29600,2025-09-03 07:35:17,48.1488496763675,11.5722560710757,-0.328084,,,1692.7753901268,0.656168,0.223694,2.521817666,23.5207684692,10,2,17.009,1693.1034741268,0,0.223694,10.4428809116,0,-0.223694,0,116.2, 9.8, 4,0,0,1024,1024,1156,1024,0,0,20,0,298.6,-10.7,-40.5,99,4.282,4.287,4.286,4.283,0,0,2.022,80.51,1692.7753901268,-0.328084,10,Assisted_Takeoff,
29700,2025-09-03 07:35:17,48.1488504108643,11.5722564448462,-0.328084,,,1692.7753901268,0.656168,0.447388,2.7758859156,23.8037737276,10,2,17.009,1693.1034741268,0,0.447388,10.4428809116,0,-0.447388,0,116.7, 9.3, 3.9,0,0,1024,1024,1155,1024,0,0,20,0,298.9,-11.4,-41.3,99,4.282,4.287,4.286,4.283,0,0,2.022,80.51,1692.7753901268,-0.328084,10,Assisted_Takeoff,
29800,2025-09-03 07:35:17,48.1488507801051,11.5722563597154,-0.328084,,,1692.7753901268,0.656168,0.671082,2.86124352988,23.9400926296,10,2,17.009,1693.1034741268,0,0.671082,10.4428809116,0,-0.671082,-0.223694,116.4, 7.2, 3.1,0,0,1024,1024,1153,1024,0,0,20,0,297.9,-17.1,-42.2,99,4.282,4.287,4.286,4.283,0,0,2.022,80.51,1692.7753901268,-0.328084,6,P-GPS,
29900,2025-09-03 07:35:18,48.1488509935605,11.572256035958,-0.328084,,,1692.7753901268,0.656168,0.894776,2.86965560364,24.0508865964,10,2,16.938,1693.1034741268,0,0.894776,10.4428809116,0,-0.894776,-0.447388,115.9, 0.8, 1.1,0,0,1024,1024,1149,1024,0,0,19,0,296,-24.6,-44.4,99,4.282,4.287,4.286,4.283,0,0,2.022,80.51,1692.7753901268,-0.328084,6,P-GPS,
30000,2025-09-03 07:35:18,48.1488511664042,11.5722556187637,-0.656168,,,1692.4473061268,0.656168,0.671082,2.85679799168,24.170440406,10,2,16.938,1693.1034741268,0,0.894776,10.4428809116,0,-0.671082,-0.671082,115.8, -3.6, -1.7,0,0,1024,1024,1146,1024,0,0,18,0,295.6,-26.5,-47.5,99,4.282,4.287,4.286,4.283,0,0,2.022,80.51,1692.4473061268,-0.656168,6,P-GPS,
30100,2025-09-03 07:35:18,48.1488515516654,11.5722554621713,-0.656168,,,1692.4473061268,0.656168,0.447388,2.9487041626,24.3160768936,10,3,16.938,1693.1034741268,0,0.894776,10.4428809116,0,-0.447388,-0.671082,116, -4.8, -3.4,0,0,1024,1024,1141,1024,0,0,18,0,297,-25.2,-46.3,99,4.282,4.287,4.286,4.283,0,0,2.022,80.51,1692.4473061268,-0.656168,6,P-GPS,
30200,2025-09-03 07:35:18,48.1488519774331,11.5722555165167,-0.328084,,,1692.7753901268,0.984252,0.3131716,3.08506243468,24.4719824104,9,3,16.938,1693.1034741268,0,0.894776,10.4428809116,0.223694,-0.223694,-0.671082,116.1, -4.2, -2.2,0,0,1024,1024,1134,1024,0,0,17,0,297,-25.2,-46.3,99,4.282,4.287,4.286,4.283,0,0,2.022,80.51,1692.7753901268,-0.328084,6,P-GPS,
30300,2025-09-03 07:35:18,48.1488524523341,11.572255811167,-0.328084,,,1692.7753901268,0.984252,0,3.26953094452,24.6594824164,9,3,16.938,1693.1034741268,0,0.894776,10.4428809116,0,0,-0.671082,116.2, -2.6, -0.4,0,0,1024,1024,1137,1024,0,0,17,0,298.5,-22,-42.6,99,4.282,4.287,4.286,4.283,0,0,2.022,80.51,1692.7753901268,-0.328084,6,P-GPS,
30400,2025-09-03 07:35:18,48.148852948255,11.5722562337496,-0.328084,,,1692.7753901268,1.312336,0.223694,3.4773951244,24.867618906,8,3,16.938,1693.1034741268,0,0.894776,10.4428809116,0.223694,0,-0.671082,116.2, -1.7, 0,0,0,1024,1024,1138,1024,0,0,17,0,297.2,-22.7,-42.3,99,4.282,4.287,4.286,4.283,0,0,2.022,80.51,1692.7753901268,-0.328084,6,P-GPS,
30500,2025-09-03 07:35:18,48.1488535333826,11.5722567601462,0,,,1693.1034741268,1.312336,0.3131716,3.7263124552,25.1166018536,8,3,16.938,1693.1034741268,0,0.894776,10.4428809116,0.223694,0.223694,-0.671082,116.3, -0.5, 0.2,0,0,1024,1024,1139,1024,0,0,17,0,296.3,-22.2,-41.6,99,4.282,4.287,4.286,4.283,0,0,2.022,80.51,1693.1034741268,0,6,P-GPS,
30600,2025-09-03 07:35:18,48.1488547975903,11.5722580324158,0,,,1693.1034741268,1.64042,0.3131716,4.2817258588,25.6721792992,7,3,16.938,1693.1034741268,0,0.894776,10.4428809116,0.223694,0.223694,-0.671082,116.3, -0.1, 0.5,0,0,1024,1024,1137,1024,0,0,17,0,296.4,-23.1,-41.6,99,4.282,4.287,4.286,4.283,0,0,2.022,80.51,1693.1034741268,0,6,P-GPS,
30700,2025-09-03 07:35:18,48.148855431791,11.5722587563346,0,,,1693.1034741268,1.64042,0.223694,4.5716208812,25.9630585736,7,3,16.938,1693.1034741268,0,0.894776,10.4428809116,0,0.223694,-0.671082,116.4, 0, 0.7,0,0,1024,1024,1136,1024,0,0,17,0,297.2,-22.1,-42.7,99,4.282,4.287,4.286,4.283,0,0,2.022,80.51,1693.1034741268,0,6,P-GPS,
30800,2025-09-03 07:35:18,48.1488560934836,11.5722595457158,0.328084,,,1693.4315581268,1.64042,0.3131716,4.8787075052,26.2715887672,8,3,16.938,1693.4315581268,0.328084,0.894776,10.4428809116,0.223694,0.223694,-0.671082,116.3, 0.9, 1.1,0,0,1024,1024,1135,1024,0,0,17,0,296.7,-20.8,-41.9,99,4.282,4.287,4.286,4.283,0,0,2.022,80.51,1693.4315581268,0.328084,6,P-GPS,
30900,2025-09-03 07:35:19,48.1488564459966,11.5722599455466,0.328084,,,1693.4315581268,1.968504,0.3131716,5.0396327072,26.4328748616,8,3,16.592,1693.4315581268,0.328084,0.894776,10.4428809116,0.223694,0.223694,-0.671082,116.4, 1.1, 1.2,0,0,1024,1024,1138,1024,0,0,17,0,295.8,-21.4,-42.1,99,4.242,4.248,4.243,4.231,0,0,3.14,80.51,1693.4315581268,0.328084,6,P-GPS,
31000,2025-09-03 07:35:19,48.1488566533561,11.572260268693,0.656168,,,1693.7596421268,1.968504,0,5.1460959652,26.5420284084,8,3,16.592,1693.7596421268,0.656168,0.894776,10.4428809116,0,0,-0.671082,116.5, 1, 1.9,0,0,1024,1024,1148,1024,0,0,19,0,296.8,-20.9,-41,99,4.242,4.248,4.243,4.231,0,0,3.14,80.51,1693.7596421268,0.656168,6,P-GPS,
31100,2025-09-03 07:35:19,48.1488565578629,11.5722603485073,0.656168,,,1693.7596421268,1.968504,0,5.1279201116,26.5819234228,8,3,16.592,1693.7596421268,0.656168,0.894776,10.4428809116,0,0,-0.671082,116.5, 0.9, 1.6,0,0,1024,1024,1149,1024,0,0,19,0,297.1,-20.9,-42.1,99,4.242,4.248,4.243,4.231,0,0,3.14,80.51,1693.7596421268,0.656168,6,P-GPS,
31200,2025-09-03 07:35:19,48.1488563614034,11.5722603758127,0.984252,,,1694.0877261268,2.296588,0,5.0723754904,26.6539050524,8,3,16.592,1694.0877261268,0.984252,0.894776,10.4428809116,0,0,-0.671082,116.6, 0.8, 0.8,0,0,1024,1024,1146,1024,0,0,18,0,296.5,-21.8,-43,99,4.242,4.248,4.243,4.231,0,0,3.14,80.51,1694.0877261268,0.984252,6,P-GPS,
31300,2025-09-03 07:35:19,48.1488564392064,11.5722605807743,0.984252,,,1694.0877261268,2.296588,0,5.1240815288,26.7113197524,8,3,16.592,1694.0877261268,0.984252,0.894776,10.4428809116,0,0,-0.671082,116.6, 0.4, 0,0,0,1024,1024,1145,1024,0,0,18,0,295.6,-22.5,-43.6,99,4.242,4.248,4.243,4.231,0,0,3.14,80.51,1694.0877261268,0.984252,6,P-GPS,
31400,2025-09-03 07:35:19,48.1488557687727,11.5722602305456,0.984252,,,1694.0877261268,2.624672,0,4.875000156,26.9703420704,9,3,16.592,1694.0877261268,0.984252,0.894776,10.4428809116,0,0,-0.671082,116.6, 0.3, -0.4,0,0,1024,1024,1148,1024,0,0,19,0,295.1,-23.1,-43.9,99,4.242,4.248,4.243,4.231,0,0,3.14,80.51,1694.0877261268,0.984252,6,P-GPS,
31500,2025-09-03 07:35:19,48.1488559578782,11.5722605139356,0.984252,,,1694.0877261268,2.624672,0,4.9712600016,27.067914252,9,3,16.592,1694.0877261268,0.984252,0.894776,10.4428809116,0,0,-0.671082,116.6, 0.2, -0.3,0,0,1024,1024,1152,1024,0,0,19,0,295.6,-22.3,-43.7,99,4.242,4.248,4.243,4.231,0,0,3.14,80.51,1694.0877261268,0.984252,6,P-GPS,
31600,2025-09-03 07:35:19,48.1488561580111,11.5722608169718,1.312336,,,1694.4158101268,2.624672,0,5.073655018,27.1717200296,9,2,16.592,1694.4158101268,1.312336,0.894776,10.4428809116,0,0,-0.671082,116.6, 0.4, -0.4,0,0,1024,1024,1158,1024,0,0,20,0,295,-22.8,-43.6,99,4.242,4.248,4.243,4.231,0,0,3.14,80.51,1694.4158101268,1.312336,6,P-GPS,
31700,2025-09-03 07:35:19,48.1488563746353,11.572261137458,1.312336,,,1694.4158101268,2.952756,0,5.1834647328,27.2827764636,9,2,16.592,1694.4158101268,1.312336,0.894776,10.4428809116,0,0,-0.894776,116.6, 0.7, -0.2,0,0,1024,1024,1159,1024,0,0,20,0,295,-22.8,-43.6,99,4.242,4.248,4.243,4.231,0,0,3.14,80.51,1694.4158101268,1.312336,6,P-GPS,
31800,2025-09-03 07:35:20,48.1488566165757,11.5722614800049,1.64042,,,1694.7438941268,2.952756,0,5.3039371776,27.404200352,10,2,16.592,1694.7438941268,1.64042,0.894776,10.4428809116,0,0,-0.894776,116.5, 0.6, 0.7,0,0,1024,1024,1161,1024,0,0,21,0,294.3,-23.2,-41.6,99,4.242,4.248,4.243,4.231,0,0,3.14,80.51,1694.7438941268,1.64042,6,P-GPS,
31900,2025-09-03 07:35:20,48.1488568537907,11.5722618187417,1.64042,,,1694.7438941268,3.28084,0,5.4225067352,27.5237213532,10,2,16.262,1694.7438941268,1.64042,0.894776,10.4428809116,0,0,-0.894776,116.5, 0.6, 1.4,0,0,1024,1024,1164,1024,0,0,21,0,295.6,-22.2,-41.5,99,4.085,4.111,4.105,4.082,0,0,17.302,80.51,1694.7438941268,1.64042,6,P-GPS,
32000,2025-09-03 07:35:20,48.148857081987,11.5722621511945,1.64042,,,1694.7438941268,3.28084,0,5.5375986024,27.6398302808,10,2,16.262,1694.7438941268,1.64042,0.894776,10.4428809116,0,0,-0.894776,116.5, 0.5, 1.2,0,0,1024,1024,1164,1024,0,0,21,0,295.8,-22.1,-42.2,99,4.085,4.111,4.105,4.082,0,0,17.302,80.51,1694.7438941268,1.64042,6,P-GPS,
32100,2025-09-03 07:35:20,48.1488573014153,11.5722624782252,1.968504,,,1695.0719781268,3.28084,0,5.6493440128,27.7527239852,10,2,16.262,1695.0719781268,1.968504,0.894776,10.4428809116,0,0,-0.894776,116.5, 0.7, 0.6,0,0,1024,1024,1163,1024,0,0,21,0,294.9,-22.6,-42.5,99,4.085,4.111,4.105,4.082,0,0,17.302,80.51,1695.0719781268,1.968504,6,P-GPS,
32200,2025-09-03 07:35:20,48.1488575180082,11.5722627996715,1.968504,,,1695.0719781268,3.608924,0,5.75951462,27.8639444612,10,2,16.262,1695.0719781268,1.968504,0.894776,10.4428809116,0,0,-0.894776,116.5, 0.7, 0.4,0,0,1024,1024,1160,1024,0,0,21,0,294.2,-23,-42.1,99,4.085,4.111,4.105,4.082,0,0,17.302,80.51,1695.0719781268,1.968504,6,P-GPS,
32300,2025-09-03 07:35:20,48.1488576909652,11.5722631158073,2.296588,,,1695.4000621268,3.608924,0,5.8562337832,27.9634851468,10,2,16.262,1695.4000621268,2.296588,0.894776,10.4428809116,0,0,-0.894776,116.5, 0.7, 0.3,0,0,1024,1024,1159,1024,0,0,20,0,294.1,-23,-42.9,99,4.085,4.111,4.105,4.082,0,0,17.302,80.51,1695.4000621268,2.296588,6,P-GPS,
32400,2025-09-03 07:35:20,48.1488579054972,11.5722634287405,2.296588,,,1695.4000621268,3.937008,0,5.9646655452,28.0727043104,9,2,16.262,1695.4000621268,2.296588,0.894776,10.4428809116,0,0,-0.894776,116.6, 0.7, 0.3,0,0,1024,1024,1157,1024,0,0,20,0,294.5,-22.8,-43.2,99,4.085,4.111,4.105,4.082,0,0,17.302,80.51,1695.4000621268,2.296588,6,P-GPS,
32500,2025-09-03 07:35:20,48.1488581232918,11.5722637391467,2.624672,,,1695.7281461268,3.937008,0,6.07365505,28.1823499832,9,2,16.262,1695.7281461268,2.624672,0.894776,10.4428809116,0,0,-0.894776,116.6, 0.7, 0.2,0,0,1024,1024,1149,1024,0,0,19,0,293.7,-23.3,-43.1,99,4.085,4.111,4.105,4.082,0,0,17.302,80.51,1695.7281461268,2.624672,6,P-GPS,
32600,2025-09-03 07:35:20,48.148858346707,11.5722640464242,2.624672,,,1695.7281461268,3.937008,0,6.1838584656,28.292979908,9,2,16.262,1695.7281461268,2.624672,0.894776,10.4428809116,0,0,-0.894776,116.6, 0.8, 0.2,0,0,1024,1024,1155,1024,0,0,20,0,294.1,-23.2,-43.3,99,4.085,4.111,4.105,4.082,0,0,17.302,80.51,1695.7281461268,2.624672,6,P-GPS,
32700,2025-09-03 07:35:20,48.1488585748504,11.5722643474497,2.952756,,,1696.0562301268,4.265092,0,6.2944883904,28.4038723,9,2,16.262,1696.0562301268,2.952756,0.894776,10.4428809116,0,0,-0.894776,116.6, 0.7, 0.1,0,0,1024,1024,1150,1024,0,0,19,0,293.9,-23.5,-43.4,99,4.085,4.111,4.105,4.082,0,0,17.302,80.51,1696.0562301268,2.952756,6,P-GPS,
32800,2025-09-03 07:35:20,48.1488588128833,11.5722646501476,2.952756,,,1696.0562301268,4.265092,0,6.4082679216,28.5177502564,8,2,16.262,1696.0562301268,2.952756,0.894776,10.4428809116,0,0,-0.894776,116.6, 0.5, 0.2,0,0,1024,1024,1150,1024,0,0,19,0,292.8,-24.3,-42.7,99,4.085,4.111,4.105,4.082,0,0,17.302,80.51,1696.0562301268,2.952756,6,P-GPS,
32900,2025-09-03 07:35:21,48.1488590557503,11.5722649543084,2.952756,,,1696.0562301268,4.265092,0,6.5236550644,28.6332358244,8,2,16.152,1696.0562301268,2.952756,0.894776,10.4428809116,0,0,-0.894776,116.7, 0.4, 0.5,0,0,1024,1024,1153,1024,0,0,20,0,292.9,-24.3,-42.4,99,4.049,4.081,4.074,4.051,0,0,17.988,80.51,1696.0562301268,2.952756,6,P-GPS,
33000,2025-09-03 07:35:21,48.1488592995788,11.5722652596704,3.28084,,,1696.3843141268,4.593176,0,6.6395015248,28.74918071,8,2,16.152,1696.3843141268,3.28084,0.894776,10.4428809116,0,0,-0.671082,116.7, 0.3, 0.9,0,0,1024,1024,1146,1024,0,0,18,0,294.1,-23.4,-42.6,99,4.049,4.081,4.074,4.051,0,0,17.988,80.51,1696.3843141268,3.28084,6,P-GPS,
33100,2025-09-03 07:35:21,48.1488595297691,11.5722655685672,3.28084,,,1696.3843141268,4.593176,0,6.7519359116,28.8619103724,8,2,16.152,1696.3843141268,3.28084,0.894776,10.4428809116,0,0,-0.671082,116.7, 0.3, 1.2,0,0,1024,1024,1145,1024,0,0,18,0,294.1,-23.4,-42.6,99,4.049,4.081,4.074,4.051,0,0,17.988,80.51,1696.3843141268,3.28084,6,P-GPS,
33200,2025-09-03 07:35:21,48.1488597535743,11.5722658678852,3.28084,,,1696.3843141268,4.92126,0,6.8610894584,28.9713263864,9,2,16.152,1696.3843141268,3.28084,0.894776,10.4428809116,0,0,-0.671082,116.7, 0.4, 1,0,0,1024,1024,1137,1024,0,0,17,0,293.9,-23.4,-42.7,99,4.049,4.081,4.074,4.051,0,0,17.988,80.51,1696.3843141268,3.28084,6,P-GPS,
33300,2025-09-03 07:35:21,48.1488599708014,11.5722661630505,3.608924,,,1696.7123981268,4.92126,0,6.9677823752,29.0783145788,9,2,16.152,1696.7123981268,3.608924,0.894776,10.4428809116,0,0,-0.671082,116.7, 0.5, 0.7,0,0,1024,1024,1136,1024,0,0,17,0,293.1,-23.8,-42.9,99,4.049,4.081,4.074,4.051,0,0,17.988,80.51,1696.7123981268,3.608924,6,P-GPS,
33400,2025-09-03 07:35:21,48.1488601853009,11.5722664551808,3.608924,,,1696.7123981268,4.92126,0,7.0732285728,29.184056052,9,2,16.152,1696.7123981268,3.608924,0.894776,10.4428809116,0,0,-0.671082,116.7, 0.5, 0.8,0,0,1024,1024,1134,1024,0,0,17,0,293.2,-23.7,-42.6,99,4.049,4.081,4.074,4.051,0,0,17.988,80.51,1696.7123981268,3.608924,6,P-GPS,
33500,2025-09-03 07:35:21,48.1488604153504,11.5722667387579,3.937008,,,1697.0404821268,5.249344,0,7.1818571852,29.2927174728,9,2,16.152,1697.0404821268,3.937008,0.894776,10.4428809116,0,0,-0.671082,116.7, 0.5, 1.1,0,0,1024,1024,1133,1024,0,0,17,0,293.3,-23.8,-42.6,99,4.049,4.081,4.074,4.051,0,0,17.988,80.51,1697.0404821268,3.937008,6,P-GPS,
33600,2025-09-03 07:35:21,48.1488606255801,11.5722670173782,3.937008,,,1697.0404821268,5.249344,0,7.2840553512,29.3951124892,9,2,16.152,1697.0404821268,3.937008,0.894776,10.4428809116,0,0,-0.671082,116.7, 0.6, 0.9,0,0,1024,1024,1136,1024,0,0,17,0,292.5,-24.4,-43,99,4.049,4.081,4.074,4.051,0,0,17.988,80.51,1697.0404821268,3.937008,6,P-GPS,
33700,2025-09-03 07:35:21,48.1488608357991,11.572267289745,3.937008,,,1697.0404821268,5.249344,0,7.3853020736,29.4964904452,9,2,16.152,1697.0404821268,3.937008,0.894776,10.4428809116,0,0,-0.671082,116.7, 0.7, 0.5,0,0,1024,1024,1137,1024,0,0,17,0,292.5,-24.4,-43.2,99,4.049,4.081,4.074,4.051,0,0,17.988,80.51,1697.0404821268,3.937008,6,P-GPS,
33800,2025-09-03 07:35:21,48.1488610514279,11.5722675594926,3.937008,,,1697.0404821268,5.577428,0,7.4877298984,29.5989838868,9,2,16.152,1697.0404821268,3.937008,0.894776,10.4428809116,0,0,-0.671082,116.7, 0.6, 0.5,0,0,1024,1024,1140,1024,0,0,18,0,292.3,-24.5,-42.5,99,4.049,4.081,4.074,4.051,0,0,17.988,80.51,1697.0404821268,3.937008,6,P-GPS,
33900,2025-09-03 07:35:22,48.1488612708795,11.572267827425,4.265092,,,1697.3685661268,5.577428,0,7.5909779332,29.7022319216,9,2,16.109,1697.3685661268,4.265092,0.894776,10.4428809116,0,0,-0.671082,116.6, 0.4, 1,0,0,1024,1024,1151,1024,0,0,19,0,292.7,-24.3,-41.8,99,4.049,4.081,4.074,4.051,0,0,17.41,82.31,1697.3685661268,4.265092,6,P-GPS,
34000,2025-09-03 07:35:22,48.1488615252636,11.5722681469102,4.265092,,,1697.3685661268,5.577428,0,7.7120081208,29.823327726,10,2,16.109,1697.3685661268,4.265092,0.894776,10.4428809116,0,0,-0.671082,116.6, 0.4, 1.3,0,0,1024,1024,1163,1024,0,0,21,0,292.7,-24.1,-42,99,4.049,4.081,4.074,4.051,0,0,17.41,82.31,1697.3685661268,4.265092,6,P-GPS,
34100,2025-09-03 07:35:22,48.1488617446492,11.5722684194278,4.265092,,,1697.3685661268,5.905512,0,7.815945132,29.9272975456,10,2,16.109,1697.3685661268,4.265092,0.894776,10.4428809116,0,0,-0.671082,116.5, 0.5, 1.4,0,0,1024,1024,1168,1024,0,0,22,0,292.7,-24.3,-41.5,99,4.049,4.081,4.074,4.051,0,0,17.41,82.31,1697.3685661268,4.265092,6,P-GPS,
34200,2025-09-03 07:35:22,48.1488619559651,11.5722686825022,4.593176,,,1697.6966501268,5.905512,0,7.9161419856,30.0275272076,10,2,16.109,1697.6966501268,4.593176,0.894776,10.4428809116,0,0,-0.671082,116.5, 0.5, 1.3,0,0,1024,1024,1173,1024,0,0,23,0,292,-24.7,-41.7,99,4.049,4.081,4.074,4.051,0,0,17.41,82.31,1697.6966501268,4.593176,6,P-GPS,
34300,2025-09-03 07:35:22,48.1488621604976,11.5722689359536,4.593176,,,1697.6966501268,5.905512,0,8.0129267656,30.124344796,10,2,16.109,1697.6966501268,4.593176,0.894776,10.4428809116,0,0,-0.894776,116.5, 0.7, 1.2,0,0,1024,1024,1189,1024,0,0,25,0,292.2,-24.8,-41.5,99,4.049,4.081,4.074,4.051,0,0,17.41,82.31,1697.6966501268,4.593176,6,P-GPS,
34400,2025-09-03 07:35:22,48.1488623333708,11.5722691275439,4.593176,,,1697.6966501268,6.233596,0,8.0913388416,30.2027896804,9,2,16.109,1697.6966501268,4.593176,0.894776,10.4428809116,0,0,-0.894776,116.5, 0.6, 1.2,0,0,1024,1024,1194,1024,0,0,26,0,292.2,-24.8,-41.5,99,4.049,4.081,4.074,4.051,0,0,17.41,82.31,1697.6966501268,4.593176,6,P-GPS,
34500,2025-09-03 07:35:22,48.1488625242366,11.572269349284,4.92126,,,1698.0247341268,6.233596,0,8.1794293956,30.2908802344,9,2,16.109,1698.0247341268,4.92126,0.894776,10.4428809116,0,0,-0.894776,116.5, 0.4, 1,0,0,1024,1024,1196,1024,0,0,26,0,292.2,-24.8,-41.7,99,4.049,4.081,4.074,4.051,0,0,17.41,82.31,1698.0247341268,4.92126,6,P-GPS,
34600,2025-09-03 07:35:22,48.148862711502,11.5722695650041,4.92126,,,1698.0247341268,6.56168,0,8.2656170624,30.3770679012,9,2,16.109,1698.0247341268,4.92126,0.894776,10.4428809116,0,0,-1.11847,116.5, 0.3, 0.9,0,0,1024,1024,1197,1024,0,0,26,0,291.4,-25.4,-41.5,99,4.049,4.081,4.074,4.051,0,0,17.41,82.31,1698.0247341268,4.92126,6,P-GPS,
34700,2025-09-03 07:35:22,48.1488628974825,11.5722697785687,5.249344,,,1698.3528181268,6.56168,0,8.3510829444,30.4625337832,9,2,16.109,1698.3528181268,5.249344,0.894776,10.4428809116,0,0,-1.11847,116.4, 0.3, 1,0,0,1024,1024,1196,1024,0,0,26,0,291.2,-25.5,-42,99,4.049,4.081,4.074,4.051,0,0,17.41,82.31,1698.3528181268,5.249344,6,P-GPS,
34800,2025-09-03 07:35:23,48.1488631079345,11.5722700450311,5.249344,,,1698.3528181268,6.889764,0,8.4515422652,30.5630587208,9,2,16.109,1698.3528181268,5.249344,0.894776,10.4428809116,0,0,-1.342164,116.4, 0.4, 1.2,0,0,1024,1024,1198,1024,0,0,26,0,292.3,-24.7,-42.1,99,4.049,4.081,4.074,4.051,0,0,17.41,82.31,1698.3528181268,5.249344,6,P-GPS,
34900,2025-09-03 07:35:23,48.1488632918339,11.5722702568368,5.577428,,,1698.6809021268,6.889764,0,8.5361551288,30.6476715844,9,2,16.117,1698.6809021268,5.577428,0.894776,10.4428809116,0,0,-1.342164,116.4, 0.4, 1.5,0,0,1024,1024,1200,1024,0,0,27,0,291.2,-25.3,-41.8,99,4.048,4.076,4.067,4.043,0,0,17.41,82.31,1698.6809021268,5.577428,6,P-GPS,
35000,2025-09-03 07:35:23,48.1488634654716,11.5722704617767,5.905512,,,1699.0089861268,7.217848,0,8.6167653676,30.7283146316,9,2,16.117,1699.0089861268,5.905512,0.894776,10.4428809116,0,0,-1.342164,116.4, 0.4, 1.3,0,0,1024,1024,1198,1024,0,0,26,0,291,-25.4,-42,99,4.048,4.076,4.067,4.043,0,0,17.41,82.31,1699.0089861268,5.905512,6,P-GPS,
35100,2025-09-03 07:35:23,48.1488636307261,11.5722706602168,5.905512,,,1699.0089861268,7.545932,0,8.6940291496,30.8055784136,9,2,16.117,1699.0089861268,5.905512,0.894776,10.4428809116,0,0,-1.342164,116.3, 0.6, 1.2,0,0,1024,1024,1200,1024,0,0,27,0,291,-25.3,-42,99,4.048,4.076,4.067,4.043,0,0,17.41,82.31,1699.0089861268,5.905512,6,P-GPS,
35200,2025-09-03 07:35:23,48.1488637482159,11.5722708293432,6.233596,,,1699.3370701268,7.874016,0,8.7531826948,30.864994426,9,2,16.117,1699.3370701268,6.233596,0.894776,10.4428809116,0,0,-1.342164,116.3, 0.5, 1.1,0,0,1024,1024,1199,1024,0,0,27,0,290.6,-25.7,-42,99,4.048,4.076,4.067,4.043,0,0,17.41,82.31,1699.3370701268,6.233596,6,P-GPS,
35300,2025-09-03 07:35:23,48.1488638928526,11.5722710068682,6.56168,,,1699.6651541268,7.874016,0,8.82135855,30.9332030896,9,2,16.117,1699.6651541268,6.56168,0.894776,10.4428809116,0,0,-1.342164,116.3, 0.3, 0.9,0,0,1024,1024,1204,1024,0,0,27,0,290.6,-25.6,-42.4,99,4.048,4.076,4.067,4.043,0,0,17.41,82.31,1699.6651541268,6.56168,6,P-GPS,
35400,2025-09-03 07:35:23,48.1488640307346,11.57227118101,6.56168,,,1699.6651541268,8.2021,0,8.8871065836,30.9989839316,9,2,16.117,1699.6651541268,6.56168,0.894776,10.4428809116,0,0,-1.342164,116.3, 0.4, 0.7,0,0,1024,1024,1204,1024,0,0,27,0,290.4,-25.5,-42.7,99,4.048,4.076,4.067,4.043,0,0,17.41,82.31,1699.6651541268,6.56168,6,P-GPS,
35500,2025-09-03 07:35:23,48.1488641649656,11.5722713513449,6.889764,,,1699.9932381268,8.2021,0,8.9512470056,31.063157162,9,2,16.117,1699.9932381268,6.889764,0.894776,10.4428809116,0,0,-1.342164,116.3, 0.7, 0.6,0,0,1024,1024,1204,1024,0,0,27,0,290.2,-25.6,-42.9,99,4.048,4.076,4.067,4.043,0,0,17.41,82.31,1699.9932381268,6.889764,6,P-GPS,
35600,2025-09-03 07:35:23,48.1488642971529,11.5722715188553,7.217848,,,1700.3213221268,8.530184,0,9.0143703672,31.126313332,9,2,16.117,1700.3213221268,7.217848,0.894776,10.4428809116,0,0,-1.565858,116.4, 0.7, 0.5,0,0,1024,1024,1205,1024,0,0,27,0,289.7,-25.9,-42.9,99,4.048,4.076,4.067,4.043,0,0,17.41,82.31,1700.3213221268,7.217848,6,P-GPS,
35700,2025-09-03 07:35:23,48.1488644160245,11.5722717452046,7.217848,,,1700.3213221268,8.530184,0,9.0825462224,31.1964248828,9,2,16.117,1700.3213221268,7.217848,0.894776,10.4428809116,0,0,-1.565858,116.4, 0.9, 0.1,0,0,1024,1024,1201,1024,0,0,27,0,289.7,-25.7,-43.2,99,4.048,4.076,4.067,4.043,0,0,17.41,82.31,1700.3213221268,7.217848,6,P-GPS,
35800,2025-09-03 07:35:23,48.1488645530043,11.5722719105788,7.545932,,,1700.6494061268,8.858268,0,9.1467194528,31.2606309216,9,2,16.117,1700.6494061268,7.545932,0.894776,10.4428809116,0,0,-1.565858,116.4, 1, 0.1,0,0,1024,1024,1207,1024,0,0,28,0,289.7,-25.7,-43.2,99,4.048,4.076,4.067,4.043,0,0,17.41,82.31,1700.6494061268,7.545932,6,P-GPS,
35900,2025-09-03 07:35:24,48.148864696677,11.5722720704306,7.874016,,,1700.9774901268,9.186352,0,9.2119753604,31.3258868292,9,2,16.036,1700.9774901268,7.874016,0.894776,10.4428809116,0,0,-1.565858,116.4, 0.8, 0.4,0,0,1024,1024,1223,1024,0,0,30,0,289.9,-25.6,-42.7,99,4.022,4.054,4.047,4.022,0,0,17.854,82.31,1700.9774901268,7.874016,6,P-GPS,
36000,2025-09-03 07:35:24,48.1488648438151,11.572272226132,8.2021,,,1701.3055741268,9.186352,0,9.2775921604,31.3916020544,9,2,16.036,1701.3055741268,8.2021,0.894776,10.4428809116,0,0,-1.565858,116.5, 0.7, 0.6,0,0,1024,1024,1224,1024,0,0,30,0,290.1,-25.7,-42.5,99,4.022,4.054,4.047,4.022,0,0,17.854,82.31,1701.3055741268,8.2021,6,P-GPS,
36100,2025-09-03 07:35:24,48.1488650283048,11.5722724210156,8.2021,,,1701.3055741268,9.514436,0,9.3598100108,31.4739511384,9,2,16.036,1701.3055741268,8.2021,0.894776,10.4428809116,0,0,-1.565858,116.6, 0.5, 0.9,0,0,1024,1024,1226,1024,0,0,31,0,289,-26.4,-42.5,99,4.022,4.054,4.047,4.022,0,0,17.854,82.31,1701.3055741268,8.2021,6,P-GPS,
36200,2025-09-03 07:35:24,48.1488651677614,11.5722725807421,8.530184,,,1701.6336581268,9.84252,0,9.4238520076,31.5379931352,9,2,16.036,1701.6336581268,8.530184,0.894776,10.4428809116,0,0,-1.565858,116.7, 0.6, 0.8,0,0,1024,1024,1230,1024,0,0,31,0,288,-27.2,-42.2,99,4.022,4.054,4.047,4.022,0,0,17.854,82.31,1701.6336581268,8.530184,6,P-GPS,
36300,2025-09-03 07:35:24,48.1488652956855,11.5722727258079,8.858268,,,1701.9617421268,10.170604,0,9.4823821932,31.5965233208,9,2,16.036,1701.9617421268,8.858268,0.894776,10.4428809116,0,0,-1.789552,116.9, 0.8, 0.7,0,0,1024,1024,1232,1024,0,0,32,0,288.8,-26.4,-42.5,99,4.022,4.054,4.047,4.022,0,0,17.854,82.31,1701.9617421268,8.858268,6,P-GPS,
36400,2025-09-03 07:35:24,48.148865413593,11.5722728538343,9.186352,,,1702.2898261268,10.170604,0,9.535433376,31.6496401204,9,2,16.036,1702.2898261268,9.186352,0.894776,10.4428809116,0,0,-1.789552,116.9, 0.7, 0.2,0,0,1024,1024,1234,1024,0,0,32,0,288.5,-26.6,-43.4,99,4.022,4.054,4.047,4.022,0,0,17.854,82.31,1702.2898261268,9.186352,6,P-GPS,
36500,2025-09-03 07:35:24,48.1488655469479,11.5722729509632,9.186352,,,1702.2898261268,10.826772,0,9.5882877084,31.703741172,9,2,16.036,1702.2898261268,9.186352,0.894776,10.4428809116,0,0,-1.789552,117, 0.8, -0.3,0,0,1024,1024,1237,1024,0,0,32,0,288.2,-26.7,-43.9,99,4.022,4.054,4.047,4.022,0,0,17.854,82.31,1702.2898261268,9.186352,6,P-GPS,
36600,2025-09-03 07:35:24,48.1488656686594,11.5722730615411,9.514436,,,1702.6179101268,11.154856,0,9.6398297048,31.7556768692,9,2,16.036,1702.6179101268,9.514436,0.894776,10.4428809116,0,0,-1.789552,117, 0.9, -0.4,0,0,1024,1024,1242,1024,0,0,33,0,288.2,-26.4,-44.1,99,4.022,4.054,4.047,4.022,0,0,17.854,82.31,1702.6179101268,9.514436,6,P-GPS,
36700,2025-09-03 07:35:24,48.1488658001058,11.5722731689317,9.84252,,,1702.9459941268,11.48294,0,9.6937010976,31.8103028552,9,2,16.036,1702.9459941268,9.84252,0.894776,10.4428809116,0,0,-1.789552,117, 1.1, -0.2,0,0,1024,1024,1244,1024,0,0,33,0,289.4,-25.4,-44.1,99,4.022,4.054,4.047,4.022,0,0,17.854,82.31,1702.9459941268,9.84252,6,P-GPS,
36800,2025-09-03 07:35:24,48.1488659437329,11.5722732705126,10.170604,,,1703.2740781268,11.811024,0,9.7501971624,31.8682424896,9,2,16.036,1703.2740781268,10.170604,0.894776,10.4428809116,0,0,-2.013246,116.8, 1, -0.1,0,0,1024,1024,1245,1024,0,0,33,0,289.7,-25.7,-43.8,99,4.022,4.054,4.047,4.022,0,0,17.854,82.31,1703.2740781268,10.170604,6,P-GPS,
36900,2025-09-03 07:35:25,48.1488660721634,11.5722733349768,10.498688,,,1703.6021621268,12.139108,0,9.7967850904,31.91765194,9,2,16.021,1703.6021621268,10.498688,0.894776,10.4428809116,0,0,-2.013246,116.6, 0.5, 0.1,0,0,1024,1024,1245,1024,0,0,33,0,289,-26.7,-42.7,98,4.024,4.054,4.045,4.021,0,0,17.744,82.31,1703.6021621268,10.498688,6,P-GPS,
37000,2025-09-03 07:35:25,48.1488662265708,11.5722734412359,10.826772,,,1703.9302461268,12.467192,0,9.857119738,31.9796270076,9,2,16.021,1703.9302461268,10.826772,0.894776,10.4428809116,0,0,-2.013246,116.4, 0.2, 0.5,0,0,1024,1024,1245,1024,0,0,33,0,287.9,-27.1,-42.9,98,4.024,4.054,4.045,4.021,0,0,17.744,82.31,1703.9302461268,10.826772,6,P-GPS,
37100,2025-09-03 07:35:25,48.1488663792945,11.5722735573283,11.154856,,,1704.2583301268,12.467192,0,9.918471446,32.0421270096,9,2,16.021,1704.2583301268,11.154856,0.894776,10.4428809116,0,0,-2.013246,116.3, 0.5, 0.4,0,0,1024,1024,1250,1024,0,0,34,0,288.3,-26.6,-42.5,98,4.024,4.054,4.045,4.021,0,0,17.744,82.31,1704.2583301268,11.154856,6,P-GPS,
37200,2025-09-03 07:35:25,48.1488665307723,11.5722736799848,11.48294,,,1704.5864141268,12.795276,0,9.9804465136,32.1049222872,9,2,16.021,1704.5864141268,11.48294,0.894776,10.4428809116,0,0,-2.013246,116.3, 0.7, 0.5,0,0,1024,1024,1249,1024,0,0,34,0,288.3,-26.6,-42.5,98,4.024,4.054,4.045,4.021,0,0,17.744,82.31,1704.5864141268,11.48294,6,P-GPS,
37300,2025-09-03 07:35:25,48.1488666800844,11.5722738009673,11.811024,,,1704.9144981268,12.795276,0,10.0415357544,32.1668645464,9,2,16.021,1704.9144981268,11.811024,0.894776,10.4428809116,0,0,-2.013246,116.3, 0.8, 0.7,0,0,1024,1024,1253,1024,0,0,35,0,288.6,-26.2,-42.4,98,4.024,4.054,4.045,4.021,0,0,17.744,82.31,1704.9144981268,11.811024,6,P-GPS,
37400,2025-09-03 07:35:25,48.1488668178133,11.5722738999899,12.139108,,,1705.2425821268,13.12336,0,10.0960633152,32.222606018,9,2,16.021,1705.2425821268,12.139108,0.894776,10.4428809116,0,0,-2.23694,116.2, 0.8, 0.5,0,0,1024,1024,1255,1024,0,0,35,0,288,-26.7,-42.6,98,4.024,4.054,4.045,4.021,0,0,17.744,82.31,1705.2425821268,12.139108,6,P-GPS,
37500,2025-09-03 07:35:25,48.1488669554379,11.5722740022464,12.467192,,,1705.5706661268,13.451444,0,10.1510173852,32.2786427652,9,2,16.021,1705.5706661268,12.467192,0.894776,10.4428809116,0,0,-2.23694,116.2, 0.6, 0.1,0,0,1024,1024,1256,1024,0,0,35,0,287.6,-27.2,-43,98,4.024,4.054,4.045,4.021,0,0,17.744,82.31,1705.5706661268,12.467192,6,P-GPS,
37600,2025-09-03 07:35:25,48.148867092066,11.5722741047308,12.795276,,,1705.8987501268,13.779528,0,10.2057746048,32.3343842368,9,2,16.021,1705.8987501268,12.795276,0.894776,10.4428809116,0,0,-2.23694,116.2, 0.7, 0,0,0,1024,1024,1256,1024,0,0,35,0,287.7,-26.9,-43.1,98,4.024,4.054,4.045,4.021,0,0,17.744,82.31,1705.8987501268,12.795276,6,P-GPS,
37700,2025-09-03 07:35:25,48.1488672307899,11.5722742068541,13.12336,,,1706.2268341268,14.107612,0,10.2610567588,32.3907818764,9,2,16.021,1706.2268341268,13.12336,0.894776,10.4428809116,0,0,-2.23694,116.2, 0.8, 0,0,0,1024,1024,1253,1024,0,0,35,0,287.5,-27.2,-43.1,98,4.024,4.054,4.045,4.021,0,0,17.744,82.31,1706.2268341268,13.12336,6,P-GPS,
37800,2025-09-03 07:35:25,48.1488674027699,11.5722743134118,13.451444,,,1706.5549181268,14.435696,0,10.3266735588,32.458662456,9,2,16.021,1706.5549181268,13.451444,0.894776,10.4428809116,0,0,-2.23694,116.2, 0.6, 0.1,0,0,1024,1024,1256,1024,0,0,35,0,287.5,-27.4,-42.9,98,4.024,4.054,4.045,4.021,0,0,17.744,82.31,1706.5549181268,13.451444,6,P-GPS,
37900,2025-09-03 07:35:26,48.1488675475467,11.5722744119818,13.779528,,,1706.8830021268,14.76378,0,10.3832352404,32.5166677072,9,2,15.99,1706.8830021268,13.779528,0.894776,10.4428809116,0,0,-2.23694,116.2, 0.3, 0,0,0,1024,1024,1257,1024,0,0,35,0,287.1,-27.7,-43.1,98,4.009,4.04,4.028,4.004,0,0,18.406,82.31,1706.8830021268,13.779528,6,P-GPS,
38000,2025-09-03 07:35:26,48.14886769162,11.5722745169811,14.107612,,,1707.2110861268,15.091864,0,10.4405515152,32.575132276,9,2,15.99,1707.2110861268,14.107612,0.894776,10.4428809116,0,0,-2.23694,116.2, 0.4, 0,0,0,1024,1024,1257,1024,0,0,35,0,287,-27.4,-43.2,98,4.009,4.04,4.028,4.004,0,0,18.406,82.31,1707.2110861268,14.107612,6,P-GPS,
38100,2025-09-03 07:35:26,48.1488678373169,11.5722746258659,14.435696,,,1707.5391701268,15.419948,0,10.4989176588,32.63451548,9,2,15.99,1707.5391701268,14.435696,0.894776,10.4989176588,0,0,-2.23694,116.2, 0.7, -0.3,0,0,1024,1024,1260,1024,0,0,36,0,286.9,-27.5,-43.2,98,4.009,4.04,4.028,4.004,0,0,18.406,82.31,1707.5391701268,14.435696,6,P-GPS,
38200,2025-09-03 07:35:26,48.1488680214728,11.5722748194896,14.76378,,,1707.8672541268,15.748032,0,10.5809386588,32.7166020968,9,2,15.99,1707.8672541268,14.76378,0.894776,10.5809386588,0,0,-2.23694,116.2, 0.8, 0,0,0,1024,1024,1261,1024,0,0,36,0,286.6,-27.4,-42.8,98,4.009,4.04,4.028,4.004,0,0,18.406,82.31,1707.8672541268,14.76378,6,P-GPS,
38300,2025-09-03 07:35:26,48.1488681836006,11.5722749455244,15.091864,,,1708.1953381268,16.076116,0,10.6466210756,32.7832359572,9,2,15.99,1708.1953381268,15.091864,0.894776,10.6466210756,0,0,-2.23694,116.2, 0.9, 0.7,0,0,1024,1024,1263,1024,0,0,36,0,286.9,-27.3,-42.4,98,4.009,4.04,4.028,4.004,0,0,18.406,82.31,1708.1953381268,15.091864,6,P-GPS,
38400,2025-09-03 07:35:26,48.1488683403123,11.5722750612589,15.419948,,,1708.5234221268,16.4042,0,10.7092195028,32.847113912,9,2,15.99,1708.5234221268,15.419948,0.894776,10.7092195028,0,0,-2.23694,116.2, 0.9, 1,0,0,1024,1024,1260,1024,0,0,36,0,287.3,-27.2,-42.5,98,4.009,4.04,4.028,4.004,0,0,18.406,82.31,1708.5234221268,15.419948,6,P-GPS,
