time(millisecond),datetime(utc),latitude,longitude,height_above_takeoff(feet),height_above_ground_at_drone_location(feet),ground_elevation_at_drone_location(feet),altitude_above_seaLevel(feet),height_sonar(feet),speed(mph),distance(feet),mileage(feet),satellites,gpslevel,voltage(v),max_altitude(feet),max_ascent(feet),max_speed(mph),max_distance(feet), xSpeed(mph), ySpeed(mph), zSpeed(mph), compass_heading(degrees), pitch(degrees), roll(degrees),isPhoto,isVideo,rc_elevator,rc_aileron,rc_throttle,rc_rudder,rc_elevator(percent),rc_aileron(percent),rc_throttle(percent),rc_rudder(percent),gimbal_heading(degrees),gimbal_pitch(degrees),gimbal_roll(degrees),battery_percent,voltageCell1,voltageCell2,voltageCell3,voltageCell4,voltageCell5,voltageCell6,current(A),battery_temperature(f),altitude(feet),ascent(feet),flycStateRaw,flycState,message
28600,2025-09-03 05:35:11,48.1487279067166,11.5721732269317,0,Available with any HD 360 subscription,Available with any HD 360 subscription,1692.909034488,0.328084,0,0,0,8,4,0,1692.909034488,0,0,0,0,0,0,188, 0.6, -4.3,0,0,366,364,364,1684,-100,-100,-100,100,343.3,-20.4,-39.5,97,4.248,4.249,4.247,4.245,0,0,0,78.71,1692.909034488,0,41,Motors_Started,
28700,2025-09-03 05:35:11,48.148727758665,11.5721735343475,0,,,1692.909034488,0.328084,0,0.092291997704,0.092291997704,8,4,0,1692.909034488,0,0,0.092291997704,0,0,0,187.4, 0.6, -4.3,0,0,370,364,364,1684,-99,-100,-100,100,343.3,-20.3,-39.5,97,4.248,4.249,4.247,4.245,0,0,0,78.71,1692.909034488,0,41,Motors_Started,
28800,2025-09-03 05:35:11,48.1487278103192,11.5721735921946,0,,,1692.909034488,0.328084,0,0.095618113296,0.115817917092,8,4,0,1692.909034488,0,0,0.095618113296,0,0,0,187.7, 0.6, -4.3,0,0,540,431,418,1614,-73,-90,-92,89,343.1,-20.6,-39.4,97,4.248,4.249,4.247,4.245,0,0,0,78.71,1692.909034488,0,41,Motors_Started,
28900,2025-09-03 05:35:11,48.1487278870743,11.5721736322193,0,,,1692.909034488,0.328084,0,0.098917982168,0.145468508592,8,4,16.82,1692.909034488,0,0,0.098917982168,0,0,0,187.6, 0.6, -4.3,0,0,1024,990,949,1209,0,-5,-11,28,343.1,-20.5,-39.5,97,4.248,4.249,4.247,4.245,0,0,1.434,78.71,1692.909034488,0,41,Motors_Started,"Setting new Return-To-Home altitude to 100m (328 ft). Data Recorder File Index is 232. Setting new Maximum Flight Altitude to 150m (492 ft)"
29000,2025-09-03 05:35:12,48.1487279423437,11.5721736563442,0,,,1692.909034488,0.328084,0,0.105335633292,0.166471133936,8,4,16.82,1692.909034488,0,0,0.105335633292,0,0,0,187.7, 0.6, -4.3,0,0,1024,1024,1024,1024,0,0,0,0,343.1,-20.5,-39.5,97,4.248,4.249,4.247,4.245,0,0,1.434,78.71,1692.909034488,0,41,Motors_Started,
29100,2025-09-03 05:35:12,48.1487279243298,11.5721736765081,0,,,1692.909034488,0.328084,0,0.10962762818,0.174674218188,8,4,16.82,1692.909034488,0,0,0.10962762818,0,0,0,187.7, 0.6, -4.3,0,0,1024,1024,1024,1024,0,0,0,0,343,-20.6,-39.5,97,4.248,4.249,4.247,4.245,0,0,1.434,78.71,1692.909034488,0,41,Motors_Started,
29200,2025-09-03 05:35:12,48.1487280131973,11.5721736827689,0,,,1692.909034488,0.328084,0,0.117567589064,0.207133208728,8,4,16.82,1692.909034488,0,0,0.117567589064,0,0,0,187.7, 0.6, -4.3,0,0,1024,1024,1024,1024,0,0,0,0,342.9,-20.7,-39.5,97,4.248,4.249,4.247,4.245,0,0,1.434,78.71,1692.909034488,0,41,Motors_Started,
29300,2025-09-03 05:35:12,48.1487281552139,11.5721736831268,0,,,1692.909034488,0.328084,0,0.143360240808,0.258947842932,8,4,16.82,1692.909034488,0,0,0.143360240808,0,0,0,187.7, 0.5, -4.3,0,0,1024,1024,1024,1024,0,0,0,0,342.8,-20.7,-39.5,97,4.248,4.249,4.247,4.245,0,0,1.434,78.71,1692.909034488,0,41,Motors_Started,
29400,2025-09-03 05:35:12,48.1487282585191,11.5721736547938,0,,,1692.909034488,0.328084,0,0.165296265132,0.297264445208,8,4,16.82,1692.909034488,0,0,0.165296265132,0,0,0,187.8, 0.6, -4.3,0,0,1024,1024,1024,1024,0,0,0,0,342.8,-20.7,-39.5,97,4.248,4.249,4.247,4.245,0,0,1.434,78.71,1692.909034488,0,41,Motors_Started,
29500,2025-09-03 05:35:12,48.1487284001481,11.5721734819956,0,,,1692.909034488,0.328084,0,0.190434389296,0.3638943686,8,4,16.82,1692.909034488,0,0,0.190434389296,0,0,0,187.8, 0.6, -4.3,0,0,1024,1024,1024,1024,0,0,0,0,342.8,-20.7,-39.6,97,4.248,4.249,4.247,4.245,0,0,1.434,78.71,1692.909034488,0,41,Motors_Started,
29600,2025-09-03 05:35:12,48.1487284792416,11.5721734760559,0,,,1692.909034488,0.328084,0,0.217510505648,0.39278872648,8,4,16.82,1692.909034488,0,0,0.217510505648,0,0,0,187.8, 0.6, -4.3,0,0,1024,1024,1024,1024,0,0,0,0,342.7,-20.7,-39.6,97,4.248,4.249,4.247,4.245,0,0,1.434,78.71,1692.909034488,0,41,Motors_Started,
29700,2025-09-03 05:35:12,48.148728573724,11.5721735137919,0,,,1692.909034488,0.328084,0,0.25317750154,0.4284612998,8,4,16.82,1692.909034488,0,0,0.25317750154,0,0,0,187.8, 0.6, -4.3,0,0,1024,1024,1024,1024,0,0,0,0,342.6,-20.8,-39.6,97,4.248,4.249,4.247,4.245,0,0,1.434,78.71,1692.909034488,0,41,Motors_Started,
29800,2025-09-03 05:35:12,48.1487286681933,11.5721735425678,0,,,1692.909034488,0.328084,0,0.288253290064,0.46363518544,8,4,16.82,1692.909034488,0,0,0.288253290064,0,0,0,187.8, 0.6, -4.3,0,0,1024,1024,1024,1024,0,0,0,0,342.6,-20.8,-39.6,97,4.248,4.249,4.247,4.245,0,0,1.434,78.71,1692.909034488,0,41,Motors_Started,
29900,2025-09-03 05:35:12,48.1487288003382,11.5721736229911,0,,,1692.909034488,0.656168,0,0.3399934492,0.51566930784,8,4,16.983,1692.909034488,0,0,0.3399934492,0,0,0,187.8, 0.6, -4.3,0,0,1024,1024,1024,1024,0,0,0,0,342.5,-20.8,-39.6,97,4.249,4.249,4.247,4.244,0,0,1.432,78.71,1692.909034488,0,41,Motors_Started,
30000,2025-09-03 05:35:13,48.1487288981947,11.5721736096816,0,,,1692.909034488,0.656168,0,0.37354659988,0.55151904652,8,4,16.983,1692.909034488,0,0,0.37354659988,0,0,0,187.8, 0.6, -4.3,0,0,1024,1024,1024,1024,0,0,0,0,342.5,-20.8,-39.6,97,4.249,4.249,4.247,4.244,0,0,1.432,78.71,1692.909034488,0,41,Motors_Started,
30100,2025-09-03 05:35:13,48.1487290021676,11.572173565152,0,,,1692.909034488,0.656168,0,0.40806759836,0.59097114752,8,4,16.983,1692.909034488,0,0,0.40806759836,0,0,0,187.8, 0.6, -4.3,0,0,1024,1024,1024,1024,0,0,0,0,342.5,-20.8,-39.7,97,4.249,4.249,4.247,4.244,0,0,1.432,78.71,1692.909034488,0,10,Assisted_Takeoff,
30200,2025-09-03 05:35:13,48.1487290748157,11.5721735623338,0,,,1692.909034488,0.656168,0,0.43393046008,0.6174868964,8,4,16.983,1692.909034488,0,0,0.43393046008,0,0,0,187.8, 0.6, -4.3,0,0,1024,1024,1024,1024,0,0,0,0,342.4,-20.9,-39.7,97,4.249,4.249,4.247,4.244,0,0,1.432,78.71,1692.909034488,0,10,Assisted_Takeoff,
30300,2025-09-03 05:35:13,48.1487291258479,11.5721736004566,0,,,1692.909034488,0.656168,0,0.45399935836,0.63829070284,7,3,16.983,1692.909034488,0,0,0.45399935836,0,0,0,187.8, 0.6, -4.3,0,0,1024,1024,1024,1024,0,0,0,0,342.3,-20.9,-39.7,97,4.249,4.249,4.247,4.244,0,0,1.432,78.71,1692.909034488,0,10,Assisted_Takeoff,
30400,2025-09-03 05:35:13,48.1487291193504,11.5721736124998,0,,,1692.909034488,0.328084,0,0.45227363652,0.642060388,7,3,16.983,1692.909034488,0,0,0.45399935836,0,0,0,187.8, 0.6, -4.3,0,0,1024,1024,1024,1024,0,0,0,0,342.2,-21,-39.7,97,4.249,4.249,4.247,4.244,0,0,1.432,78.71,1692.909034488,0,10,Assisted_Takeoff,
30500,2025-09-03 05:35:13,48.1487291520268,11.5721736332271,0,,,1692.909034488,0.328084,0,0.46499017236,0.65500658264,7,3,16.983,1692.909034488,0,0,0.46499017236,0,0,0,187.8, 0.6, -4.3,0,0,1024,1024,1024,1024,0,0,0,0,342.1,-21,-39.7,97,4.249,4.249,4.247,4.244,0,0,1.432,78.71,1692.909034488,0,10,Assisted_Takeoff,
30600,2025-09-03 05:35:13,48.1487292100678,11.5721736476953,0,,,1692.909034488,0.328084,0,0.4864337426,0.67647311876,7,3,16.983,1692.909034488,0,0,0.4864337426,0,0,0,187.8, 0.6, -4.3,0,0,1024,1024,1024,1024,0,0,0,0,342,-21.1,-39.7,97,4.249,4.249,4.247,4.244,0,0,1.432,78.71,1692.909034488,0,10,Assisted_Takeoff,
30700,2025-09-03 05:35:13,48.1487292962222,11.5721736580694,0,,,1692.909034488,0.328084,0,0.51770999032,0.70800855284,7,3,16.983,1692.909034488,0,0,0.51770999032,0,0,0,187.8, 0.6, -4.3,0,0,1024,1024,1024,1024,0,0,0,0,341.9,-21.1,-39.7,97,4.249,4.249,4.247,4.244,0,0,1.432,78.71,1692.909034488,0,10,Assisted_Takeoff,
30800,2025-09-03 05:35:13,48.1487293562858,11.5721736158958,0,,,1692.909034488,0.328084,0,0.53728348176,0.73220802868,7,3,16.983,1692.909034488,0,0,0.53728348176,0,0,0,187.8, 0.6, -4.3,0,0,1024,1024,1024,1024,0,0,0,0,341.9,-21.1,-39.7,97,4.249,4.249,4.247,4.244,0,0,1.432,78.71,1692.909034488,0,10,Assisted_Takeoff,
30900,2025-09-03 05:35:13,48.1487294125485,11.5721735663091,0,,,1692.909034488,0.328084,0,0.5555774456,0.7560203654,7,3,16.703,1692.909034488,0,0,0.5555774456,0,0,0,187.8, 0.6, -4.3,0,0,1024,1024,1024,1024,0,0,0,0,341.9,-21.1,-39.7,97,4.192,4.193,4.189,4.187,0,0,5.044,78.71,1692.909034488,0,10,Assisted_Takeoff,
31000,2025-09-03 05:35:14,48.1487294594249,11.5721735092966,0,,,1692.909034488,0.328084,0,0.57065946708,0.77804792516,7,3,16.703,1692.909034488,0,0,0.57065946708,0,0,0,187.8, 0.6, -4.3,0,0,1024,1024,1024,1024,0,0,0,0,341.8,-21.2,-39.7,97,4.192,4.193,4.189,4.187,0,0,5.044,78.71,1692.909034488,0,10,Assisted_Takeoff,
31100,2025-09-03 05:35:14,48.1487295031616,11.5721734445565,0,,,1692.909034488,0.328084,0,0.58486550428,0.8004757474,7,3,16.703,1692.909034488,0,0,0.58486550428,0,0,0,187.8, 0.6, -4.3,0,0,1024,1024,1024,1024,0,0,0,0,341.7,-21.3,-39.7,97,4.192,4.193,4.189,4.187,0,0,5.044,78.71,1692.909034488,0,10,Assisted_Takeoff,
31200,2025-09-03 05:35:14,48.1487293521463,11.5721732519072,0,,,1692.909034488,0.328084,0,0.52739831084,0.87282811192,7,3,16.703,1692.909034488,0,0,0.58486550428,0,0,0,187.8, 0.6, -4.3,0,0,1024,1024,1024,1024,0,0,0,0,341.6,-21.3,-39.8,97,4.192,4.193,4.189,4.187,0,0,5.044,78.71,1692.909034488,0,10,Assisted_Takeoff,
31300,2025-09-03 05:35:14,48.1487293407634,11.5721732412153,0,,,1692.909034488,0.328084,0,0.52322180152,0.87772968688,7,3,16.703,1692.909034488,0,0,0.58486550428,0,0,0,187.8, 0.6, -4.3,0,0,1024,1024,1024,1024,0,0,0,0,341.5,-21.4,-39.8,97,4.192,4.193,4.189,4.187,0,0,5.044,78.71,1692.909034488,0,10,Assisted_Takeoff,
31400,2025-09-03 05:35:14,48.1487293749868,11.5721732436404,0,,,1692.909034488,0.328084,0,0.5357119594,0.89022968728,7,3,16.703,1692.909034488,0,0,0.58486550428,0,0,0,187.9, 0.5, -4.3,0,0,1024,1024,1024,1024,0,0,0,0,341.4,-21.4,-39.8,97,4.192,4.193,4.189,4.187,0,0,5.044,78.71,1692.909034488,0,10,Assisted_Takeoff,
31500,2025-09-03 05:35:14,48.1487294526017,11.5721732544911,0,,,1692.909034488,0.656168,0,0.56405513616,0.91867128924,7,3,16.703,1692.909034488,0,0,0.58486550428,0,0,0,187.9, 0.5, -4.3,0,0,1024,1024,1024,1024,0,0,0,0,341.4,-21.4,-39.8,97,4.192,4.193,4.189,4.187,0,0,5.044,78.71,1692.909034488,0,10,Assisted_Takeoff,
31600,2025-09-03 05:35:14,48.1487295094507,11.5721732352146,0,,,1692.909034488,0.656168,0,0.5847605174,0.93993441328,7,3,16.703,1692.909034488,0,0,0.58486550428,0,0,0,187.9, 0.6, -4.3,0,0,1024,1024,1024,1024,0,0,0,0,341.3,-21.5,-39.8,97,4.192,4.193,4.189,4.187,0,0,5.044,78.71,1692.909034488,0,10,Assisted_Takeoff,
31700,2025-09-03 05:35:14,48.148729519192,11.572173199329,0,,,1692.909034488,0.656168,0,0.58834975636,0.94936682828,7,3,16.703,1692.909034488,0,0,0.58834975636,0,0,0,187.9, 0.6, -4.3,0,0,1024,1024,1024,1024,0,0,0,0,341.2,-21.5,-39.8,97,4.192,4.193,4.189,4.187,0,0,5.044,78.71,1692.909034488,0,10,Assisted_Takeoff,
31800,2025-09-03 05:35:14,48.1487295636388,11.5721731802981,0,,,1692.909034488,0.656168,0,0.60463256528,0.96623034588,7,3,16.703,1692.909034488,0,0,0.60463256528,0,0,0,187.9, 0.6, -4.3,0,0,1024,1024,1024,1024,0,0,0,0,341.1,-21.6,-39.8,97,4.192,4.193,4.189,4.187,0,0,5.044,78.71,1692.909034488,0,10,Assisted_Takeoff,
31900,2025-09-03 05:35:14,48.1487296512198,11.5721731781106,0,,,1692.909034488,0.656168,0,0.63659122772,0.99818900832,7,3,16.811,1692.909034488,0,0,0.63659122772,0,0,0,187.9, 0.6, -4.3,0,0,1024,1024,1024,1024,0,0,0,0,341,-21.6,-39.8,97,4.231,4.233,4.23,4.226,0,0,1.846,78.71,1692.909034488,0,10,Assisted_Takeoff,
32000,2025-09-03 05:35:15,48.148729702291,11.5721731816398,0,,,1692.909034488,0.656168,0,0.65520671388,1.01684386456,7,3,16.811,1692.909034488,0,0,0.65520671388,0,0,0,187.9, 0.6, -4.3,0,0,1024,1024,1024,1024,0,0,0,0,340.9,-21.7,-39.8,97,4.231,4.233,4.23,4.226,0,0,1.846,78.71,1692.909034488,0,10,Assisted_Takeoff,
32100,2025-09-03 05:35:15,48.1487297468322,11.5721732216115,0,,,1692.909034488,0.656168,0,0.67136485088,1.03578415388,7,3,16.811,1692.909034488,0,0,0.67136485088,0,0,0,187.9, 0.6, -4.3,0,0,1024,1024,1024,1024,0,0,0,0,340.8,-21.7,-39.8,97,4.231,4.233,4.23,4.226,0,0,1.846,78.71,1692.909034488,0,10,Assisted_Takeoff,
32200,2025-09-03 05:35:15,48.1487297695718,11.5721732028935,0,,,1692.909034488,0.656168,0,0.67968834196,1.04524937728,7,3,16.811,1692.909034488,0,0,0.67968834196,0,0,0,187.9, 0.6, -4.3,0,0,1024,1024,1024,1024,0,0,0,0,340.8,-21.7,-39.8,97,4.231,4.233,4.23,4.226,0,0,1.846,78.71,1692.909034488,0,10,Assisted_Takeoff,
32300,2025-09-03 05:35:15,48.1487298045573,11.5721731605546,0,,,1692.909034488,0.656168,0,0.69261485156,1.06165685812,7,3,16.811,1692.909034488,0,0,0.69261485156,0,0,0,187.9, 0.6, -4.3,0,0,1024,1024,1024,1024,0,0,0,0,340.8,-21.8,-39.8,97,4.231,4.233,4.23,4.226,0,0,1.846,78.71,1692.909034488,0,10,Assisted_Takeoff,
32400,2025-09-03 05:35:15,48.1487298438973,11.5721731366303,0,,,1692.909034488,0.656168,0,0.7071194452,1.07714570376,7,3,16.811,1692.909034488,0,0,0.7071194452,0,0,0,187.9, 0.6, -4.3,0,0,1024,1024,1024,1024,0,0,0,0,340.7,-21.8,-39.8,97,4.231,4.233,4.23,4.226,0,0,1.846,78.71,1692.909034488,0,10,Assisted_Takeoff,
32500,2025-09-03 05:35:15,48.1487299253032,11.5721730910206,0,,,1692.909034488,0.656168,0,0.73722443304,1.10885174152,7,3,16.811,1692.909034488,0,0,0.73722443304,0,0,0,187.9, 0.6, -4.3,0,0,1024,1024,1024,1024,0,0,0,0,340.6,-21.9,-39.8,97,4.231,4.233,4.23,4.226,0,0,1.846,78.71,1692.909034488,0,10,Assisted_Takeoff,
32600,2025-09-03 05:35:15,48.148729975811,11.57217306804,0,,,1692.909034488,0.328084,0,0.75589897432,1.12811027232,7,3,16.811,1692.909034488,0,0,0.75589897432,0,0,0,187.9, 0.6, -4.3,0,0,1024,1024,1024,1024,0,0,0,0,340.5,-21.9,-39.8,97,4.231,4.233,4.23,4.226,0,0,1.846,78.71,1692.909034488,0,10,Assisted_Takeoff,
32700,2025-09-03 05:35:15,48.1487300300577,11.5721730265468,0,,,1692.909034488,0.328084,0,0.77623362064,1.15033140164,7,3,16.811,1692.909034488,0,0,0.77623362064,0,0,0,187.9, 0.6, -4.3,0,0,1024,1024,1024,1024,0,0,0,0,340.4,-22,-39.8,97,4.231,4.233,4.23,4.226,0,0,1.846,78.71,1692.909034488,0,10,Assisted_Takeoff,
32800,2025-09-03 05:35:15,48.1487300818781,11.5721730053958,0,,,1692.909034488,0.328084,0,0.79543637716,1.16992785896,7,3,16.811,1692.909034488,0,0,0.79543637716,0,0,0,187.9, 0.6, -4.3,0,0,1024,1024,1024,1024,0,0,0,0,340.3,-22,-39.8,97,4.231,4.233,4.23,4.226,0,0,1.846,78.71,1692.909034488,0,10,Assisted_Takeoff,
32900,2025-09-03 05:35:15,48.1487301493966,11.5721729819787,0,,,1692.909034488,0.328084,0,0.82041013124,1.19521329284,7,3,16.859,1692.909034488,0,0,0.82041013124,0,0,0,187.9, 0.5, -4.3,0,0,1024,1024,1024,1024,0,0,0,0,340.3,-22.1,-39.9,97,4.231,4.233,4.23,4.226,0,0,2.008,78.71,1692.909034488,0,10,Assisted_Takeoff,
33000,2025-09-03 05:35:16,48.1487301964912,11.5721729888172,0,,,1692.909034488,0.328084,0,0.83743112916,1.21247379208,7,3,16.859,1692.909034488,0,0,0.83743112916,0,0,0,187.9, 0.6, -4.3,0,0,1024,1024,1024,1024,0,0,0,0,340.2,-22.1,-39.9,97,4.231,4.233,4.23,4.226,0,0,2.008,78.71,1692.909034488,0,10,Assisted_Takeoff,
33100,2025-09-03 05:35:16,48.148730245338,11.572173003287,0,,,1692.909034488,0.328084,0,0.85498034232,1.23063980316,7,3,16.859,1692.909034488,0,0,0.85498034232,0,0,0,187.9, 0.6, -4.3,0,0,1024,1024,1024,1024,0,0,0,0,340.1,-22.2,-39.9,97,4.231,4.233,4.23,4.226,0,0,2.008,78.71,1692.909034488,0,10,Assisted_Takeoff,
33200,2025-09-03 05:35:16,48.1487302918334,11.5721730186283,0,,,1692.909034488,0.328084,0,0.87168309876,1.24801185096,7,3,16.859,1692.909034488,0,0,0.87168309876,0,0,0,187.9, 0.6, -4.3,0,0,1024,1024,1024,1024,0,0,0,0,340,-22.2,-39.9,97,4.231,4.233,4.23,4.226,0,0,2.008,78.71,1692.909034488,0,10,Assisted_Takeoff,
33300,2025-09-03 05:35:16,48.148730365527,11.5721730727825,0,,,1692.909034488,0.328084,0,0.89788060616,1.27795607764,7,3,16.859,1692.909034488,0,0,0.89788060616,0,0,0,187.9, 0.6, -4.3,0,0,1024,1024,1024,1024,0,0,0,0,339.9,-22.3,-39.9,97,4.231,4.233,4.23,4.226,0,0,2.008,78.71,1692.909034488,0,10,Assisted_Takeoff,
33400,2025-09-03 05:35:16,48.148730410928,11.5721730597009,0,,,1692.909034488,0.328084,0,0.9145669584,1.29482287608,7,3,16.859,1692.909034488,0,0,0.9145669584,0,0,0,187.9, 0.6, -4.3,0,0,1024,1024,1024,1024,0,0,0,0,339.8,-22.3,-39.9,97,4.231,4.233,4.23,4.226,0,0,2.008,78.71,1692.909034488,0,10,Assisted_Takeoff,
33500,2025-09-03 05:35:16,48.1487304576155,11.5721730162546,0,,,1692.909034488,0.328084,0,0.93210632904,1.31487537016,7,3,16.859,1692.909034488,0,0,0.93210632904,0,0,0,187.9, 0.6, -4.3,0,0,1024,1024,1024,1024,0,0,0,0,339.8,-22.3,-39.9,97,4.231,4.233,4.23,4.226,0,0,2.008,78.71,1692.909034488,0,10,Assisted_Takeoff,
33600,2025-09-03 05:35:16,48.1487305039935,11.5721729599948,0,,,1692.909034488,0.328084,0,0.94983926924,1.33664374356,7,3,16.859,1692.909034488,0,0,0.94983926924,0,0,0,187.9, 0.6, -4.3,0,0,1024,1024,1024,1024,0,0,0,0,339.8,-22.3,-39.9,97,4.231,4.233,4.23,4.226,0,0,2.008,78.71,1692.909034488,0,10,Assisted_Takeoff,
33700,2025-09-03 05:35:16,48.1487305533843,11.5721728985045,0,,,1692.909034488,0.328084,0,0.96894031972,1.36006894116,7,3,16.859,1692.909034488,0,0,0.96894031972,0,0,0,187.9, 0.6, -4.3,0,0,1024,1024,1024,1024,0,0,0,0,339.7,-22.4,-39.9,97,4.231,4.233,4.23,4.226,0,0,2.008,78.71,1692.909034488,0,10,Assisted_Takeoff,
33800,2025-09-03 05:35:16,48.1487306194828,11.5721726884983,0,,,1692.909034488,0.656168,0,0.9983924204,1.41659125268,7,3,16.859,1692.909034488,0,0,0.9983924204,0,0,0,187.9, 0.6, -4.3,0,0,1024,1024,1024,1024,0,0,0,0,339.6,-22.4,-39.9,97,4.231,4.233,4.23,4.226,0,0,2.008,78.71,1692.909034488,0,10,Assisted_Takeoff,
33900,2025-09-03 05:35:16,48.148730667789,11.572172625554,0,,,1692.909034488,0.656168,0,1.01795606932,1.43994755264,7,3,16.861,1692.909034488,0,0,1.01795606932,0,0,0,187.9, 0.6, -4.3,0,0,1024,1024,1024,1024,0,0,0,0,339.5,-22.5,-39.9,97,4.234,4.234,4.232,4.228,0,0,2.008,78.71,1692.909034488,0,10,Assisted_Takeoff,
34000,2025-09-03 05:35:17,48.1487307142941,11.5721726233505,0,,,1692.909034488,0.656168,0,1.0348261486,1.4569226188,7,3,16.861,1692.909034488,0,0,1.0348261486,0,0,0,187.9, 0.6, -4.3,0,0,1024,1024,1024,1024,0,0,0,0,339.4,-22.5,-39.9,97,4.234,4.234,4.232,4.228,0,0,2.008,78.71,1692.909034488,0,10,Assisted_Takeoff,
34100,2025-09-03 05:35:17,48.1487307641603,11.5721726688206,0,,,1692.909034488,0.656168,0,1.05135173968,1.47821855124,7,3,16.861,1692.909034488,0,0,1.05135173968,0,0,0,187.9, 0.6, -4.3,0,0,1024,1024,1024,1024,0,0,0,0,339.3,-22.6,-39.9,97,4.234,4.234,4.232,4.228,0,0,2.008,78.71,1692.909034488,0,10,Assisted_Takeoff,
34200,2025-09-03 05:35:17,48.1487308162412,11.5721726948826,0,,,1692.909034488,0.656168,0,1.06940948304,1.49825136028,7,3,16.861,1692.909034488,0,0,1.06940948304,0,0,0,187.9, 0.6, -4.3,0,0,1024,1024,1024,1024,0,0,0,0,339.3,-22.6,-40,97,4.234,4.234,4.232,4.228,0,0,2.008,78.71,1692.909034488,0,10,Assisted_Takeoff,
34300,2025-09-03 05:35:17,48.1487308738718,11.5721727055038,0,,,1692.909034488,0.656168,0,1.08998034984,1.51943574416,7,3,16.861,1692.909034488,0,0,1.08998034984,0,0,0,187.9, 0.6, -4.3,0,0,1024,1024,1024,1024,0,0,0,0,339.2,-22.7,-40,97,4.234,4.234,4.232,4.228,0,0,2.008,78.71,1692.909034488,0,10,Assisted_Takeoff,
34400,2025-09-03 05:35:17,48.1487309247965,11.5721727124017,0,,,1692.909034488,0.656168,0,1.10824478612,1.5380906004,7,3,16.861,1692.909034488,0,0,1.10824478612,0,0,0,187.9, 0.5, -4.3,0,0,1024,1024,1024,1024,0,0,0,0,339.1,-22.7,-40,97,4.234,4.234,4.232,4.228,0,0,2.008,78.71,1692.909034488,0,10,Assisted_Takeoff,
34500,2025-09-03 05:35:17,48.148730973272,11.5721727156548,0,,,1692.909034488,0.984252,0,1.12573166332,1.55579401304,7,3,16.861,1692.909034488,0,0,1.12573166332,0,0,0,187.9, 0.5, -4.3,0,0,1024,1024,1024,1024,0,0,0,0,339,-22.8,-40,97,4.234,4.234,4.232,4.228,0,0,2.008,78.71,1692.909034488,0,10,Assisted_Takeoff,
34600,2025-09-03 05:35:17,48.1487308053436,11.5721726512726,0,,,1692.909034488,0.984252,0,1.06680449608,1.61903548488,7,3,16.861,1692.909034488,0,0,1.12573166332,0,0,0,187.9, 0.6, -4.3,0,0,1024,1024,1024,1024,0,0,0,0,338.9,-22.8,-40,97,4.234,4.234,4.232,4.228,0,0,2.008,78.71,1692.909034488,0,10,Assisted_Takeoff,
34700,2025-09-03 05:35:17,48.148730747244,11.5721726102304,0,,,1692.909034488,0.984252,0,1.04718179204,1.642470525,7,3,16.861,1692.909034488,0,0,1.12573166332,0,0,0,187.9, 0.6, -4.3,0,0,1024,1024,1024,1024,0,0,0,0,338.8,-22.9,-40,97,4.234,4.234,4.232,4.228,0,0,2.008,78.71,1692.909034488,0,10,Assisted_Takeoff,
34800,2025-09-03 05:35:17,48.1487307258072,11.5721726138382,0,,,1692.909034488,0.984252,0,1.03931433772,1.65034126016,7,3,16.861,1692.909034488,0,0,1.12573166332,0,0,0,187.9, 0.5, -4.2,0,0,1024,1024,1024,1024,0,0,0,0,338.7,-22.9,-40,97,4.234,4.234,4.232,4.228,0,0,2.008,78.71,1692.909034488,0,10,Assisted_Takeoff,
34900,2025-09-03 05:35:17,48.148730741082,11.5721726598636,0,,,1692.909034488,0.984252,0,1.04328743496,1.66285438392,7,3,16.86,1692.909034488,0,0,1.12573166332,0,0,0,187.9, 0.5, -4.3,0,0,1024,1024,1024,1024,0,0,0,0,338.7,-22.9,-40,97,4.233,4.234,4.232,4.228,0,0,1.988,78.71,1692.909034488,0,10,Assisted_Takeoff,
35000,2025-09-03 05:35:18,48.1487307327736,11.5721726900486,0,,,1692.909034488,0.984252,0,1.03933402276,1.67080385924,7,3,16.86,1692.909034488,0,0,1.12573166332,0,0,0,187.9, 0.5, -4.3,0,0,1024,1024,1024,1024,0,0,0,0,338.7,-22.9,-40,97,4.233,4.234,4.232,4.228,0,0,1.988,78.71,1692.909034488,0,10,Assisted_Takeoff,
35100,2025-09-03 05:35:18,48.1487307280609,11.5721726622084,0,,,1692.909034488,0.984252,0,1.03850397024,1.67779532928,7,3,16.86,1692.909034488,0,0,1.12573166332,0,0,0,187.9, 0.5, -4.3,0,0,1024,1024,1024,1024,0,0,0,0,338.6,-23,-40,97,4.233,4.234,4.232,4.228,0,0,1.988,78.71,1692.909034488,0,10,Assisted_Takeoff,
35200,2025-09-03 05:35:18,48.1487307483416,11.5721726183544,0,,,1692.909034488,0.984252,0,1.04729662144,1.69078417484,7,3,16.86,1692.909034488,0,0,1.12573166332,0,0,0,187.9, 0.5, -4.2,0,0,1024,1024,1024,1024,0,0,0,0,338.5,-23,-40,97,4.233,4.234,4.232,4.228,0,0,1.988,78.71,1692.909034488,0,10,Assisted_Takeoff,
35300,2025-09-03 05:35:18,48.1487307891276,11.5721725603613,0,,,1692.909034488,0.984252,0,1.0640912414,1.71129598652,7,3,16.86,1692.909034488,0,0,1.12573166332,0,0,0,187.9, 0.5, -4.3,0,0,1024,1024,1024,1024,0,0,0,0,338.4,-23.1,-40,97,4.233,4.234,4.232,4.228,0,0,1.988,78.71,1692.909034488,0,10,Assisted_Takeoff,
35400,2025-09-03 05:35:18,48.1487308101508,11.5721725024291,0,,,1692.909034488,0.984252,0,1.07389767216,1.72734913664,7,3,16.86,1692.909034488,0,0,1.12573166332,0,0,0,187.9, 0.5, -4.3,0,0,1024,1024,1024,1024,0,0,0,0,338.3,-23.2,-40,97,4.233,4.234,4.232,4.228,0,0,1.988,78.71,1692.909034488,0,10,Assisted_Takeoff,
35500,2025-09-03 05:35:18,48.1487308776791,11.572172294811,0,,,1692.909034488,0.984252,0,1.107447542,1.78357289172,8,3,16.86,1692.909034488,0,0,1.12573166332,0,0,0,187.9, 0.5, -4.3,0,0,1024,1024,1024,1024,0,0,0,0,338.3,-23.2,-40,97,4.233,4.234,4.232,4.228,0,0,1.988,78.71,1692.909034488,0,10,Assisted_Takeoff,
35600,2025-09-03 05:35:18,48.1487309040078,11.5721722633196,0,,,1692.909034488,0.656168,0,1.11843507516,1.79586291836,8,3,16.86,1692.909034488,0,0,1.12573166332,0,0,0,187.9, 0.5, -4.3,0,0,1024,1024,1024,1024,0,0,0,0,338.2,-23.3,-40,97,4.233,4.234,4.232,4.228,0,0,1.988,78.71,1692.909034488,0,10,Assisted_Takeoff,
35700,2025-09-03 05:35:18,48.1487309470834,11.5721722559627,0,,,1692.909034488,0.656168,0,1.13417654548,1.81168312884,8,3,16.86,1692.909034488,0,0,1.13417654548,0,0,0,187.9, 0.5, -4.3,0,0,1024,1024,1024,1024,0,0,0,0,338.1,-23.3,-40,97,4.233,4.234,4.232,4.228,0,0,1.988,78.71,1692.909034488,0,10,Assisted_Takeoff,
35800,2025-09-03 05:35:18,48.1487309679275,11.5721722619795,0,,,1692.909034488,0.656168,0,1.14131565332,1.81942591124,8,3,16.86,1692.909034488,0,0,1.14131565332,0,0,0,187.9, 0.5, -4.3,0,0,1024,1024,1024,1024,0,0,0,0,338,-23.3,-40,97,4.233,4.234,4.232,4.228,0,0,1.988,78.71,1692.909034488,0,10,Assisted_Takeoff,
35900,2025-09-03 05:35:18,48.1487309992327,11.5721723718318,0,,,1692.909034488,0.328084,0,1.1473425564,1.84850399616,8,3,16.861,1692.909034488,0,0,1.1473425564,0,0,0,187.9, 0.5, -4.3,0,0,1024,1024,1024,1024,0,0,0,0,337.9,-23.4,-40,97,4.233,4.234,4.232,4.229,0,0,1.992,78.71,1692.909034488,0,10,Assisted_Takeoff,
36000,2025-09-03 05:35:19,48.1487310214219,11.5721723903476,0,,,1692.909034488,0.656168,0,1.15450134928,1.85776908832,8,3,16.861,1692.909034488,0,0,1.15450134928,0,0,0,187.9, 0.6, -4.3,0,0,1024,1024,1024,1024,0,0,0,0,337.8,-23.4,-40,97,4.233,4.234,4.232,4.229,0,0,1.992,78.71,1692.909034488,0,10,Assisted_Takeoff,
36100,2025-09-03 05:35:19,48.1487310604752,11.5721724102002,0,,,1692.909034488,0.656168,0,1.16769688776,1.87281502056,8,3,16.861,1692.909034488,0,0,1.16769688776,0,0,0,187.9, 0.6, -4.3,0,0,1024,1024,1024,1024,0,0,0,0,337.8,-23.5,-40,97,4.233,4.234,4.232,4.229,0,0,1.992,78.71,1692.909034488,0,10,Assisted_Takeoff,
36200,2025-09-03 05:35:19,48.1487311349895,11.5721724275669,0,,,1692.909034488,0.656168,0,1.1937992508,1.9003281448,8,3,16.861,1692.909034488,0,0,1.1937992508,0,0,0,187.9, 0.5, -4.2,0,0,1024,1024,1024,1024,0,0,0,0,337.7,-23.5,-40,97,4.233,4.234,4.232,4.229,0,0,1.992,78.71,1692.909034488,0,10,Assisted_Takeoff,
36300,2025-09-03 05:35:19,48.1487314165605,11.5721724671454,0,,,1692.909034488,0.656168,0,1.29385174744,2.0035105628,8,3,16.861,1692.909034488,0,0,1.29385174744,0,0,0,187.9, 0.5, -4.2,0,0,1024,1024,1024,1024,0,0,0,0,337.6,-23.6,-40.1,97,4.233,4.234,4.232,4.229,0,0,1.992,78.71,1692.909034488,0,10,Assisted_Takeoff,
36400,2025-09-03 05:35:19,48.1487314721849,11.5721724425422,0,,,1692.909034488,0.656168,0,1.31479663,2.0246719808,8,3,16.861,1692.909034488,0,0,1.31479663,0,0,0,187.9, 0.6, -4.3,0,0,1024,1024,1024,1024,0,0,0,0,337.6,-23.6,-40.1,97,4.233,4.234,4.232,4.229,0,0,1.992,78.71,1692.909034488,0,10,Assisted_Takeoff,
36500,2025-09-03 05:35:19,48.1487314920096,11.5721723929475,0,,,1692.909034488,0.656168,0,1.3237533232,2.03874350356,8,3,16.861,1692.909034488,0,0,1.3237533232,0,0,0,187.9, 0.6, -4.3,0,0,1024,1024,1024,1024,0,0,0,0,337.5,-23.6,-40.1,97,4.233,4.234,4.232,4.229,0,0,1.992,78.71,1692.909034488,0,10,Assisted_Takeoff,
36600,2025-09-03 05:35:19,48.1487315193577,11.572172362602,0,,,1692.909034488,0.656168,0,1.33475726056,2.05115820212,8,3,16.861,1692.909034488,0,0,1.33475726056,0,0,0,187.9, 0.5, -4.3,0,0,1024,1024,1024,1024,0,0,0,0,337.4,-23.7,-40.1,97,4.233,4.234,4.232,4.229,0,0,1.992,78.71,1692.909034488,0,10,Assisted_Takeoff,
36700,2025-09-03 05:35:19,48.1487315126974,11.5721722973692,0,,,1692.909034488,0.656168,0,1.3349573918,2.0672244756,8,3,16.861,1692.909034488,0,0,1.3349573918,0,0,0,187.9, 0.5, -4.3,0,0,1024,1024,1024,1024,0,0,0,0,337.3,-23.7,-40.1,97,4.233,4.234,4.232,4.229,0,0,1.992,78.71,1692.909034488,0,10,Assisted_Takeoff,
36800,2025-09-03 05:35:19,48.1487315220251,11.5721722670189,0,,,1692.909034488,0.656168,0,1.33958009536,2.07535767796,8,3,16.861,1692.909034488,0,0,1.33958009536,0,0,0,187.9, 0.6, -4.3,0,0,1024,1024,1024,1024,0,0,0,0,337.2,-23.8,-40.1,97,4.233,4.234,4.232,4.229,0,0,1.992,78.71,1692.909034488,0,10,Assisted_Takeoff,
36900,2025-09-03 05:35:19,48.1487315105706,11.5721722184385,0,,,1692.909034488,0.656168,0,1.33758534464,2.08790032928,8,3,16.86,1692.909034488,0,0,1.33958009536,0,0,0,187.9, 0.6, -4.3,0,0,1024,1024,1024,1024,0,0,0,0,337.2,-23.8,-40.1,97,4.233,4.234,4.232,4.228,0,0,1.996,78.71,1692.909034488,0,10,Assisted_Takeoff,
37000,2025-09-03 05:35:20,48.1487315200254,11.5721722198203,0,,,1692.909034488,0.656168,0,1.34091539724,2.09136817716,8,3,16.86,1692.909034488,0,0,1.34091539724,0,0,0,187.9, 0.5, -4.3,0,0,1024,1024,1024,1024,0,0,0,0,337.1,-23.8,-40.1,97,4.233,4.234,4.232,4.228,0,0,1.996,78.71,1692.909034488,0,10,Assisted_Takeoff,
37100,2025-09-03 05:35:20,48.1487315501581,11.5721722605736,0,,,1692.909034488,0.656168,0,1.34996067312,2.10617460808,8,3,16.86,1692.909034488,0,0,1.34996067312,0,0,0,187.9, 0.5, -4.2,0,0,1024,1024,1024,1024,0,0,0,0,337,-23.9,-40.1,97,4.233,4.234,4.232,4.228,0,0,1.996,78.71,1692.909034488,0,10,Assisted_Takeoff,
37200,2025-09-03 05:35:20,48.1487315643679,11.5721722686109,0,,,1692.909034488,0.656168,0,1.35472773364,2.11171594684,8,3,16.86,1692.909034488,0,0,1.35472773364,0,0,0,187.9, 0.6, -4.3,0,0,1024,1024,1024,1024,0,0,0,0,336.9,-23.9,-40.1,97,4.233,4.234,4.232,4.228,0,0,1.996,78.71,1692.909034488,0,10,Assisted_Takeoff,
37300,2025-09-03 05:35:20,48.1487316147031,11.5721721833955,0,,,1692.909034488,0.656168,0,1.37649938788,2.13942264064,8,3,16.86,1692.909034488,0,0,1.37649938788,0,0,0,187.9, 0.6, -4.3,0,0,1024,1024,1024,1024,0,0,0,0,336.8,-24,-40.1,97,4.233,4.234,4.232,4.228,0,0,1.996,78.71,1692.909034488,0,10,Assisted_Takeoff,
37400,2025-09-03 05:35:20,48.1487316371724,11.5721721313196,0,,,1692.909034488,0.656168,0,1.38693902076,2.15451778548,8,3,16.86,1692.909034488,0,0,1.38693902076,0,0,0,187.9, 0.6, -4.3,0,0,1024,1024,1024,1024,0,0,0,0,336.8,-24.1,-40.1,97,4.233,4.234,4.232,4.228,0,0,1.996,78.71,1692.909034488,0,10,Assisted_Takeoff,
37500,2025-09-03 05:35:20,48.1487316400319,11.5721721038276,0,,,1692.909034488,0.656168,0,1.38926513632,2.16128943924,8,3,16.86,1692.909034488,0,0,1.38926513632,0,0,0,187.9, 0.6, -4.3,0,0,1024,1024,1024,1024,0,0,0,0,336.7,-24.1,-40.1,97,4.233,4.234,4.232,4.228,0,0,1.996,78.71,1692.909034488,0,10,Assisted_Takeoff,
37600,2025-09-03 05:35:20,48.1487316727864,11.5721720856553,0,,,1692.909034488,0.656168,0,1.4018537194,2.1740322218,8,3,16.86,1692.909034488,0,0,1.4018537194,0,0,0,187.9, 0.6, -4.3,0,0,1024,1024,1024,1024,0,0,0,0,336.6,-24.1,-40.1,97,4.233,4.234,4.232,4.228,0,0,1.996,78.71,1692.909034488,0,10,Assisted_Takeoff,
37700,2025-09-03 05:35:20,48.1487317320911,11.572172072256,0,,,1692.909034488,0.984252,0,1.42370739464,2.1959154246,8,3,16.86,1692.909034488,0,0,1.42370739464,0,0,0,187.9, 0.6, -4.3,0,0,1024,1024,1024,1024,0,0,0,0,336.5,-24.1,-40.1,97,4.233,4.234,4.232,4.228,0,0,1.996,78.71,1692.909034488,0,10,Assisted_Takeoff,
37800,2025-09-03 05:35:20,48.1487317849211,11.5721720480733,0,,,1692.909034488,0.984252,0,1.4437664504,2.21606962472,8,3,16.86,1692.909034488,0,0,1.4437664504,0,0,0,187.9, 0.5, -4.3,0,0,1024,1024,1024,1024,0,0,0,0,336.5,-24.1,-40.1,97,4.233,4.234,4.232,4.228,0,0,1.996,78.71,1692.909034488,0,10,Assisted_Takeoff,
37900,2025-09-03 05:35:20,48.1487318363441,11.5721720121909,0,,,1692.909034488,0.984252,0,1.46389768464,2.23676516344,8,3,16.861,1692.909034488,0,0,1.46389768464,0,0,0,187.9, 0.5, -4.3,0,0,1024,1024,1024,1024,0,0,0,0,336.4,-24.2,-40.1,97,4.233,4.234,4.232,4.228,0,0,1.996,78.71,1692.909034488,0,10,Assisted_Takeoff,
38000,2025-09-03 05:35:21,48.1487318608098,11.5721718722675,0,,,1692.909034488,0.984252,0,1.47985897124,2.27197513832,8,3,16.861,1692.909034488,0,0,1.47985897124,0,0,0,187.9, 0.6, -4.3,0,0,1024,1024,1024,1024,0,0,0,0,336.4,-24.3,-40.1,97,4.233,4.234,4.232,4.228,0,0,1.996,78.71,1692.909034488,0,10,Assisted_Takeoff,
38100,2025-09-03 05:35:21,48.148731867024,11.5721718207084,0,,,1692.909034488,0.984252,0,1.48491146484,2.28473104424,8,3,16.861,1692.909034488,0,0,1.48491146484,0,0,0,187.9, 0.6, -4.3,0,0,1024,1024,1024,1024,0,0,0,0,336.3,-24.3,-40.1,97,4.233,4.234,4.232,4.228,0,0,1.996,78.71,1692.909034488,0,10,Assisted_Takeoff,
38200,2025-09-03 05:35:21,48.1487318900632,11.5721717963974,0,,,1692.909034488,0.984252,0,1.49445870924,2.29500991596,8,3,16.861,1692.909034488,0,0,1.49445870924,0,0,0,187.9, 0.6, -4.3,0,0,1024,1024,1024,1024,0,0,0,0,336.2,-24.4,-40.1,97,4.233,4.234,4.232,4.228,0,0,1.996,78.71,1692.909034488,0,10,Assisted_Takeoff,
38300,2025-09-03 05:35:21,48.1487319294911,11.5721717930704,0,,,1692.909034488,0.656168,0,1.50863849972,2.30941936524,8,3,16.861,1692.909034488,0,0,1.50863849972,0,0,0,187.9, 0.6, -4.3,0,0,1024,1024,1024,1024,0,0,0,0,336.1,-24.4,-40.1,97,4.233,4.234,4.232,4.228,0,0,1.996,78.71,1692.909034488,0,10,Assisted_Takeoff,
38400,2025-09-03 05:35:21,48.1487319238078,11.5721717676696,0,,,1692.909034488,0.984252,0,1.50806763356,2.31593839432,8,3,16.861,1692.909034488,0,0,1.50863849972,0,0,0,187.9, 0.5, -4.3,0,0,1024,1024,1024,1024,0,0,0,0,336,-24.4,-40.1,97,4.233,4.234,4.232,4.228,0,0,1.996,78.71,1692.909034488,0,10,Assisted_Takeoff,
38500,2025-09-03 05:35:21,48.1487319233356,11.5721717273513,0,,,1692.909034488,0.984252,0,1.51024283048,2.3257546676,8,3,16.861,1692.909034488,0,0,1.51024283048,0,0,0,187.9, 0.5, -4.3,0,0,1024,1024,1024,1024,0,0,0,0,335.9,-24.5,-40.1,97,4.233,4.234,4.232,4.228,0,0,1.996,78.71,1692.909034488,0,10,Assisted_Takeoff,
38600,2025-09-03 05:35:21,48.1487319147895,11.5721717072146,0,,,1692.909034488,0.656168,0,1.50841212176,2.33156503524,8,3,16.861,1692.909034488,0,0,1.51024283048,0,0,0,187.9, 0.6, -4.2,0,0,1024,1024,1024,1024,0,0,0,0,335.8,-24.5,-40.1,97,4.233,4.234,4.232,4.228,0,0,1.996,78.71,1692.909034488,0,10,Assisted_Takeoff,
38700,2025-09-03 05:35:21,48.1487319017131,11.5721717020949,0,,,1692.909034488,0.656168,0,1.50409453632,2.33649613776,8,3,16.861,1692.909034488,0,0,1.51024283048,0,0,0,187.9, 0.6, -4.3,0,0,1024,1024,1024,1024,0,0,0,0,335.8,-24.5,-40.2,97,4.233,4.234,4.232,4.228,0,0,1.996,78.71,1692.909034488,0,10,Assisted_Takeoff,
38800,2025-09-03 05:35:21,48.1487319473291,11.5721716786794,0,,,1692.909034488,0.656168,0,1.52162734528,2.35408800184,8,3,16.861,1692.909034488,0,0,1.52162734528,0,0,0,187.9, 0.5, -4.3,0,0,1024,1024,1024,1024,0,0,0,0,335.7,-24.6,-40.2,97,4.233,4.234,4.232,4.228,0,0,1.996,78.71,1692.909034488,0,10,Assisted_Takeoff,
38900,2025-09-03 05:35:21,48.1487321291839,11.5721716383466,0,,,1692.909034488,0.656168,0,1.58835635004,2.4211614948,8,3,16.86,1692.909034488,0,0,1.58835635004,0,0,0,187.9, 0.5, -4.3,0,0,1024,1024,1024,1024,0,0,0,0,335.6,-24.7,-40.2,97,4.233,4.234,4.232,4.228,0,0,1.996,78.71,1692.909034488,0,10,Assisted_Takeoff,
39000,2025-09-03 05:35:22,48.1487321793042,11.5721715953866,0,,,1692.909034488,0.656168,0,1.60865162628,2.4422244876,8,3,16.86,1692.909034488,0,0,1.60865162628,0,0,0,187.9, 0.6, -4.3,0,0,1024,1024,1024,1024,0,0,0,0,335.5,-24.7,-40.2,97,4.233,4.234,4.232,4.228,0,0,1.996,78.71,1692.909034488,0,10,Assisted_Takeoff,
39100,2025-09-03 05:35:22,48.1487321989595,11.5721715442785,0,,,1692.909034488,0.656168,0,1.61870412004,2.45658472428,8,3,16.86,1692.909034488,0,0,1.61870412004,0,0,0,187.9, 0.6, -4.3,0,0,1024,1024,1024,1024,0,0,0,0,335.5,-24.7,-40.2,97,4.233,4.234,4.232,4.228,0,0,1.996,78.71,1692.909034488,0,10,Assisted_Takeoff,
39200,2025-09-03 05:35:22,48.1487322290043,11.5721714917147,0,,,1692.909034488,0.656168,0,1.63257551156,2.47343511852,8,3,16.86,1692.909034488,0,0,1.63257551156,0,0,0,187.9, 0.5, -4.3,0,0,1024,1024,1024,1024,0,0,0,0,335.4,-24.7,-40.2,97,4.233,4.234,4.232,4.228,0,0,1.996,78.71,1692.909034488,0,10,Assisted_Takeoff,
39300,2025-09-03 05:35:22,48.1487322849283,11.5721713524782,0,,,1692.909034488,0.656168,0,1.66127958072,2.51299548724,8,3,16.86,1692.909034488,0,0,1.66127958072,0,0,0,187.9, 0.5, -4.3,0,0,1024,1024,1024,1024,0,0,0,0,335.4,-24.8,-40.2,97,4.233,4.234,4.232,4.228,0,0,1.996,78.71,1692.909034488,0,10,Assisted_Takeoff,
39400,2025-09-03 05:35:22,48.1487323293783,11.5721712997363,0,,,1692.909034488,0.656168,0,1.68042000128,2.53368118344,8,3,16.86,1692.909034488,0,0,1.68042000128,0,0,0,187.9, 0.6, -4.3,0,0,1024,1024,1024,1024,0,0,0,0,335.3,-24.9,-40.2,97,4.233,4.234,4.232,4.228,0,0,1.996,78.71,1692.909034488,0,10,Assisted_Takeoff,
39500,2025-09-03 05:35:22,48.1487323798601,11.5721712449273,0,,,1692.909034488,0.656168,0,1.70184716732,2.55642396632,8,3,16.86,1692.909034488,0,0,1.70184716732,0,0,0,187.9, 0.6, -4.3,0,0,1024,1024,1024,1024,0,0,0,0,335.2,-24.9,-40.2,97,4.233,4.234,4.232,4.228,0,0,1.996,78.71,1692.909034488,0,10,Assisted_Takeoff,
39600,2025-09-03 05:35:22,48.148732403365,11.5721712189407,0,,,1692.909034488,0.656168,0,1.71186685268,2.56708013464,8,3,16.86,1692.909034488,0,0,1.71186685268,0,0,0,187.9, 0.5, -4.3,0,0,1024,1024,1024,1024,0,0,0,0,335.1,-25,-40.2,97,4.233,4.234,4.232,4.228,0,0,1.996,78.71,1692.909034488,0,10,Assisted_Takeoff,
39700,2025-09-03 05:35:22,48.1487323792738,11.572171256871,0,,,1692.909034488,0.656168,0,1.7008202644,2.57982947888,8,3,16.86,1692.909034488,0,0,1.71186685268,0,0,0,187.9, 0.5, -4.3,0,0,1024,1024,1024,1024,0,0,0,0,335,-25,-40.2,97,4.233,4.234,4.232,4.228,0,0,1.996,78.71,1692.909034488,0,10,Assisted_Takeoff,
39800,2025-09-03 05:35:22,48.1487323955322,11.5721712129577,0,,,1692.909034488,0.656168,0,1.7095472988,2.59205388872,8,3,16.86,1692.909034488,0,0,1.71186685268,0,0,0,187.9, 0.6, -4.3,0,0,1024,1024,1024,1024,0,0,0,0,334.9,-25.1,-40.2,97,4.233,4.234,4.232,4.228,0,0,1.996,78.71,1692.909034488,0,10,Assisted_Takeoff,
39900,2025-09-03 05:35:22,48.1487324300194,11.5721711251503,0,,,1692.909034488,0.656168,0,1.72781173508,2.61685703912,8,3,16.859,1692.909034488,0,0,1.72781173508,0,0,0,187.9, 0.6, -4.3,0,0,1024,1024,1024,1024,0,0,0,0,334.9,-25.1,-40.2,97,4.233,4.234,4.231,4.228,0,0,1.994,78.71,1692.909034488,0,10,Assisted_Takeoff,
40000,2025-09-03 05:35:23,48.1487324711409,11.5721710499157,0,,,1692.909034488,0.656168,0,1.74761488532,2.64053158056,8,3,16.859,1692.909034488,0,0,1.74761488532,0,0,0,187.9, 0.6, -4.3,0,0,1024,1024,1024,1024,0,0,0,0,334.8,-25.1,-40.2,97,4.233,4.234,4.231,4.228,0,0,1.994,78.71,1692.909034488,0,10,Assisted_Takeoff,
40100,2025-09-03 05:35:23,48.1487325819272,11.5721708759972,0,,,1692.909034488,0.656168,0,1.79918969012,2.699065047,8,3,16.859,1692.909034488,0,0,1.79918969012,0,0,0,187.9, 0.6, -4.3,0,0,1024,1024,1024,1024,0,0,0,0,334.7,-25.2,-40.2,97,4.233,4.234,4.231,4.228,0,0,1.994,78.71,1692.909034488,0,10,Assisted_Takeoff,
40200,2025-09-03 05:35:23,48.1487326327835,11.5721707932437,0,,,1692.909034488,0.656168,0,1.82323496648,2.72645349932,8,3,16.859,1692.909034488,0,0,1.82323496648,0,0,0,187.9, 0.6, -4.3,0,0,1024,1024,1024,1024,0,0,0,0,334.6,-25.3,-40.2,97,4.233,4.234,4.231,4.228,0,0,1.994,78.71,1692.909034488,0,10,Assisted_Takeoff,
40300,2025-09-03 05:35:23,48.1487326867436,11.5721706878995,0,,,1692.909034488,0.656168,0,1.85027236892,2.75878289668,8,3,16.859,1692.909034488,0,0,1.85027236892,0,0,0,187.9, 0.6, -4.3,0,0,1024,1024,1024,1024,0,0,0,0,334.5,-25.3,-40.2,97,4.233,4.234,4.231,4.228,0,0,1.994,78.71,1692.909034488,0,10,Assisted_Takeoff,
40400,2025-09-03 05:35:23,48.1487327376781,11.5721705807482,0,,,1692.909034488,0.656168,0,1.8765912674,2.79080717592,8,3,16.859,1692.909034488,0,0,1.8765912674,0,0,0,187.9, 0.6, -4.3,0,0,1024,1024,1024,1024,0,0,0,0,334.4,-25.4,-40.2,97,4.233,4.234,4.231,4.228,0,0,1.994,78.71,1692.909034488,0,10,Assisted_Takeoff,
40500,2025-09-03 05:35:23,48.1487327896938,11.5721704641777,0,,,1692.909034488,0.656168,0,1.9042651528,2.82494759696,8,4,16.859,1692.909034488,0,0,1.9042651528,0,0,0,187.9, 0.6, -4.3,0,0,1024,1024,1024,1024,0,0,0,0,334.4,-25.4,-40.2,97,4.233,4.234,4.231,4.228,0,0,1.994,78.71,1692.909034488,0,10,Assisted_Takeoff,
40600,2025-09-03 05:35:23,48.1487328904717,11.5721701998471,0,,,1692.909034488,0.656168,0,1.96195544336,2.89905521088,8,4,16.859,1692.909034488,0,0,1.96195544336,0,0,0,187.9, 0.5, -4.3,0,0,1024,1024,1024,1024,0,0,0,0,334.3,-25.4,-40.2,97,4.233,4.234,4.231,4.228,0,0,1.994,78.71,1692.909034488,0,10,Assisted_Takeoff,
40700,2025-09-03 05:35:23,48.1487329401653,11.5721700834083,0,,,1692.909034488,0.656168,0,1.989501376,2.93270350592,8,4,16.859,1692.909034488,0,0,1.989501376,0,0,0,187.9, 0.5, -4.3,0,0,1024,1024,1024,1024,0,0,0,0,334.3,-25.4,-40.2,97,4.233,4.234,4.231,4.228,0,0,1.994,78.71,1692.909034488,0,10,Assisted_Takeoff,
40800,2025-09-03 05:35:23,48.1487329611625,11.572169975026,0,,,1692.909034488,0.656168,0,2.00683405372,2.96017726008,8,4,16.859,1692.909034488,0,0,2.00683405372,0,0,0,187.9, 0.6, -4.3,0,0,1024,1024,1024,1024,0,0,0,0,334.2,-25.5,-40.2,97,4.233,4.234,4.231,4.228,0,0,1.994,78.71,1692.909034488,0,10,Assisted_Takeoff,
40900,2025-09-03 05:35:23,48.1487329579837,11.5721698662008,0,,,1692.909034488,0.656168,0,2.0163714556,2.98669300896,7,3,16.861,1692.909034488,0,0,2.0163714556,0,0,0,187.9, 0.6, -4.3,0,0,1024,1024,1024,1024,0,0,0,0,334.1,-25.6,-40.2,97,4.233,4.233,4.231,4.228,0,0,2.002,78.71,1692.909034488,0,10,Assisted_Takeoff,
41000,2025-09-03 05:35:24,48.1487329524991,11.5721697406317,0,,,1692.909034488,0.656168,0,2.02714573416,3.01732621204,7,3,16.861,1692.909034488,0,0,2.02714573416,0,0,0,187.9, 0.5, -4.3,0,0,1024,1024,1024,1024,0,0,0,0,334,-25.6,-40.2,97,4.233,4.233,4.231,4.228,0,0,2.002,78.71,1692.909034488,0,10,Assisted_Takeoff,
41100,2025-09-03 05:35:24,48.1487330387969,11.5721696885927,0,,,1692.909034488,0.328084,0,2.06104337304,3.051263221,7,3,16.861,1692.909034488,0,0,2.06104337304,0,0,0,187.9, 0.5, -4.3,0,0,1024,1024,1024,1024,0,0,0,0,333.9,-25.6,-40.2,97,4.233,4.233,4.231,4.228,0,0,2.002,78.71,1692.909034488,0,10,Assisted_Takeoff,
41200,2025-09-03 05:35:24,48.1487330872855,11.5721696506689,0,,,1692.909034488,0.328084,0,2.08097447604,3.07121728988,7,3,16.861,1692.909034488,0,0,2.08097447604,0,0,0,187.9, 0.5, -4.3,0,0,1024,1024,1024,1024,0,0,0,0,333.8,-25.7,-40.2,97,4.233,4.233,4.231,4.228,0,0,2.002,78.71,1692.909034488,0,10,Assisted_Takeoff,
41300,2025-09-03 05:35:24,48.1487331022704,11.5721696195065,0,,,1692.909034488,0.656168,0,2.08912080176,3.08056768388,7,3,16.861,1692.909034488,0,0,2.08912080176,0,0,0,187.9, 0.5, -4.3,0,0,1024,1024,1024,1024,0,0,0,0,333.7,-25.7,-40.2,97,4.233,4.233,4.231,4.228,0,0,2.002,78.71,1692.909034488,0,10,Assisted_Takeoff,
41400,2025-09-03 05:35:24,48.148733145942,11.5721696767148,0,,,1692.909034488,0.656168,0,2.09781174692,3.10172910188,7,3,16.861,1692.909034488,0,0,2.09781174692,0,0,0,187.9, 0.5, -4.3,0,0,1024,1024,1024,1024,0,0,0,0,333.7,-25.8,-40.2,97,4.233,4.233,4.231,4.228,0,0,2.002,78.71,1692.909034488,0,10,Assisted_Takeoff,
41500,2025-09-03 05:35:24,48.1487331772244,11.5721695932102,0,,,1692.909034488,0.656168,0,2.11663064516,3.12504275092,7,3,16.861,1692.909034488,0,0,2.11663064516,0,0,0,187.9, 0.5, -4.3,0,0,1024,1024,1024,1024,0,0,0,0,333.6,-25.9,-40.2,97,4.233,4.233,4.231,4.228,0,0,2.002,78.71,1692.909034488,0,10,Assisted_Takeoff,
41600,2025-09-03 05:35:24,48.148733186741,11.5721695018832,0,,,1692.909034488,0.656168,0,2.12916017312,3.14754275164,7,3,16.861,1692.909034488,0,0,2.12916017312,0,0,0,187.9, 0.6, -4.3,0,0,1024,1024,1024,1024,0,0,0,0,333.5,-26,-40.2,97,4.233,4.233,4.231,4.228,0,0,2.002,78.71,1692.909034488,0,10,Assisted_Takeoff,
41700,2025-09-03 05:35:24,48.1487331774361,11.572169396133,0,,,1692.909034488,0.656168,0,2.13719495028,3.17351060024,7,3,16.861,1692.909034488,0,0,2.13719495028,0,0,0,187.9, 0.6, -4.2,0,0,1024,1024,1024,1024,0,0,0,0,333.4,-26,-40.2,97,4.233,4.233,4.231,4.228,0,0,2.002,78.71,1692.909034488,0,10,Assisted_Takeoff,
41800,2025-09-03 05:35:24,48.148733186728,11.5721691848669,0,,,1692.909034488,0.656168,0,2.16314639468,3.2250493158,7,3,16.861,1692.909034488,0,0,2.16314639468,0,0,0,187.9, 0.6, -4.3,0,0,1024,1024,1024,1024,0,0,0,0,333.3,-26,-40.2,97,4.233,4.233,4.231,4.228,0,0,2.002,78.71,1692.909034488,0,10,Assisted_Takeoff,
41900,2025-09-03 05:35:24,48.1487332228176,11.5721690755586,0,,,1692.909034488,0.656168,0,2.18704731408,3.25473763696,7,3,16.856,1692.909034488,0,0,2.18704731408,0,0,0,187.9, 0.6, -4.3,0,0,1024,1024,1024,1024,0,0,0,0,333.3,-26,-40.2,97,4.233,4.233,4.231,4.228,0,0,1.998,78.71,1692.909034488,0,10,Assisted_Takeoff,
42000,2025-09-03 05:35:25,48.1487332655349,11.5721690017877,0,,,1692.909034488,0.656168,0,2.2091864224,3.27851388444,7,3,16.856,1692.909034488,0,0,2.2091864224,0,0,0,187.9, 0.6, -4.3,0,0,1024,1024,1024,1024,0,0,0,0,333.2,-26,-40.2,97,4.233,4.233,4.231,4.228,0,0,1.998,78.71,1692.909034488,0,10,Assisted_Takeoff,
42100,2025-09-03 05:35:25,48.1487333192378,11.5721689528895,0,,,1692.909034488,0.656168,0,2.23206700056,3.3014436752,7,3,16.856,1692.909034488,0,0,2.23206700056,0,0,0,187.9, 0.6, -4.3,0,0,1024,1024,1024,1024,0,0,0,0,333.2,-26.1,-40.2,97,4.233,4.233,4.231,4.228,0,0,1.998,78.71,1692.909034488,0,10,Assisted_Takeoff,
42200,2025-09-03 05:35:25,48.1487333992595,11.5721688907814,0,,,1692.909034488,0.656168,0,2.2649442982,3.334317692,7,3,16.856,1692.909034488,0,0,2.2649442982,0,0,0,188, 0.5, -4.3,0,0,1024,1024,1024,1024,0,0,0,0,333.1,-26.1,-40.2,97,4.233,4.233,4.231,4.228,0,0,1.998,78.71,1692.909034488,0,10,Assisted_Takeoff,
42300,2025-09-03 05:35:25,48.1487336491377,11.5721688298289,0,,,1692.909034488,0.656168,0,2.3527067682,3.426673338,7,3,16.856,1692.909034488,0,0,2.3527067682,0,0,0,188, 0.5, -4.3,0,0,1024,1024,1024,1024,0,0,0,0,333,-26.2,-40.2,97,4.233,4.233,4.231,4.228,0,0,1.998,78.71,1692.909034488,0,10,Assisted_Takeoff,
42400,2025-09-03 05:35:25,48.1487337047263,11.572168706513,0,,,1692.909034488,0.656168,0,2.38448826528,3.46292662,7,3,16.856,1692.909034488,0,0,2.38448826528,0,0,0,188, 0.5, -4.3,0,0,1024,1024,1024,1024,0,0,0,0,332.9,-26.3,-40.2,97,4.233,4.233,4.231,4.228,0,0,1.998,78.71,1692.909034488,0,10,Assisted_Takeoff,
42500,2025-09-03 05:35:25,48.1487337207665,11.5721685482038,0,,,1692.909034488,0.656168,0,2.40767068072,3.5019029992,7,3,16.856,1692.909034488,0,0,2.40767068072,0,0,0,188, 0.5, -4.3,0,0,1024,1024,1024,1024,0,0,0,0,332.8,-26.3,-40.2,97,4.233,4.233,4.231,4.228,0,0,1.998,78.71,1692.909034488,0,10,Assisted_Takeoff,
42600,2025-09-03 05:35:25,48.1487337424476,11.57216841457,0,,,1692.909034488,0.656168,0,2.43015427724,3.5353675672,7,3,16.856,1692.909034488,0,0,2.43015427724,0,0,0,188, 0.6, -4.3,0,0,1024,1024,1024,1024,0,0,0,0,332.7,-26.3,-40.3,97,4.233,4.233,4.231,4.228,0,0,1.998,78.71,1692.909034488,0,10,Assisted_Takeoff,
42700,2025-09-03 05:35:25,48.148733742555,11.5721681695962,0,,,1692.909034488,0.328084,0,2.45949154852,3.5950132384,7,3,16.856,1692.909034488,0,0,2.45949154852,0,0,0,188, 0.6, -4.3,0,0,1024,1024,1024,1024,0,0,0,0,332.7,-26.4,-40.3,97,4.233,4.233,4.231,4.228,0,0,1.998,78.71,1692.909034488,0,10,Assisted_Takeoff,
42800,2025-09-03 05:35:25,48.1487337831163,11.572168091423,0,,,1692.909034488,0.328084,0,2.48184391144,3.619094604,7,3,16.856,1692.909034488,0,0,2.48184391144,0,0,0,188, 0.5, -4.2,0,0,1024,1024,1024,1024,0,0,0,0,332.6,-26.4,-40.3,97,4.233,4.233,4.231,4.228,0,0,1.998,78.71,1692.909034488,0,10,Assisted_Takeoff,
42900,2025-09-03 05:35:25,48.14873383082,11.5721680416293,0,,,1692.909034488,0.656168,0,2.5029856444,3.6403216388,7,3,16.859,1692.909034488,0,0,2.5029856444,0,0,0,188, 0.5, -4.2,0,0,1024,1024,1024,1024,0,0,0,0,332.5,-26.5,-40.3,97,4.233,4.233,4.231,4.228,0,0,1.998,78.71,1692.909034488,0,10,Assisted_Takeoff,
43000,2025-09-03 05:35:26,48.1487338786018,11.5721679242789,0,,,1692.909034488,0.656168,0,2.53249351936,3.6737862068,7,3,16.859,1692.909034488,0,0,2.53249351936,0,0,0,188, 0.6, -4.3,0,0,1024,1024,1024,1024,0,0,0,0,332.4,-26.5,-40.3,97,4.233,4.233,4.231,4.228,0,0,1.998,78.71,1692.909034488,0,10,Assisted_Takeoff,
43100,2025-09-03 05:35:26,48.1487339316206,11.5721676656938,0,,,1692.909034488,0.656168,0,2.58160113248,3.7396326656,7,3,16.859,1692.909034488,0,0,2.58160113248,0,0,0,188, 0.5, -4.3,0,0,1024,1024,1024,1024,0,0,0,0,332.3,-26.6,-40.3,97,4.233,4.233,4.231,4.228,0,0,1.998,78.71,1692.909034488,0,10,Assisted_Takeoff,
43200,2025-09-03 05:35:26,48.1487339484164,11.572167547159,0,,,1692.909034488,0.656168,0,2.60203748484,3.7691274172,7,3,16.859,1692.909034488,0,0,2.60203748484,0,0,0,188, 0.6, -4.3,0,0,1024,1024,1024,1024,0,0,0,0,332.2,-26.6,-40.3,97,4.233,4.233,4.231,4.228,0,0,1.998,78.71,1692.909034488,0,10,Assisted_Takeoff,
43300,2025-09-03 05:35:26,48.1487339440782,11.5721674707817,0,,,1692.909034488,0.656168,0,2.6106300048,3.7877953968,8,3,16.859,1692.909034488,0,0,2.6106300048,0,0,0,188, 0.6, -4.3,0,0,1024,1024,1024,1024,0,0,0,0,332.1,-26.7,-40.3,97,4.233,4.233,4.231,4.228,0,0,1.998,78.71,1692.909034488,0,10,Assisted_Takeoff,
43400,2025-09-03 05:35:26,48.1487339575911,11.5721673965806,0,,,1692.909034488,0.656168,0,2.62451451968,3.8065289932,8,3,16.859,1692.909034488,0,0,2.62451451968,0,0,0,188, 0.5, -4.2,0,0,1024,1024,1024,1024,0,0,0,0,332.1,-26.7,-40.3,97,4.233,4.233,4.231,4.228,0,0,1.998,78.71,1692.909034488,0,10,Assisted_Takeoff,
43500,2025-09-03 05:35:26,48.1487339426745,11.5721673804417,0,,,1692.909034488,0.656168,0,2.62206701304,3.8132219068,8,3,16.859,1692.909034488,0,0,2.62451451968,0,0,0,188, 0.5, -4.2,0,0,1024,1024,1024,1024,0,0,0,0,332.1,-26.7,-40.3,97,4.233,4.233,4.231,4.228,0,0,1.998,78.71,1692.909034488,0,10,Assisted_Takeoff,
43600,2025-09-03 05:35:26,48.148733955308,11.572167266614,0,,,1692.909034488,0.656168,0,2.6410597958,3.8413058972,8,3,16.859,1692.909034488,0,0,2.6410597958,0,0,0,188, 0.6, -4.3,0,0,1024,1024,1024,1024,0,0,0,0,332,-26.8,-40.3,97,4.233,4.233,4.231,4.228,0,0,1.998,78.71,1692.909034488,0,10,Assisted_Takeoff,
43700,2025-09-03 05:35:26,48.1487339523117,11.5721671177257,0,,,1692.909034488,0.656168,0,2.6602363056,3.8775919876,8,3,16.859,1692.909034488,0,0,2.6602363056,0,0,0,188, 0.6, -4.3,0,0,1024,1024,1024,1024,0,0,0,0,331.9,-26.9,-40.3,97,4.233,4.233,4.231,4.228,0,0,1.998,78.71,1692.909034488,0,10,Assisted_Takeoff,
43800,2025-09-03 05:35:26,48.1487339690553,11.5721670416629,0,,,1692.909034488,0.656168,0,2.67567921948,3.8970801772,8,3,16.859,1692.909034488,0,0,2.67567921948,0,0,0,188, 0.5, -4.2,0,0,1024,1024,1024,1024,0,0,0,0,331.8,-26.9,-40.3,97,4.233,4.233,4.231,4.228,0,0,1.998,78.71,1692.909034488,0,10,Assisted_Takeoff,
43900,2025-09-03 05:35:26,48.1487340065877,11.5721670268449,0,,,1692.909034488,0.656168,0,2.68903223828,3.911253406,7,3,16.859,1692.909034488,0,0,2.68903223828,0,0,0,188, 0.5, -4.2,0,0,1024,1024,1024,1024,0,0,0,0,331.7,-26.9,-40.3,97,4.233,4.233,4.23,4.227,0,0,2,78.71,1692.909034488,0,10,Assisted_Takeoff,
44000,2025-09-03 05:35:27,48.1487340238101,11.5721670559466,0,,,1692.909034488,0.656168,0,2.6902723958,3.9207022252,7,3,16.859,1692.909034488,0,0,2.6902723958,0,0,0,188, 0.5, -4.2,0,0,1024,1024,1024,1024,0,0,0,0,331.6,-26.9,-40.3,97,4.233,4.233,4.23,4.227,0,0,2,78.71,1692.909034488,0,10,Assisted_Takeoff,
44100,2025-09-03 05:35:27,48.1487340247188,11.5721669310836,0,,,1692.909034488,0.656168,0,2.70763788192,3.951115612,7,3,16.859,1692.909034488,0,0,2.70763788192,0,0,0,188, 0.5, -4.3,0,0,1024,1024,1024,1024,0,0,0,0,331.5,-27,-40.3,97,4.233,4.233,4.23,4.227,0,0,2,78.71,1692.909034488,0,10,Assisted_Takeoff,
44200,2025-09-03 05:35:27,48.1487340167459,11.5721668148517,0,,,1692.909034488,0.656168,0,2.72136819732,3.9795604948,7,3,16.859,1692.909034488,0,0,2.72136819732,0,0,0,188, 0.5, -4.3,0,0,1024,1024,1024,1024,0,0,0,0,331.5,-27,-40.3,97,4.233,4.233,4.23,4.227,0,0,2,78.71,1692.909034488,0,10,Assisted_Takeoff,
44300,2025-09-03 05:35:27,48.1487340023798,11.5721666963811,0,,,1692.909034488,0.656168,0,2.73374680664,4.008858396,7,3,16.859,1692.909034488,0,0,2.73374680664,0,0,0,188, 0.5, -4.3,0,0,1024,1024,1024,1024,0,0,0,0,331.4,-27.1,-40.3,97,4.233,4.233,4.23,4.227,0,0,2,78.71,1692.909034488,0,10,Assisted_Takeoff,
44400,2025-09-03 05:35:27,48.1487339012241,11.5721664986973,0,,,1692.909034488,0.656168,0,2.73237541552,4.0694883192,7,3,16.859,1692.909034488,0,0,2.73374680664,0,0,0,188, 0.5, -4.3,0,0,1024,1024,1024,1024,0,0,0,0,331.3,-27.1,-40.3,97,4.233,4.233,4.23,4.227,0,0,2,78.71,1692.909034488,0,10,Assisted_Takeoff,
44500,2025-09-03 05:35:27,48.1487338824221,11.5721663935344,0,,,1692.909034488,0.656168,0,2.7423393266,4.0959975064,7,3,16.859,1692.909034488,0,0,2.7423393266,0,0,0,188, 0.5, -4.3,0,0,1024,1024,1024,1024,0,0,0,0,331.2,-27.2,-40.3,97,4.233,4.233,4.23,4.227,0,0,2,78.71,1692.909034488,0,10,Assisted_Takeoff,
44600,2025-09-03 05:35:27,48.1487338660953,11.5721663268475,0,,,1692.909034488,0.656168,0,2.74750008792,4.1132875332,7,3,16.859,1692.909034488,0,0,2.74750008792,0,0,0,188, 0.5, -4.2,0,0,1024,1024,1024,1024,0,0,0,0,331.1,-27.2,-40.3,97,4.233,4.233,4.23,4.227,0,0,2,78.71,1692.909034488,0,10,Assisted_Takeoff,
44700,2025-09-03 05:35:27,48.1487338501854,11.5721662811817,0,,,1692.909034488,0.656168,0,2.74973105912,4.1258531504,7,3,16.859,1692.909034488,0,0,2.74973105912,0,0,0,188, 0.5, -4.2,0,0,1024,1024,1024,1024,0,0,0,0,331.1,-27.2,-40.3,97,4.233,4.233,4.23,4.227,0,0,2,78.71,1692.909034488,0,10,Assisted_Takeoff,
44800,2025-09-03 05:35:27,48.148733852804,11.5721662741843,0,,,1692.909034488,0.656168,0,2.75153224028,4.127788846,7,3,16.859,1692.909034488,0,0,2.75153224028,0,0,0,188, 0.5, -4.2,0,0,1024,1024,1024,1024,0,0,0,0,331.1,-27.2,-40.3,97,4.233,4.233,4.23,4.227,0,0,2,78.71,1692.909034488,0,10,Assisted_Takeoff,
44900,2025-09-03 05:35:27,48.1487338439745,11.5721661887377,0,,,1692.909034488,0.656168,0,2.76184720124,4.1488518388,7,3,16.86,1692.909034488,0,0,2.76184720124,0,0,0,188, 0.5, -4.2,0,0,1024,1024,1024,1024,0,0,0,0,331,-27.3,-40.3,97,4.233,4.233,4.23,4.227,0,0,1.998,78.71,1692.909034488,0,10,Assisted_Takeoff,
45000,2025-09-03 05:35:27,48.1487338366368,11.5721660725909,0,,,1692.909034488,0.656168,0,2.77738854032,4.1772311048,7,3,16.86,1692.909034488,0,0,2.77738854032,0,0,0,188, 0.6, -4.2,0,0,1024,1024,1024,1024,0,0,0,0,330.9,-27.4,-40.3,97,4.233,4.233,4.23,4.227,0,0,1.998,78.71,1692.909034488,0,10,Assisted_Takeoff,
45100,2025-09-03 05:35:28,48.148733830009,11.5721659172861,0,,,1692.909034488,0.656168,0,2.79938329168,4.2151248068,7,3,16.86,1692.909034488,0,0,2.79938329168,0,0,0,188, 0.6, -4.2,0,0,1024,1024,1024,1024,0,0,0,0,330.8,-27.4,-40.3,97,4.233,4.233,4.23,4.227,0,0,1.998,78.71,1692.909034488,0,10,Assisted_Takeoff,
45200,2025-09-03 05:35:28,48.1487339609131,11.5721656691265,0,,,1692.909034488,0.656168,0,2.87469825472,4.2921261216,7,3,16.86,1692.909034488,0,0,2.87469825472,0,0,0,188, 0.5, -4.2,0,0,1024,1024,1024,1024,0,0,0,0,330.7,-27.5,-40.3,97,4.233,4.233,4.23,4.227,0,0,1.998,78.71,1692.909034488,0,10,Assisted_Takeoff,
45300,2025-09-03 05:35:28,48.1487340090564,11.5721655459968,0,,,1692.909034488,0.656168,0,2.907398387,4.3268702172,7,3,16.86,1692.909034488,0,0,2.907398387,0,0,0,188, 0.5, -4.3,0,0,1024,1024,1024,1024,0,0,0,0,330.6,-27.5,-40.3,97,4.233,4.233,4.23,4.227,0,0,1.998,78.71,1692.909034488,0,10,Assisted_Takeoff,
45400,2025-09-03 05:35:28,48.1487340393715,11.5721654108849,0,,,1692.909034488,0.656168,0,2.93707686564,4.3615815044,7,3,16.86,1692.909034488,0,0,2.93707686564,0,0,0,188, 0.5, -4.2,0,0,1024,1024,1024,1024,0,0,0,0,330.6,-27.5,-40.3,97,4.233,4.233,4.23,4.227,0,0,1.998,78.71,1692.909034488,0,10,Assisted_Takeoff,
45500,2025-09-03 05:35:28,48.1487340528778,11.5721652523495,0,,,1692.909034488,0.984252,0,2.9659449768,4.4004922668,7,3,16.86,1692.909034488,0,0,2.9659449768,0,0,0,188, 0.5, -4.2,0,0,1024,1024,1024,1024,0,0,0,0,330.5,-27.6,-40.3,97,4.233,4.233,4.23,4.227,0,0,1.998,78.71,1692.909034488,0,10,Assisted_Takeoff,
45600,2025-09-03 05:35:28,48.1487340831799,11.5721650944528,0,,,1692.909034488,0.984252,0,2.9995407784,4.4404857064,7,3,16.86,1692.909034488,0,0,2.9995407784,0,0,0,188, 0.5, -4.3,0,0,1024,1024,1024,1024,0,0,0,0,330.4,-27.7,-40.3,97,4.233,4.233,4.23,4.227,0,0,1.998,78.71,1692.909034488,0,10,Assisted_Takeoff,
45700,2025-09-03 05:35:28,48.148734190172,11.5721648027715,0,,,1692.909034488,0.984252,0,3.0758531168,4.521489646,7,3,16.86,1692.909034488,0,0,3.0758531168,0,0,0,188, 0.5, -4.3,0,0,1024,1024,1024,1024,0,0,0,0,330.3,-27.7,-40.3,97,4.233,4.233,4.23,4.227,0,0,1.998,78.71,1692.909034488,0,10,Assisted_Takeoff,
45800,2025-09-03 05:35:28,48.1487341872668,11.572164668791,0,,,1692.909034488,0.984252,0,3.09690954792,4.554134004,7,3,16.86,1692.909034488,0,0,3.09690954792,0,0,0,188, 0.6, -4.2,0,0,1024,1024,1024,1024,0,0,0,0,330.2,-27.8,-40.3,97,4.233,4.233,4.23,4.227,0,0,1.998,78.71,1692.909034488,0,10,Assisted_Takeoff,
45900,2025-09-03 05:35:28,48.1487341392896,11.5721645548077,0,,,1692.909034488,0.984252,0,3.1027888132,4.586942404,7,3,16.861,1692.909034488,0,0,3.1027888132,0,0,0,188, 0.6, -4.2,0,0,1024,1024,1024,1024,0,0,0,0,330.1,-27.8,-40.3,97,4.233,4.232,4.23,4.227,0,0,1.998,78.71,1692.909034488,0,10,Assisted_Takeoff,
46000,2025-09-03 05:35:29,48.1487341014901,11.5721644324018,0,,,1692.909034488,0.656168,0,3.11311361668,4.6197836124,7,3,16.861,1692.909034488,0,0,3.11311361668,0,0,0,188, 0.5, -4.2,0,0,1024,1024,1024,1024,0,0,0,0,330,-27.9,-40.3,97,4.233,4.232,4.23,4.227,0,0,1.998,78.71,1692.909034488,0,10,Assisted_Takeoff,
46100,2025-09-03 05:35:29,48.1487339611736,11.5721643013182,0,,,1692.909034488,0.656168,0,3.09843841936,4.6800854516,7,3,16.861,1692.909034488,0,0,3.11311361668,0,0,0,188, 0.5, -4.2,0,0,1024,1024,1024,1024,0,0,0,0,330,-27.9,-40.3,97,4.233,4.232,4.23,4.227,0,0,1.998,78.71,1692.909034488,0,10,Assisted_Takeoff,
46200,2025-09-03 05:35:29,48.1487339422674,11.5721641808607,0,,,1692.909034488,0.656168,0,3.1141897322,4.7102035628,7,3,16.861,1692.909034488,0,0,3.1141897322,0,0,0,188, 0.6, -4.2,0,0,1024,1024,1024,1024,0,0,0,0,329.9,-27.9,-40.3,97,4.233,4.232,4.23,4.227,0,0,1.998,78.71,1692.909034488,0,10,Assisted_Takeoff,
46300,2025-09-03 05:35:29,48.1487339300769,11.5721640734911,0,,,1692.909034488,0.656168,0,3.12959983768,4.7367455584,7,3,16.861,1692.909034488,0,0,3.12959983768,0,0,0,188, 0.6, -4.2,0,0,1024,1024,1024,1024,0,0,0,0,329.9,-28,-40.3,97,4.233,4.232,4.23,4.227,0,0,1.998,78.71,1692.909034488,0,10,Assisted_Takeoff,
46400,2025-09-03 05:35:29,48.1487339222766,11.5721639544186,0,,,1692.909034488,0.328084,0,3.14831702988,4.7658466092,7,3,16.861,1692.909034488,0,0,3.14831702988,0,0,0,188, 0.6, -4.3,0,0,1024,1024,1024,1024,0,0,0,0,329.8,-28,-40.3,97,4.233,4.232,4.23,4.227,0,0,1.998,78.71,1692.909034488,0,10,Assisted_Takeoff,
46500,2025-09-03 05:35:29,48.14873394954,11.572163845611,0,,,1692.909034488,0.328084,0,3.1742619126,4.7941602584,7,3,16.861,1692.909034488,0,0,3.1742619126,0,0,0,188, 0.6, -4.3,0,0,1024,1024,1024,1024,0,0,0,0,329.7,-28,-40.3,97,4.233,4.232,4.23,4.227,0,0,1.998,78.71,1692.909034488,0,10,Assisted_Takeoff,
46600,2025-09-03 05:35:29,48.1487339499667,11.572163757725,0,,,1692.909034488,0.656168,0,3.18979669,4.8155513352,7,3,16.861,1692.909034488,0,0,3.18979669,0,0,0,188, 0.6, -4.3,0,0,1024,1024,1024,1024,0,0,0,0,329.6,-28.1,-40.3,97,4.233,4.232,4.23,4.227,0,0,1.998,78.71,1692.909034488,0,10,Assisted_Takeoff,
46700,2025-09-03 05:35:29,48.1487339503933,11.5721637027362,0,,,1692.909034488,0.656168,0,3.1995899974,4.8289371624,7,3,16.861,1692.909034488,0,0,3.1995899974,0,0,0,188, 0.6, -4.3,0,0,1024,1024,1024,1024,0,0,0,0,329.5,-28.1,-40.3,97,4.233,4.232,4.23,4.227,0,0,1.998,78.71,1692.909034488,0,10,Assisted_Takeoff,
46800,2025-09-03 05:35:29,48.1487339243741,11.5721636424754,0,,,1692.909034488,0.656168,0,3.20372057496,4.8463912312,7,3,16.861,1692.909034488,0,0,3.20372057496,0,0,0,188, 0.6, -4.2,0,0,1024,1024,1024,1024,0,0,0,0,329.5,-28.2,-40.3,97,4.233,4.232,4.23,4.227,0,0,1.998,78.71,1692.909034488,0,10,Assisted_Takeoff,
46900,2025-09-03 05:35:29,48.1487338180855,11.572163716073,0,,,1692.909034488,0.656168,0,3.16413724036,4.889107768,7,3,16.858,1692.909034488,0,0,3.20372057496,0,0,0,188, 0.6, -4.2,0,0,1024,1024,1024,1024,0,0,0,0,329.4,-28.3,-40.3,96,4.232,4.232,4.23,4.227,0,0,2.006,78.71,1692.909034488,0,10,Assisted_Takeoff,
47000,2025-09-03 05:35:30,48.1487337842465,11.572163635019,0,,,1692.909034488,0.656168,0,3.17023960276,4.912401732,7,3,16.858,1692.909034488,0,0,3.20372057496,0,0,0,188, 0.6, -4.3,0,0,1024,1024,1024,1024,0,0,0,0,329.3,-28.3,-40.3,96,4.232,4.232,4.23,4.227,0,0,2.006,78.71,1692.909034488,0,10,Assisted_Takeoff,
47100,2025-09-03 05:35:30,48.1487337667635,11.5721635387522,0,,,1692.909034488,0.656168,0,3.1832514142,4.936679948,7,3,16.858,1692.909034488,0,0,3.20372057496,0,0,0,188, 0.6, -4.3,0,0,1024,1024,1024,1024,0,0,0,0,329.2,-28.3,-40.3,96,4.232,4.232,4.23,4.227,0,0,2.006,78.71,1692.909034488,0,10,Assisted_Takeoff,
47200,2025-09-03 05:35:30,48.1487337852887,11.5721634457433,0,,,1692.909034488,0.656168,0,3.20458015504,4.960301996,7,3,16.858,1692.909034488,0,0,3.20458015504,0,0,0,188, 0.5, -4.3,0,0,1024,1024,1024,1024,0,0,0,0,329.1,-28.4,-40.3,96,4.232,4.232,4.23,4.227,0,0,2.006,78.71,1692.909034488,0,10,Assisted_Takeoff,
47300,2025-09-03 05:35:30,48.1487338376301,11.5721633451271,0,,,1692.909034488,0.656168,0,3.23556112716,4.9913715508,7,3,16.858,1692.909034488,0,0,3.23556112716,0,0,0,188, 0.5, -4.3,0,0,1024,1024,1024,1024,0,0,0,0,329,-28.4,-40.3,96,4.232,4.232,4.23,4.227,0,0,2.006,78.71,1692.909034488,0,10,Assisted_Takeoff,
