time(millisecond),datetime(utc),latitude,longitude,height_above_takeoff(feet),height_above_ground_at_drone_location(feet),ground_elevation_at_drone_location(feet),altitude_above_seaLevel(feet),height_sonar(feet),speed(mph),distance(feet),mileage(feet),satellites,gpslevel,voltage(v),max_altitude(feet),max_ascent(feet),max_speed(mph),max_distance(feet), xSpeed(mph), ySpeed(mph), zSpeed(mph), compass_heading(degrees), pitch(degrees), roll(degrees),isPhoto,isVideo,rc_elevator,rc_aileron,rc_throttle,rc_rudder,rc_elevator(percent),rc_aileron(percent),rc_throttle(percent),rc_rudder(percent),gimbal_heading(degrees),gimbal_pitch(degrees),gimbal_roll(degrees),battery_percent,voltageCell1,voltageCell2,voltageCell3,voltageCell4,voltageCell5,voltageCell6,current(A),battery_temperature(f),altitude(feet),ascent(feet),flycStateRaw,flycState,message
3400,2025-09-03 13:47:13,0,0,0,Available with any HD 360 subscription,Available with any HD 360 subscription,1689.5266695504,0.328084,0,0,0,7,0,0,1689.5266695504,0,0,0,0,0,0,162.7, 2.2, -0.7,0,0,1024,1024,1024,1024,0,0,0,0,302,-39.1,-23.4,99,4.279,4.286,4.288,4.291,0,0,0,85.91,1689.5266695504,0,41,Motors_Started,
3500,2025-09-03 13:47:13,0,0,0,,,1689.5266695504,0.328084,0,0,0,7,0,17.095,1689.5266695504,0,0,0,0,0,0,163, 2.2, -0.7,0,0,1024,1024,1024,1024,0,0,0,0,302,-39.1,-23.2,99,4.279,4.286,4.288,4.291,0,0,1.542,85.91,1689.5266695504,0,41,Motors_Started,"Setting new Return-To-Home altitude to 100m (328 ft). Data Recorder File Index is 240. Setting new Maximum Flight Altitude to 30m (98 ft)"
3600,2025-09-03 13:47:14,0,0,0,,,1689.5266695504,0.328084,0,0,0,7,0,17.095,1689.5266695504,0,0,0,0,0,0,162.9, 2.2, -0.7,0,0,373,364,364,1684,-99,-100,-100,100,301.9,-39,-23.3,99,4.279,4.286,4.288,4.291,0,0,1.542,85.91,1689.5266695504,0,41,Motors_Started,
3700,2025-09-03 13:47:14,0,0,0,,,1689.5266695504,0.328084,0,0,0,7,0,17.095,1689.5266695504,0,0,0,0,0,0,162.8, 2.2, -0.7,0,0,825,693,619,1467,-30,-50,-61,67,301.9,-39,-23.3,99,4.279,4.286,4.288,4.291,0,0,1.542,85.91,1689.5266695504,0,41,Motors_Started,
3800,2025-09-03 13:47:14,0,0,0,,,1689.5266695504,0.328084,0,0,0,7,0,17.095,1689.5266695504,0,0,0,0,0,0,162.8, 2.2, -0.7,0,0,1024,1024,1024,1024,0,0,0,0,301.9,-39.1,-23.2,99,4.279,4.286,4.288,4.291,0,0,1.542,85.91,1689.5266695504,0,41,Motors_Started,
3900,2025-09-03 13:47:14,0,0,0,,,1689.5266695504,0.328084,0,0,0,7,0,17.095,1689.5266695504,0,0,0,0,0,0,162.8, 2.2, -0.7,0,0,1024,1024,1024,1024,0,0,0,0,301.8,-39.1,-23.2,99,4.279,4.286,4.288,4.291,0,0,1.542,85.91,1689.5266695504,0,41,Motors_Started,
4000,2025-09-03 13:47:14,0,0,0,,,1689.5266695504,0.328084,0,0,0,7,0,17.095,1689.5266695504,0,0,0,0,0,0,162.8, 2.3, -0.7,0,0,1024,1024,1024,1024,0,0,0,0,301.8,-39,-23.2,99,4.279,4.286,4.288,4.291,0,0,1.542,85.91,1689.5266695504,0,41,Motors_Started,
4100,2025-09-03 13:47:14,0,0,0,,,1689.5266695504,0.328084,0,0,0,7,0,17.095,1689.5266695504,0,0,0,0,0,0,162.8, 2.3, -0.7,0,0,1024,1024,1024,1024,0,0,0,0,301.6,-39.1,-23.1,99,4.279,4.286,4.288,4.291,0,0,1.542,85.91,1689.5266695504,0,41,Motors_Started,
4200,2025-09-03 13:47:14,0,0,0,,,1689.5266695504,0.328084,0,0,0,7,0,17.095,1689.5266695504,0,0,0,0,0,0,162.8, 2.3, -0.7,0,0,1024,1024,1024,1024,0,0,0,0,301.5,-39.1,-23.1,99,4.279,4.286,4.288,4.291,0,0,1.542,85.91,1689.5266695504,0,41,Motors_Started,
4300,2025-09-03 13:47:14,0,0,0,,,1689.5266695504,0.328084,0,0,0,7,0,17.095,1689.5266695504,0,0,0,0,0,0,162.8, 2.3, -0.7,0,0,1024,1024,1024,1024,0,0,0,0,301.4,-39.1,-23.1,99,4.279,4.286,4.288,4.291,0,0,1.542,85.91,1689.5266695504,0,41,Motors_Started,
4400,2025-09-03 13:47:14,0,0,0,,,1689.5266695504,0.328084,0,0,0,7,0,17.095,1689.5266695504,0,0,0,0,0,0,162.8, 2.3, -0.7,0,0,1024,1024,1024,1024,0,0,0,0,301.4,-39.1,-23.1,99,4.279,4.286,4.288,4.291,0,0,1.542,85.91,1689.5266695504,0,41,Motors_Started,
4500,2025-09-03 13:47:15,0,0,0,,,1689.5266695504,0.328084,0,0,0,7,0,17.137,1689.5266695504,0,0,0,0,0,0,162.8, 2.3, -0.7,0,0,1024,1024,1024,1024,0,0,0,0,301.3,-39.2,-23,99,4.279,4.285,4.288,4.291,0,0,1.538,85.91,1689.5266695504,0,41,Motors_Started,
4600,2025-09-03 13:47:15,0,0,0,,,1689.5266695504,0.328084,0,0,0,7,0,17.137,1689.5266695504,0,0,0,0,0,0,162.8, 2.3, -0.7,0,0,1024,1024,1024,1024,0,0,0,0,301.2,-39.2,-23.1,99,4.279,4.285,4.288,4.291,0,0,1.538,85.91,1689.5266695504,0,41,Motors_Started,
4700,2025-09-03 13:47:15,0,0,0,,,1689.5266695504,0.328084,0,0,0,7,0,17.137,1689.5266695504,0,0,0,0,0,0,162.8, 2.3, -0.7,0,0,1024,1024,1024,1024,0,0,0,0,301.2,-39.2,-23,99,4.279,4.285,4.288,4.291,0,0,1.538,85.91,1689.5266695504,0,41,Motors_Started,
4800,2025-09-03 13:47:15,0,0,0,,,1689.5266695504,0.328084,0,0,0,7,0,17.137,1689.5266695504,0,0,0,0,0,0,162.8, 2.3, -0.7,0,0,1024,1024,1024,1024,0,0,0,0,301,-39.2,-23,99,4.279,4.285,4.288,4.291,0,0,1.538,85.91,1689.5266695504,0,41,Motors_Started,
4900,2025-09-03 13:47:15,0,0,0,,,1689.5266695504,0.328084,0,0,0,8,0,17.137,1689.5266695504,0,0,0,0,0,0,162.9, 2.3, -0.7,0,0,1024,1024,1024,1024,0,0,0,0,301,-39.1,-23.1,99,4.279,4.285,4.288,4.291,0,0,1.538,85.91,1689.5266695504,0,10,Assisted_Takeoff,
5000,2025-09-03 13:47:15,0,0,0,,,1689.5266695504,0.328084,0,0,0,8,0,17.137,1689.5266695504,0,0,0,0,0,0,162.8, 2.3, -0.7,0,0,1024,1024,1024,1024,0,0,0,0,301,-39.1,-23.1,99,4.279,4.285,4.288,4.291,0,0,1.538,85.91,1689.5266695504,0,10,Assisted_Takeoff,
5100,2025-09-03 13:47:15,0,0,0,,,1689.5266695504,0.328084,0,0,0,8,0,17.137,1689.5266695504,0,0,0,0,0,0,162.8, 2.3, -0.6,0,0,1024,1024,1024,1024,0,0,0,0,300.9,-39.2,-23.1,99,4.279,4.285,4.288,4.291,0,0,1.538,85.91,1689.5266695504,0,10,Assisted_Takeoff,
5200,2025-09-03 13:47:15,0,0,0,,,1689.5266695504,0.328084,0,0,0,8,0,17.137,1689.5266695504,0,0,0,0,0,0,162.9, 2.3, -0.7,0,0,1024,1024,1024,1024,0,0,0,0,300.8,-39.2,-23,99,4.279,4.285,4.288,4.291,0,0,1.538,85.91,1689.5266695504,0,10,Assisted_Takeoff,
5300,2025-09-03 13:47:15,0,0,0,,,1689.5266695504,0.328084,0,0,0,8,0,17.137,1689.5266695504,0,0,0,0,0,0,162.9, 2.3, -0.7,0,0,1024,1024,1024,1024,0,0,0,0,300.7,-39.2,-23,99,4.279,4.285,4.288,4.291,0,0,1.538,85.91,1689.5266695504,0,10,Assisted_Takeoff,
5400,2025-09-03 13:47:15,0,0,0,,,1689.5266695504,0.328084,0,0,0,8,0,17.137,1689.5266695504,0,0,0,0,0,0,162.9, 2.3, -0.5,0,0,1024,1024,1024,1024,0,0,0,0,300.6,-39.2,-23.1,99,4.279,4.285,4.288,4.291,0,0,1.538,85.91,1689.5266695504,0,10,Assisted_Takeoff,
5500,2025-09-03 13:47:16,0,0,0,,,1689.5266695504,0.328084,0,0,0,8,0,16.91,1689.5266695504,0,0,0,0,0,0,162.9, 2.3, -0.5,0,0,1024,1024,1024,1024,0,0,0,0,300.5,-39.3,-23.2,99,4.238,4.247,4.248,4.244,0,0,4.16,85.91,1689.5266695504,0,10,Assisted_Takeoff,
5600,2025-09-03 13:47:16,0,0,0,,,1689.5266695504,0.328084,0,0,0,8,0,16.91,1689.5266695504,0,0,0,0,0,0,162.9, 2.3, -0.7,0,0,1024,1024,1024,1024,0,0,0,0,300.4,-39.3,-23,99,4.238,4.247,4.248,4.244,0,0,4.16,85.91,1689.5266695504,0,10,Assisted_Takeoff,
5700,2025-09-03 13:47:16,0,0,0,,,1689.5266695504,0.328084,0,0,0,8,0,16.91,1689.5266695504,0,0,0,0,0,0,162.9, 2.3, -0.7,0,0,1024,1024,1024,1024,0,0,0,0,300.3,-39.3,-23.1,99,4.238,4.247,4.248,4.244,0,0,4.16,85.91,1689.5266695504,0,10,Assisted_Takeoff,
5800,2025-09-03 13:47:16,0,0,0,,,1689.5266695504,0.328084,0,0,0,8,0,16.91,1689.5266695504,0,0,0,0,0,0,162.9, 2.2, -0.7,0,0,1024,1024,1024,1024,0,0,0,0,300.3,-39.3,-23.1,99,4.238,4.247,4.248,4.244,0,0,4.16,85.91,1689.5266695504,0,10,Assisted_Takeoff,
5900,2025-09-03 13:47:16,0,0,0,,,1689.5266695504,0.328084,0,0,0,8,0,16.91,1689.5266695504,0,0,0,0,0,0,162.9, 2.2, -0.7,0,0,1024,1024,1024,1024,0,0,0,0,300.2,-39.3,-23,99,4.238,4.247,4.248,4.244,0,0,4.16,85.91,1689.5266695504,0,10,Assisted_Takeoff,
6000,2025-09-03 13:47:16,0,0,0,,,1689.5266695504,0.328084,0,0,0,8,0,16.91,1689.5266695504,0,0,0,0,0,0,162.9, 2.3, -0.7,0,0,1024,1024,1024,1024,0,0,0,0,300.1,-39.4,-23,99,4.238,4.247,4.248,4.244,0,0,4.16,85.91,1689.5266695504,0,10,Assisted_Takeoff,
6100,2025-09-03 13:47:16,0,0,0,,,1689.5266695504,0.328084,0,0,0,8,2,16.91,1689.5266695504,0,0,0,0,0,0,162.9, 2.3, -0.7,0,0,1024,1024,1024,1024,0,0,0,0,300,-39.4,-23.1,99,4.238,4.247,4.248,4.244,0,0,4.16,85.91,1689.5266695504,0,10,Assisted_Takeoff,
6200,2025-09-03 13:47:16,0,0,0,,,1689.5266695504,0.328084,0,0,0,8,2,16.91,1689.5266695504,0,0,0,0,0,0,162.9, 2.2, -0.6,0,0,1024,1024,1024,1024,0,0,0,0,299.9,-39.4,-23.1,99,4.238,4.247,4.248,4.244,0,0,4.16,85.91,1689.5266695504,0,10,Assisted_Takeoff,
6300,2025-09-03 13:47:16,0,0,0,,,1689.5266695504,0.328084,0,0,0,8,2,16.91,1689.5266695504,0,0,0,0,0,0,162.9, 2.2, -0.6,0,0,1024,1024,1024,1024,0,0,0,0,299.9,-39.4,-23.1,99,4.238,4.247,4.248,4.244,0,0,4.16,85.91,1689.5266695504,0,10,Assisted_Takeoff,
6400,2025-09-03 13:47:16,0,0,0,,,1689.5266695504,0.328084,0,0,0,8,2,16.91,1689.5266695504,0,0,0,0,0,0,162.9, 2.3, -0.8,0,0,1024,1024,1024,1024,0,0,0,0,299.8,-39.4,-23,99,4.238,4.247,4.248,4.244,0,0,4.16,85.91,1689.5266695504,0,10,Assisted_Takeoff,
6500,2025-09-03 13:47:16,0,0,0,,,1689.5266695504,0.328084,0,0,0,8,2,17.117,1689.5266695504,0,0,0,0,0,0,162.9, 2.3, -0.8,0,0,1024,1024,1024,1024,0,0,0,0,299.7,-39.5,-23.1,99,4.264,4.269,4.27,4.269,0,0,2.982,85.91,1689.5266695504,0,10,Assisted_Takeoff,"Setting new Maximum Flight Altitude to 150m (492 ft)"
6600,2025-09-03 13:47:17,0,0,0,,,1689.5266695504,0.328084,0,0,0,8,2,17.117,1689.5266695504,0,0,0,0,0,0,162.9, 2.3, -0.7,0,0,1024,1024,1024,1024,0,0,0,0,299.6,-39.5,-23.1,99,4.264,4.269,4.27,4.269,0,0,2.982,85.91,1689.5266695504,0,10,Assisted_Takeoff,
6700,2025-09-03 13:47:17,0,0,0,,,1689.5266695504,0.328084,0,0,0,8,2,17.117,1689.5266695504,0,0,0,0,0,0,162.9, 2.3, -0.7,0,0,1024,1024,1031,1024,0,0,1,0,299.6,-39.5,-22.9,99,4.264,4.269,4.27,4.269,0,0,2.982,85.91,1689.5266695504,0,10,Assisted_Takeoff,
6800,2025-09-03 13:47:17,0,0,0,,,1689.5266695504,0.328084,0,0,0,8,2,17.117,1689.5266695504,0,0,0,0,0,0,162.9, 2.3, -0.7,0,0,1024,1024,1024,1024,0,0,0,0,299.5,-39.5,-22.9,99,4.264,4.269,4.27,4.269,0,0,2.982,85.91,1689.5266695504,0,10,Assisted_Takeoff,
6900,2025-09-03 13:47:17,0,0,0,,,1689.5266695504,0.328084,0,0,0,8,2,17.117,1689.5266695504,0,0,0,0,0,0,162.9, 2.2, -0.7,0,0,1024,1024,1024,1024,0,0,0,0,299.4,-39.6,-22.9,99,4.264,4.269,4.27,4.269,0,0,2.982,85.91,1689.5266695504,0,10,Assisted_Takeoff,
7000,2025-09-03 13:47:17,0,0,0,,,1689.5266695504,0.328084,0,0,0,8,2,17.117,1689.5266695504,0,0,0,0,0,0,162.9, 2.2, -0.7,0,0,1024,1024,1024,1024,0,0,0,0,299.4,-39.5,-22.8,99,4.264,4.269,4.27,4.269,0,0,2.982,85.91,1689.5266695504,0,10,Assisted_Takeoff,
7100,2025-09-03 13:47:17,0,0,0,,,1689.5266695504,0.328084,0,0,0,8,2,17.117,1689.5266695504,0,0,0,0,0,0,162.9, 2.2, -0.7,0,0,1024,1024,1024,1024,0,0,0,0,299.3,-39.5,-22.8,99,4.264,4.269,4.27,4.269,0,0,2.982,85.91,1689.5266695504,0,10,Assisted_Takeoff,
7200,2025-09-03 13:47:17,0,0,0,,,1689.5266695504,0.328084,0,0,0,8,2,17.117,1689.5266695504,0,0,0,0,0,0,162.9, 2.3, -0.8,0,0,1024,1024,1024,1024,0,0,0,0,299.2,-39.5,-22.8,99,4.264,4.269,4.27,4.269,0,0,2.982,85.91,1689.5266695504,0,10,Assisted_Takeoff,
7300,2025-09-03 13:47:17,0,0,0,,,1689.5266695504,0.328084,0,0,0,8,2,17.117,1689.5266695504,0,0,0,0,0,0,162.9, 2.3, -0.8,0,0,1024,1024,1024,1024,0,0,0,0,299,-39.6,-22.9,99,4.264,4.269,4.27,4.269,0,0,2.982,85.91,1689.5266695504,0,10,Assisted_Takeoff,
7400,2025-09-03 13:47:17,0,0,0,,,1689.5266695504,0.328084,0,0,0,8,2,17.117,1689.5266695504,0,0,0,0,0,0,162.9, 2.3, -0.8,0,0,1024,1024,1024,1024,0,0,0,0,299,-39.6,-22.8,99,4.264,4.269,4.27,4.269,0,0,2.982,85.91,1689.5266695504,0,10,Assisted_Takeoff,
7500,2025-09-03 13:47:17,0,0,0,,,1689.5266695504,0.328084,0,0,0,8,2,17.098,1689.5266695504,0,0,0,0,0,0,162.9, 2.3, -0.8,0,0,1024,1024,1024,1024,0,0,0,0,299,-39.6,-22.8,99,4.264,4.269,4.27,4.269,0,0,2.082,85.91,1689.5266695504,0,10,Assisted_Takeoff,
7600,2025-09-03 13:47:18,0,0,0,,,1689.5266695504,0.328084,0,0,0,8,2,17.098,1689.5266695504,0,0,0,0,0,0,162.9, 2.3, -0.8,0,0,1024,1024,1024,1024,0,0,0,0,298.9,-39.6,-22.8,99,4.264,4.269,4.27,4.269,0,0,2.082,85.91,1689.5266695504,0,10,Assisted_Takeoff,
7700,2025-09-03 13:47:18,0,0,0,,,1689.5266695504,0.328084,0,0,0,8,2,17.098,1689.5266695504,0,0,0,0,0,0,162.9, 2.3, -0.7,0,0,1024,1024,1024,1024,0,0,0,0,298.9,-39.7,-22.7,99,4.264,4.269,4.27,4.269,0,0,2.082,85.91,1689.5266695504,0,10,Assisted_Takeoff,
7800,2025-09-03 13:47:18,0,0,0,,,1689.5266695504,0.328084,0,0,0,8,2,17.098,1689.5266695504,0,0,0,0,0,0,162.9, 2.3, -0.7,0,0,1024,1024,1024,1024,0,0,0,0,298.8,-39.7,-22.8,99,4.264,4.269,4.27,4.269,0,0,2.082,85.91,1689.5266695504,0,10,Assisted_Takeoff,
7900,2025-09-03 13:47:18,0,0,0,,,1689.5266695504,0.328084,0,0,0,8,2,17.098,1689.5266695504,0,0,0,0,0,0,162.9, 2.3, -0.7,0,0,1024,1024,1024,1024,0,0,0,0,298.7,-39.7,-22.8,99,4.264,4.269,4.27,4.269,0,0,2.082,85.91,1689.5266695504,0,10,Assisted_Takeoff,
8000,2025-09-03 13:47:18,0,0,0,,,1689.5266695504,0.328084,0,0,0,8,2,17.098,1689.5266695504,0,0,0,0,0,0,162.9, 2.3, -0.8,0,0,1024,1024,1024,1024,0,0,0,0,298.6,-39.7,-22.7,99,4.264,4.269,4.27,4.269,0,0,2.082,85.91,1689.5266695504,0,10,Assisted_Takeoff,
8100,2025-09-03 13:47:18,0,0,0,,,1689.5266695504,0.328084,0,0,0,8,2,17.098,1689.5266695504,0,0,0,0,0,0,162.9, 2.3, -0.7,0,0,1024,1024,1024,1024,0,0,0,0,298.5,-39.8,-22.8,99,4.264,4.269,4.27,4.269,0,0,2.082,85.91,1689.5266695504,0,10,Assisted_Takeoff,
8200,2025-09-03 13:47:18,0,0,0,,,1689.5266695504,0.328084,0,0,0,8,2,17.098,1689.5266695504,0,0,0,0,0,0,162.9, 2.2, -0.8,0,0,1024,1024,1024,1024,0,0,0,0,298.4,-39.8,-22.7,99,4.264,4.269,4.27,4.269,0,0,2.082,85.91,1689.5266695504,0,10,Assisted_Takeoff,
8300,2025-09-03 13:47:18,0,0,0,,,1689.5266695504,0.328084,0,0,0,8,2,17.098,1689.5266695504,0,0,0,0,0,0,162.9, 2.2, -0.8,0,0,1024,1024,1024,1024,0,0,0,0,298.3,-39.8,-22.7,99,4.264,4.269,4.27,4.269,0,0,2.082,85.91,1689.5266695504,0,10,Assisted_Takeoff,
8400,2025-09-03 13:47:18,0,0,0,,,1689.5266695504,0.328084,0,0,0,8,2,17.098,1689.5266695504,0,0,0,0,0,0,162.9, 2.3, -0.8,0,0,1024,1024,1024,1024,0,0,0,0,298.2,-39.8,-22.7,99,4.264,4.269,4.27,4.269,0,0,2.082,85.91,1689.5266695504,0,10,Assisted_Takeoff,
8500,2025-09-03 13:47:19,0,0,0,,,1689.5266695504,0.328084,0,0,0,8,2,17.07,1689.5266695504,0,0,0,0,0,0,162.9, 2.3, -0.8,0,0,1024,1024,1024,1024,0,0,0,0,298.2,-39.8,-22.8,99,4.268,4.274,4.277,4.278,0,0,2.082,85.91,1689.5266695504,0,10,Assisted_Takeoff,
8600,2025-09-03 13:47:19,0,0,0,,,1689.5266695504,0.328084,0,0,0,8,2,17.07,1689.5266695504,0,0,0,0,0,0,162.9, 2.2, -0.7,0,0,1024,1024,1024,1024,0,0,0,0,298.1,-39.9,-22.7,99,4.268,4.274,4.277,4.278,0,0,2.082,85.91,1689.5266695504,0,10,Assisted_Takeoff,
8700,2025-09-03 13:47:19,0,0,0,,,1689.5266695504,0.328084,0,0,0,8,2,17.07,1689.5266695504,0,0,0,0,0,0,162.9, 2.2, -0.7,0,0,1024,1024,1024,1024,0,0,0,0,298,-39.9,-22.7,99,4.268,4.274,4.277,4.278,0,0,2.082,85.91,1689.5266695504,0,10,Assisted_Takeoff,
8800,2025-09-03 13:47:19,0,0,0,,,1689.5266695504,0.328084,0,0,0,8,2,17.07,1689.5266695504,0,0,0,0,0,0,162.9, 2.3, -0.7,0,0,1024,1024,1028,1024,0,0,1,0,297.9,-39.9,-22.8,99,4.268,4.274,4.277,4.278,0,0,2.082,85.91,1689.5266695504,0,10,Assisted_Takeoff,
8900,2025-09-03 13:47:19,0,0,0,,,1689.5266695504,0.328084,0,0,0,8,2,17.07,1689.5266695504,0,0,0,0,0,0,162.9, 2.3, -0.7,0,0,1024,1024,1165,1024,0,0,21,0,297.9,-39.9,-22.8,99,4.268,4.274,4.277,4.278,0,0,2.082,85.91,1689.5266695504,0,10,Assisted_Takeoff,
9000,2025-09-03 13:47:19,0,0,0,,,1689.5266695504,0.328084,0,0,0,8,2,17.07,1689.5266695504,0,0,0,0,0,0,162.9, 2.3, -0.7,0,0,1024,1024,1228,1024,0,0,31,0,297.8,-39.9,-22.7,99,4.268,4.274,4.277,4.278,0,0,2.082,85.91,1689.5266695504,0,10,Assisted_Takeoff,
9100,2025-09-03 13:47:19,0,0,0,,,1689.5266695504,0.328084,0,0,0,8,2,17.07,1689.5266695504,0,0,0,0,0,0,162.9, 2.3, -0.8,0,0,1024,1024,1251,1024,0,0,34,0,297.7,-40,-22.7,99,4.268,4.274,4.277,4.278,0,0,2.082,85.91,1689.5266695504,0,10,Assisted_Takeoff,
9200,2025-09-03 13:47:19,0,0,0,,,1689.5266695504,0.328084,0,0,0,8,2,17.07,1689.5266695504,0,0,0,0,0,0,162.9, 2.2, -0.8,0,0,1024,1024,1258,1024,0,0,35,0,297.7,-40,-22.8,99,4.268,4.274,4.277,4.278,0,0,2.082,85.91,1689.5266695504,0,10,Assisted_Takeoff,
9300,2025-09-03 13:47:19,0,0,0,,,1689.5266695504,0.328084,0,0,0,8,2,17.07,1689.5266695504,0,0,0,0,0,0,162.9, 2.2, -0.8,0,0,1024,1024,1270,1024,0,0,37,0,297.6,-40.1,-22.7,99,4.268,4.274,4.277,4.278,0,0,2.082,85.91,1689.5266695504,0,10,Assisted_Takeoff,
9400,2025-09-03 13:47:19,0,0,0,,,1689.5266695504,0.328084,0,0,0,8,2,17.07,1689.5266695504,0,0,0,0,0,0,162.9, 2.2, -0.8,0,0,1024,1024,1277,1024,0,0,38,0,297.6,-40,-22.5,99,4.268,4.274,4.277,4.278,0,0,2.082,85.91,1689.5266695504,0,10,Assisted_Takeoff,
9500,2025-09-03 13:47:19,0,0,0,,,1689.5266695504,0.328084,0,0,0,8,2,16.961,1689.5266695504,0,0,0,0,0,0,163, 2.2, -0.9,0,0,1024,1024,1276,1024,0,0,38,0,297.4,-40,-22.5,99,4.269,4.275,4.277,4.278,0,0,2.082,85.91,1689.5266695504,0,10,Assisted_Takeoff,
9600,2025-09-03 13:47:20,0,0,0,,,1689.5266695504,0.328084,0,0,0,8,2,16.961,1689.5266695504,0,0,0,0,0,0,163, 2.3, -0.8,0,0,1024,1024,1276,1024,0,0,38,0,297.4,-40,-22.3,99,4.269,4.275,4.277,4.278,0,0,2.082,85.91,1689.5266695504,0,10,Assisted_Takeoff,
9700,2025-09-03 13:47:20,0,0,0,,,1689.5266695504,0.328084,0,0,0,8,2,16.961,1689.5266695504,0,0,0,0,0,0,163, 2.3, -0.8,0,0,1024,1024,1276,1024,0,0,38,0,297.4,-40,-22.2,99,4.269,4.275,4.277,4.278,0,0,2.082,85.91,1689.5266695504,0,10,Assisted_Takeoff,
9800,2025-09-03 13:47:20,0,0,0,,,1689.5266695504,0.328084,0,0,0,8,2,16.961,1689.5266695504,0,0,0,0,0,0,163, 2.2, -0.8,0,0,1024,1024,1283,1024,0,0,39,0,297,-40,-22.1,99,4.269,4.275,4.277,4.278,0,0,2.082,85.91,1689.5266695504,0,10,Assisted_Takeoff,
9900,2025-09-03 13:47:20,0,0,0,,,1689.5266695504,0.328084,0,0,0,8,2,16.961,1689.5266695504,0,0,0,0,0,0,163, 2.4, -1,0,0,1024,1024,1281,1024,0,0,39,0,296.7,-39.6,-22.7,99,4.269,4.275,4.277,4.278,0,0,2.082,85.91,1689.5266695504,0,10,Assisted_Takeoff,
10000,2025-09-03 13:47:20,0,0,0,,,1689.5266695504,0.656168,0,0,0,8,2,16.961,1689.5266695504,0,0,0,0,0,0,163.2, 2.8, -1.5,0,0,1024,1024,1278,1024,0,0,38,0,296,-39.8,-22.7,99,4.269,4.275,4.277,4.278,0,0,2.082,85.91,1689.5266695504,0,10,Assisted_Takeoff,
10100,2025-09-03 13:47:20,0,0,0,,,1689.5266695504,0.656168,0,0,0,8,2,16.961,1689.5266695504,0,0,0,0,0,-0.223694,163.2, 2.7, -2.2,0,0,1024,1024,1275,1024,0,0,38,0,296,-39.8,-22.7,99,4.269,4.275,4.277,4.278,0,0,2.082,85.91,1689.5266695504,0,10,Assisted_Takeoff,
10200,2025-09-03 13:47:20,0,0,0,,,1689.5266695504,0.984252,0,0,0,8,2,16.961,1689.5266695504,0,0,0,0,0,-0.447388,163.3, 1, -2.4,0,0,1024,1024,1273,1024,0,0,38,0,295.7,-42,-23.2,99,4.269,4.275,4.277,4.278,0,0,2.082,85.91,1689.5266695504,0,6,P-GPS,
10300,2025-09-03 13:47:20,0,0,0,,,1689.5266695504,0.984252,0.223694,0,0,8,2,16.961,1689.5266695504,0,0.223694,0,0.223694,0,-0.671082,163.4, -0.4, -1.8,0,0,1024,1024,1270,1024,0,0,37,0,297,-43.1,-22.9,99,4.269,4.275,4.277,4.278,0,0,2.082,85.91,1689.5266695504,0,6,P-GPS,
10400,2025-09-03 13:47:20,0,0,0,,,1689.5266695504,0.984252,0.223694,0,0,8,2,16.961,1689.5266695504,0,0.223694,0,0.223694,0,-0.894776,163.2, -0.7, -0.4,0,0,1024,1024,1251,1024,0,0,34,0,298.1,-42.6,-20.9,99,4.269,4.275,4.277,4.278,0,0,2.082,85.91,1689.5266695504,0,6,P-GPS,
10500,2025-09-03 13:47:20,0,0,0.328084,,,1689.8547535504,1.312336,0.223694,0,0,8,2,16.829,1689.8547535504,0.328084,0.223694,0,0,0.223694,-0.894776,163, -0.6, 0.8,0,0,1024,1024,1235,1024,0,0,32,0,297.8,-42.5,-20.5,99,4.236,4.24,4.237,4.23,0,0,4.316,85.91,1689.8547535504,0.328084,6,P-GPS,
10600,2025-09-03 13:47:21,0,0,0.328084,,,1689.8547535504,1.312336,0.223694,0,0,8,2,16.829,1689.8547535504,0.328084,0.223694,0,0,0.223694,-0.894776,162.9, -0.6, 1.5,0,0,1024,1024,1239,1024,0,0,33,0,297.8,-42.4,-19.6,99,4.236,4.24,4.237,4.23,0,0,4.316,85.91,1689.8547535504,0.328084,6,P-GPS,
10700,2025-09-03 13:47:21,0,0,0.656168,,,1690.1828375504,1.312336,0.223694,0,0,7,2,16.829,1690.1828375504,0.656168,0.223694,0,0,0.223694,-0.894776,163.1, -0.1, 2,0,0,1024,1024,1237,1024,0,0,32,0,299.2,-41.5,-19.5,99,4.236,4.24,4.237,4.23,0,0,4.316,85.91,1690.1828375504,0.656168,6,P-GPS,
10800,2025-09-03 13:47:21,0,0,0.656168,,,1690.1828375504,1.312336,0.223694,0,0,7,2,16.829,1690.1828375504,0.656168,0.223694,0,0,0.223694,-0.894776,163.3, 0.1, 1.6,0,0,1024,1024,1232,1024,0,0,32,0,298.7,-41.9,-18.9,99,4.236,4.24,4.237,4.23,0,0,4.316,85.91,1690.1828375504,0.656168,6,P-GPS,
10900,2025-09-03 13:47:21,0,0,0.984252,,,1690.5109215504,1.312336,0.223694,0,0,7,2,16.829,1690.5109215504,0.984252,0.223694,0,0,0.223694,-1.11847,163.5, 0, 1.7,0,0,1024,1024,1233,1024,0,0,32,0,298.6,-41.9,-19.4,99,4.236,4.24,4.237,4.23,0,0,4.316,85.91,1690.5109215504,0.984252,6,P-GPS,
11000,2025-09-03 13:47:21,0,0,1.312336,,,1690.8390055504,1.64042,0.223694,0,0,7,2,16.829,1690.8390055504,1.312336,0.223694,0,0,0.223694,-1.342164,163.8, 0.1, 2.3,0,0,1024,1024,1232,1024,0,0,32,0,299.1,-41.4,-19.2,99,4.236,4.24,4.237,4.23,0,0,4.316,85.91,1690.8390055504,1.312336,6,P-GPS,
11100,2025-09-03 13:47:21,0,0,1.312336,,,1690.8390055504,1.64042,0,0,0,7,2,16.829,1690.8390055504,1.312336,0.223694,0,0,0,-1.342164,163.7, 0.4, 2.4,0,0,1024,1024,1233,1024,0,0,32,0,298.2,-41.6,-18.8,99,4.236,4.24,4.237,4.23,0,0,4.316,85.91,1690.8390055504,1.312336,6,P-GPS,
11200,2025-09-03 13:47:21,0,0,1.968504,,,1691.4951735504,1.968504,0,0,0,7,2,16.829,1691.4951735504,1.968504,0.223694,0,0,0,-1.565858,163.6, 0.5, 1.7,0,0,1024,1024,1235,1024,0,0,32,0,297.4,-41.9,-19.1,99,4.236,4.24,4.237,4.23,0,0,4.316,85.91,1691.4951735504,1.968504,6,P-GPS,
11300,2025-09-03 13:47:21,0,0,1.968504,,,1691.4951735504,2.296588,0,0,0,7,2,16.829,1691.4951735504,1.968504,0.223694,0,0,0,-1.789552,163.3, 1.1, 1.8,0,0,1024,1024,1240,1024,0,0,33,0,297.4,-42,-18.6,99,4.236,4.24,4.237,4.23,0,0,4.316,85.91,1691.4951735504,1.968504,6,P-GPS,
11400,2025-09-03 13:47:21,0,0,2.296588,,,1691.8232575504,2.296588,0,0,0,7,2,16.829,1691.8232575504,2.296588,0.223694,0,0,0,-1.789552,163.2, 0.9, 1.9,0,0,1024,1024,1254,1024,0,0,35,0,297.4,-42,-18.6,99,4.236,4.24,4.237,4.23,0,0,4.316,85.91,1691.8232575504,2.296588,6,P-GPS,
11500,2025-09-03 13:47:22,0,0,2.624672,,,1692.1513415504,2.624672,0,0,0,7,2,16.47,1692.1513415504,2.624672,0.223694,0,0,0,-1.789552,163.1, 0, 1.5,0,0,1024,1024,1248,1024,0,0,34,0,297.2,-43,-18.6,99,4.059,4.072,4.064,4.033,0,0,16.696,85.91,1692.1513415504,2.624672,6,P-GPS,
11600,2025-09-03 13:47:22,0,0,2.624672,,,1692.1513415504,2.952756,0,0,0,7,2,16.47,1692.1513415504,2.624672,0.223694,0,0,0,-1.789552,162.9, -0.4, 1.2,0,0,1024,1024,1246,1024,0,0,34,0,296.8,-43.3,-19.3,99,4.059,4.072,4.064,4.033,0,0,16.696,85.91,1692.1513415504,2.624672,6,P-GPS,
11700,2025-09-03 13:47:22,0,0,2.952756,,,1692.4794255504,3.28084,0,0,0,6,2,16.47,1692.4794255504,2.952756,0.223694,0,0,0,-2.013246,163, -0.8, 1.5,0,0,1024,1024,1250,1024,0,0,34,0,297.2,-43.9,-19.1,99,4.059,4.072,4.064,4.033,0,0,16.696,85.91,1692.4794255504,2.952756,6,P-GPS,
11800,2025-09-03 13:47:22,0,0,2.952756,,,1692.4794255504,3.28084,0,0,0,6,2,16.47,1692.4794255504,2.952756,0.223694,0,0,0,-2.013246,163.2, -0.9, 2.2,0,0,1024,1024,1250,1024,0,0,34,0,297.5,-43.4,-18.3,99,4.059,4.072,4.064,4.033,0,0,16.696,85.91,1692.4794255504,2.952756,6,P-GPS,
11900,2025-09-03 13:47:22,0,0,3.28084,,,1692.8075095504,3.608924,0,0,0,7,2,16.47,1692.8075095504,3.28084,0.223694,0,0,0,-2.013246,163.4, -0.3, 2.5,0,0,1024,1024,1254,1024,0,0,35,0,297.5,-42.9,-17.9,99,4.059,4.072,4.064,4.033,0,0,16.696,85.91,1692.8075095504,3.28084,6,P-GPS,
12000,2025-09-03 13:47:22,0,0,3.608924,,,1693.1355935504,3.937008,0,0,0,7,2,16.47,1693.1355935504,3.608924,0.223694,0,0,0,-2.23694,163.6, 0, 2.2,0,0,1024,1024,1261,1024,0,0,36,0,297.2,-42.7,-18.8,99,4.059,4.072,4.064,4.033,0,0,16.696,85.91,1693.1355935504,3.608924,6,P-GPS,
12100,2025-09-03 13:47:22,0,0,3.937008,,,1693.4636775504,4.265092,0,0,0,7,2,16.47,1693.4636775504,3.937008,0.223694,0,0,0,-2.23694,163.6, 0, 1.4,0,0,1024,1024,1262,1024,0,0,36,0,296.4,-43.2,-19.3,99,4.059,4.072,4.064,4.033,0,0,16.696,85.91,1693.4636775504,3.937008,6,P-GPS,
12200,2025-09-03 13:47:22,0,0,4.265092,,,1693.7917615504,4.593176,0,0,0,7,2,16.47,1693.7917615504,4.265092,0.223694,0,0,0,-2.23694,163.6, -0.4, 0.9,0,0,1024,1024,1263,1024,0,0,36,0,296,-43.6,-19.2,99,4.059,4.072,4.064,4.033,0,0,16.696,85.91,1693.7917615504,4.265092,6,P-GPS,
12300,2025-09-03 13:47:22,0,0,4.593176,,,1694.1198455504,4.92126,0,0,0,8,2,16.47,1694.1198455504,4.593176,0.223694,0,0,0,-2.23694,163.5, -0.6, 0.6,0,0,1024,1024,1258,1024,0,0,35,0,295.7,-43.8,-19.2,99,4.059,4.072,4.064,4.033,0,0,16.696,85.91,1694.1198455504,4.593176,6,P-GPS,
12400,2025-09-03 13:47:22,0,0,4.92126,,,1694.4479295504,5.249344,0,0,0,8,2,16.47,1694.4479295504,4.92126,0.223694,0,0,0,-2.23694,163.4, -0.7, 0.5,0,0,1024,1024,1259,1024,0,0,36,0,296.2,-43.8,-19.1,99,4.059,4.072,4.064,4.033,0,0,16.696,85.91,1694.4479295504,4.92126,6,P-GPS,
12500,2025-09-03 13:47:23,0,0,5.577428,,,1695.1040975504,5.905512,0,0,0,7,2,16.118,1695.1040975504,5.577428,0.223694,0,0,0,-2.460634,163.3, -0.8, 1,0,0,1024,1024,1255,1024,0,0,35,0,296.8,-43.5,-19.1,99,4.059,4.072,4.064,4.033,0,0,16.696,85.91,1695.1040975504,5.577428,6,P-GPS,
12600,2025-09-03 13:47:23,0,0,5.905512,,,1695.4321815504,5.905512,0,0,0,7,2,16.118,1695.4321815504,5.905512,0.223694,0,0,0,-2.460634,163.3, -0.6, 1.5,0,0,1024,1024,1253,1024,0,0,35,0,296.7,-43.6,-18.9,99,4.059,4.072,4.064,4.033,0,0,16.696,85.91,1695.4321815504,5.905512,6,P-GPS,
12700,2025-09-03 13:47:23,0,0,6.233596,,,1695.7602655504,6.56168,0,0,0,8,2,16.118,1695.7602655504,6.233596,0.223694,0,0,0,-2.23694,163.3, -0.7, 1.6,0,0,1024,1024,1252,1024,0,0,35,0,296.7,-43.6,-18.9,99,4.059,4.072,4.064,4.033,0,0,16.696,85.91,1695.7602655504,6.233596,6,P-GPS,
12800,2025-09-03 13:47:23,0,0,6.56168,,,1696.0883495504,6.889764,0,0,0,8,2,16.118,1696.0883495504,6.56168,0.223694,0,0,0,-2.23694,163.3, -0.8, 1.4,0,0,1024,1024,1253,1024,0,0,35,0,295.6,-44.3,-18.4,99,4.059,4.072,4.064,4.033,0,0,16.696,85.91,1696.0883495504,6.56168,6,P-GPS,
12900,2025-09-03 13:47:23,0,0,6.889764,,,1696.4164335504,7.217848,0.223694,0,0,8,2,16.118,1696.4164335504,6.889764,0.223694,0,0.223694,0,-2.23694,163.4, -1.2, 1.3,0,0,1024,1024,1257,1024,0,0,35,0,296.2,-44.5,-18.7,99,4.059,4.072,4.064,4.033,0,0,16.696,85.91,1696.4164335504,6.889764,6,P-GPS,
13000,2025-09-03 13:47:23,0,0,7.217848,,,1696.7445175504,7.545932,0.223694,0,0,8,2,16.118,1696.7445175504,7.217848,0.223694,0,0.223694,0,-2.23694,163.4, -1.7, 1.6,0,0,1024,1024,1258,1024,0,0,35,0,296.6,-44.7,-18.7,99,4.059,4.072,4.064,4.033,0,0,16.696,85.91,1696.7445175504,7.217848,6,P-GPS,
13100,2025-09-03 13:47:23,0,0,7.545932,,,1697.0726015504,7.874016,0,0,0,8,2,16.118,1697.0726015504,7.545932,0.223694,0,0,0,-2.23694,163.4, -1.8, 1.7,0,0,1024,1024,1263,1024,0,0,36,0,296.2,-45,-18.3,99,4.059,4.072,4.064,4.033,0,0,16.696,85.91,1697.0726015504,7.545932,6,P-GPS,
13200,2025-09-03 13:47:23,0,0,7.874016,,,1697.4006855504,8.2021,0,0,0,8,2,16.118,1697.4006855504,7.874016,0.223694,0,0,0,-2.23694,163.3, -1.8, 1.7,0,0,1024,1024,1265,1024,0,0,37,0,295.7,-45.2,-18.1,99,4.059,4.072,4.064,4.033,0,0,16.696,85.91,1697.4006855504,7.874016,6,P-GPS,
13300,2025-09-03 13:47:23,0,0,8.2021,,,1697.7287695504,8.530184,0,0,0,7,2,16.118,1697.7287695504,8.2021,0.223694,0,0,0,-2.23694,163.2, -1.9, 1.7,0,0,1024,1024,1267,1024,0,0,37,0,296,-45.1,-18.2,99,4.059,4.072,4.064,4.033,0,0,16.696,85.91,1697.7287695504,8.2021,6,P-GPS,
13400,2025-09-03 13:47:23,0,0,8.530184,,,1698.0568535504,8.858268,0,0,0,7,2,16.118,1698.0568535504,8.530184,0.223694,0,0,0,-2.23694,163.2, -1.7, 2.1,0,0,1024,1024,1269,1024,0,0,37,0,297.1,-44.4,-18.3,99,4.059,4.072,4.064,4.033,0,0,16.696,85.91,1698.0568535504,8.530184,6,P-GPS,
13500,2025-09-03 13:47:23,0,0,9.186352,,,1698.7130215504,9.186352,0,0,0,6,2,15.914,1698.7130215504,9.186352,0.223694,0,0,0,-2.460634,163.3, -1.3, 2.5,0,0,1024,1024,1273,1024,0,0,38,0,296.8,-44,-18.1,99,4.024,4.04,4.036,4.007,0,0,18.194,85.91,1698.7130215504,9.186352,6,P-GPS,
13600,2025-09-03 13:47:24,0,0,9.514436,,,1699.0411055504,9.514436,0,0,0,6,2,15.914,1699.0411055504,9.514436,0.223694,0,0,0,-2.460634,163.3, -1.1, 2.4,0,0,1024,1024,1273,1024,0,0,38,0,296.3,-44.1,-17.8,99,4.024,4.04,4.036,4.007,0,0,18.194,85.91,1699.0411055504,9.514436,6,P-GPS,
13700,2025-09-03 13:47:24,0,0,9.84252,,,1699.3691895504,9.84252,0,0,0,6,2,15.914,1699.3691895504,9.84252,0.223694,0,0,0,-2.460634,163.3, -1.1, 2.4,0,0,1024,1024,1275,1024,0,0,38,0,296.2,-44.3,-18.2,99,4.024,4.04,4.036,4.007,0,0,18.194,85.91,1699.3691895504,9.84252,6,P-GPS,
13800,2025-09-03 13:47:24,0,0,10.170604,,,1699.6972735504,10.170604,0,0,0,6,2,15.914,1699.6972735504,10.170604,0.223694,0,0,0,-2.460634,163.3, -1, 2.2,0,0,1024,1024,1276,1024,0,0,38,0,296,-44.8,-19,99,4.024,4.04,4.036,4.007,0,0,18.194,85.91,1699.6972735504,10.170604,6,P-GPS,
13900,2025-09-03 13:47:24,0,0,10.498688,,,1700.0253575504,10.498688,0,0,0,8,2,15.914,1700.0253575504,10.498688,0.223694,0,0,0,-2.460634,163.3, -1.3, 1.5,0,0,1024,1024,1275,1024,0,0,38,0,295.9,-45.1,-19.2,99,4.024,4.04,4.036,4.007,0,0,18.194,85.91,1700.0253575504,10.498688,6,P-GPS,
14000,2025-09-03 13:47:24,0,0,10.826772,,,1700.3534415504,11.154856,0,0,0,8,2,15.914,1700.3534415504,10.826772,0.223694,0,0,0,-2.460634,163.2, -1.9, 1.5,0,0,1024,1024,1270,1024,0,0,37,0,295.9,-45.1,-19.2,99,4.024,4.04,4.036,4.007,0,0,18.194,85.91,1700.3534415504,10.826772,6,P-GPS,
14100,2025-09-03 13:47:24,0,0,11.48294,,,1701.0096095504,11.48294,0.223694,0,0,8,2,15.914,1701.0096095504,11.48294,0.223694,0,-0.223694,0,-2.684328,163.2, -1.7, 1.5,0,0,1024,1024,1271,1024,0,0,37,0,295.6,-45,-19.2,99,4.024,4.04,4.036,4.007,0,0,18.194,85.91,1701.0096095504,11.48294,6,P-GPS,
14200,2025-09-03 13:47:24,0,0,11.811024,,,1701.3376935504,11.811024,0.223694,0,0,8,2,15.914,1701.3376935504,11.811024,0.223694,0,-0.223694,0,-2.460634,163.2, -1, 1.3,0,0,1024,1024,1269,1024,0,0,37,0,295.6,-44.2,-19.5,99,4.024,4.04,4.036,4.007,0,0,18.194,85.91,1701.3376935504,11.811024,6,P-GPS,
14300,2025-09-03 13:47:24,0,0,12.139108,,,1701.6657775504,12.139108,0.447388,0,0,7,2,15.914,1701.6657775504,12.139108,0.447388,0,-0.447388,0,-2.460634,163.2, -0.4, 1.2,0,0,1024,1024,1267,1024,0,0,37,0,295.3,-43.6,-19.3,99,4.024,4.04,4.036,4.007,0,0,18.194,85.91,1701.6657775504,12.139108,6,P-GPS,
14400,2025-09-03 13:47:24,0,0,12.467192,,,1701.9938615504,12.467192,0.223694,0,0,7,2,15.914,1701.9938615504,12.467192,0.447388,0,-0.223694,0,-2.460634,163.2, 0.1, 1,0,0,1024,1024,1264,1024,0,0,36,0,295.2,-43.1,-19.3,99,4.024,4.04,4.036,4.007,0,0,18.194,85.91,1701.9938615504,12.467192,6,P-GPS,
14500,2025-09-03 13:47:25,0,0,12.795276,,,1702.3219455504,12.795276,0.223694,0,0,7,2,16.035,1702.3219455504,12.795276,0.447388,0,-0.223694,0,-2.460634,163.2, 0.5, 1.1,0,0,1024,1024,1262,1024,0,0,36,0,295,-43,-19.1,99,4.018,4.033,4.029,3.995,0,0,17.46,85.91,1702.3219455504,12.795276,6,P-GPS,
14600,2025-09-03 13:47:25,0,0,13.451444,,,1702.9781135504,13.12336,0.223694,0,0,7,2,16.035,1702.9781135504,13.451444,0.447388,0,-0.223694,0,-2.460634,163.2, 0.6, 1.2,0,0,1024,1024,1261,1024,0,0,36,0,295,-42.7,-19.1,99,4.018,4.033,4.029,3.995,0,0,17.46,85.91,1702.9781135504,13.451444,6,P-GPS,
14700,2025-09-03 13:47:25,0,0,13.779528,,,1703.3061975504,13.779528,0.223694,0,0,8,2,16.035,1703.3061975504,13.779528,0.447388,0,-0.223694,0,-2.460634,163.2, 0.5, 1.3,0,0,1024,1024,1257,1024,0,0,35,0,295.3,-42.8,-19.2,99,4.018,4.033,4.029,3.995,0,0,17.46,85.91,1703.3061975504,13.779528,6,P-GPS,
14800,2025-09-03 13:47:25,0,0,14.107612,,,1703.6342815504,14.107612,0.223694,0,0,8,2,16.035,1703.6342815504,14.107612,0.447388,0,-0.223694,0,-2.460634,163.2, 0.5, 1.2,0,0,1024,1024,1256,1024,0,0,35,0,294.9,-42.9,-19.2,99,4.018,4.033,4.029,3.995,0,0,17.46,85.91,1703.6342815504,14.107612,6,P-GPS,
14900,2025-09-03 13:47:25,0,0,14.435696,,,1703.9623655504,14.435696,0.223694,0,0,7,2,16.035,1703.9623655504,14.435696,0.447388,0,-0.223694,0,-2.460634,163.1, 0.5, 1.1,0,0,1024,1024,1257,1024,0,0,35,0,294.8,-42.9,-19.5,99,4.018,4.033,4.029,3.995,0,0,17.46,85.91,1703.9623655504,14.435696,6,P-GPS,
15000,2025-09-03 13:47:25,0,0,15.091864,,,1704.6185335504,14.76378,0.223694,0,0,7,2,16.035,1704.6185335504,15.091864,0.447388,0,-0.223694,0,-2.460634,163.1, 0.6, 1,0,0,1024,1024,1258,1024,0,0,35,0,294.6,-42.7,-19.4,99,4.018,4.033,4.029,3.995,0,0,17.46,85.91,1704.6185335504,15.091864,6,P-GPS,
15100,2025-09-03 13:47:25,0,0,15.419948,,,1704.9466175504,15.091864,0,0,0,7,2,16.035,1704.9466175504,15.419948,0.447388,0,0,0,-2.460634,163.1, 0.6, 1.2,0,0,1024,1024,1252,1024,0,0,35,0,294.8,-43,-18.7,99,4.018,4.033,4.029,3.995,0,0,17.46,85.91,1704.9466175504,15.419948,6,P-GPS,
15200,2025-09-03 13:47:25,0,0,15.748032,,,1705.2747015504,15.419948,0,0,0,7,2,16.035,1705.2747015504,15.748032,0.447388,0,0,0,-2.460634,163.1, 0.3, 1.6,0,0,1024,1024,1260,1024,0,0,36,0,295.7,-42.9,-18.5,99,4.018,4.033,4.029,3.995,0,0,17.46,85.91,1705.2747015504,15.748032,6,P-GPS,
15300,2025-09-03 13:47:25,0,0,16.076116,,,1705.6027855504,15.748032,0,0,0,7,2,16.035,1705.6027855504,16.076116,0.447388,0,0,0,-2.23694,163.2, 0.2, 1.9,0,0,1024,1024,1260,1024,0,0,36,0,295.7,-42.9,-18.5,99,4.018,4.033,4.029,3.995,0,0,17.46,85.91,1705.6027855504,16.076116,6,P-GPS,
15400,2025-09-03 13:47:25,0,0,16.4042,,,1705.9308695504,16.076116,0,0,0,7,2,16.035,1705.9308695504,16.4042,0.447388,0,0,0,-2.23694,163.2, 0.2, 2.1,0,0,1024,1024,1258,1024,0,0,35,0,295.4,-42.9,-18.7,99,4.018,4.033,4.029,3.995,0,0,17.46,85.91,1705.9308695504,16.4042,6,P-GPS,
15500,2025-09-03 13:47:25,0,0,16.732284,,,1706.2589535504,16.4042,0,0,0,7,2,15.935,1706.2589535504,16.732284,0.447388,0,0,0,-2.23694,163.2, 0.1, 2,0,0,1024,1024,1266,1024,0,0,37,0,294.8,-43.2,-18.5,99,4.018,4.033,4.029,3.995,0,0,17.46,85.91,1706.2589535504,16.732284,6,P-GPS,
15600,2025-09-03 13:47:26,0,0,17.060368,,,1706.5870375504,17.060368,0,0,0,7,2,15.935,1706.5870375504,17.060368,0.447388,0,0,0,-2.23694,163.1, 0.1, 1.7,0,0,1024,1024,1268,1024,0,0,37,0,294.8,-43.1,-18.7,99,4.018,4.033,4.029,3.995,0,0,17.46,85.91,1706.5870375504,17.060368,6,P-GPS,
15700,2025-09-03 13:47:26,0,0,17.388452,,,1706.9151215504,17.388452,0,0,0,7,2,15.935,1706.9151215504,17.388452,0.447388,0,0,0,-2.23694,163.1, 0, 1.4,0,0,1024,1024,1270,1024,0,0,37,0,294.7,-43.5,-19.6,99,4.018,4.033,4.029,3.995,0,0,17.46,85.91,1706.9151215504,17.388452,6,P-GPS,
15800,2025-09-03 13:47:26,0,0,17.716536,,,1707.2432055504,17.716536,0,0,0,7,2,15.935,1707.2432055504,17.716536,0.447388,0,0,0,-2.460634,163.1, 0, 1,0,0,1024,1024,1271,1024,0,0,37,0,293.9,-43.6,-19.6,99,4.018,4.033,4.029,3.995,0,0,17.46,85.91,1707.2432055504,17.716536,6,P-GPS,
15900,2025-09-03 13:47:26,0,0,18.04462,,,1707.5712895504,18.04462,0,0,0,8,2,15.935,1707.5712895504,18.04462,0.447388,0,0,0,-2.460634,163.1, 0, 0.7,0,0,1024,1024,1272,1024,0,0,38,0,293.9,-43.8,-20.1,99,4.018,4.033,4.029,3.995,0,0,17.46,85.91,1707.5712895504,18.04462,6,P-GPS,
16000,2025-09-03 13:47:26,0,0,18.372704,,,1707.8993735504,18.372704,0,0,0,8,2,15.935,1707.8993735504,18.372704,0.447388,0,0,0,-2.460634,163.2, 0, 0.8,0,0,1024,1024,1273,1024,0,0,38,0,294.3,-43.7,-19.9,99,4.018,4.033,4.029,3.995,0,0,17.46,85.91,1707.8993735504,18.372704,6,P-GPS,
16100,2025-09-03 13:47:26,0,0,19.028872,,,1708.5555415504,18.700788,0,0,0,8,2,15.935,1708.5555415504,19.028872,0.447388,0,0,0,-2.460634,163.2, 0, 1,0,0,1024,1024,1274,1024,0,0,38,0,293.9,-43.7,-19.4,99,4.018,4.033,4.029,3.995,0,0,17.46,85.91,1708.5555415504,19.028872,6,P-GPS,
16200,2025-09-03 13:47:26,0,0,19.356956,,,1708.8836255504,19.356956,0,0,0,8,2,15.935,1708.8836255504,19.356956,0.447388,0,0,0,-2.460634,163.2, 0, 1.2,0,0,1024,1024,1274,1024,0,0,38,0,294.3,-43.5,-19.3,99,4.018,4.033,4.029,3.995,0,0,17.46,85.91,1708.8836255504,19.356956,6,P-GPS,
16300,2025-09-03 13:47:26,0,0,19.68504,,,1709.2117095504,19.68504,0.223694,0,0,8,2,15.935,1709.2117095504,19.68504,0.447388,0,-0.223694,0,-2.460634,163.2, 0, 1.2,0,0,1024,1024,1276,1024,0,0,38,0,294.4,-43.2,-19.2,99,4.018,4.033,4.029,3.995,0,0,17.46,85.91,1709.2117095504,19.68504,6,P-GPS,
16400,2025-09-03 13:47:26,0,0,20.013124,,,1709.5397935504,20.013124,0,0,0,8,2,15.935,1709.5397935504,20.013124,0.447388,0,0,0,-2.460634,163.2, 0.2, 1.1,0,0,1024,1024,1277,1024,0,0,38,0,293.9,-43.5,-19.1,99,4.018,4.033,4.029,3.995,0,0,17.46,85.91,1709.5397935504,20.013124,6,P-GPS,
16500,2025-09-03 13:47:26,0,0,20.341208,,,1709.8678775504,20.341208,0.223694,0,0,8,2,15.971,1709.8678775504,20.341208,0.447388,0,-0.223694,0,-2.460634,163.2, 0.1, 1,0,0,1024,1024,1278,1024,0,0,38,0,294.1,-43.2,-19.3,99,4.018,4.033,4.029,3.998,0,0,17.044,85.91,1709.8678775504,20.341208,6,P-GPS,
16600,2025-09-03 13:47:27,0,0,20.669292,,,1710.1959615504,20.997376,0,0,0,8,2,15.971,1710.1959615504,20.669292,0.447388,0,0,0,-2.684328,163.2, 0.1, 1,0,0,1024,1024,1276,1024,0,0,38,0,294.1,-43.2,-19.3,99,4.018,4.033,4.029,3.998,0,0,17.044,85.91,1710.1959615504,20.669292,6,P-GPS,
16700,2025-09-03 13:47:27,0,0,21.32546,,,1710.8521295504,21.32546,0.223694,0,0,7,2,15.971,1710.8521295504,21.32546,0.447388,0,-0.223694,0,-2.684328,163.1, 0.2, 1.1,0,0,1024,1024,1278,1024,0,0,38,0,294.2,-43.1,-19.5,99,4.018,4.033,4.029,3.998,0,0,17.044,85.91,1710.8521295504,21.32546,6,P-GPS,
16800,2025-09-03 13:47:27,0,0,21.653544,,,1711.1802135504,21.653544,0.223694,0,0,7,2,15.971,1711.1802135504,21.653544,0.447388,0,-0.223694,0,-2.684328,163.2, 0.7, 1.4,0,0,1024,1024,1277,1024,0,0,38,0,293.7,-42.8,-18.9,99,4.018,4.033,4.029,3.998,0,0,17.044,85.91,1711.1802135504,21.653544,6,P-GPS,
16900,2025-09-03 13:47:27,0,0,21.981628,,,1711.5082975504,22.309712,0.223694,0,0,8,2,15.971,1711.5082975504,21.981628,0.447388,0,-0.223694,0,-2.684328,163.2, 0.8, 1.4,0,0,1024,1024,1274,1024,0,0,38,0,293.7,-42.7,-18.9,99,4.018,4.033,4.029,3.998,0,0,17.044,85.91,1711.5082975504,21.981628,6,P-GPS,
17000,2025-09-03 13:47:27,0,0,22.309712,,,1711.8363815504,22.637796,0.223694,0,0,8,2,15.971,1711.8363815504,22.309712,0.447388,0,-0.223694,0,-2.684328,163.2, 0.9, 1.2,0,0,1024,1024,1274,1024,0,0,38,0,294,-42.6,-19.4,99,4.018,4.033,4.029,3.998,0,0,17.044,85.91,1711.8363815504,22.309712,6,P-GPS,
17100,2025-09-03 13:47:27,0,0,22.96588,,,1712.4925495504,22.96588,0.223694,0,0,7,2,15.971,1712.4925495504,22.96588,0.447388,0,-0.223694,0,-2.684328,163.2, 0.9, 0.9,0,0,1024,1024,1277,1024,0,0,38,0,293.2,-42.8,-19.6,99,4.018,4.033,4.029,3.998,0,0,17.044,85.91,1712.4925495504,22.96588,6,P-GPS,
17200,2025-09-03 13:47:27,0,0,23.293964,,,1712.8206335504,23.293964,0.223694,0,0,7,2,15.971,1712.8206335504,23.293964,0.447388,0,-0.223694,0,-2.684328,163.2, 0.8, 0.4,0,0,1024,1024,1277,1024,0,0,38,0,292.8,-43.3,-19.9,99,4.018,4.033,4.029,3.998,0,0,17.044,85.91,1712.8206335504,23.293964,6,P-GPS,
17300,2025-09-03 13:47:27,0,0,23.622048,,,1713.1487175504,23.950132,0,0,0,7,2,15.971,1713.1487175504,23.622048,0.447388,0,0,0,-2.684328,163.2, 0.7, 0.4,0,0,1024,1024,1271,1024,0,0,37,0,293.2,-43.1,-19.9,99,4.018,4.033,4.029,3.998,0,0,17.044,85.91,1713.1487175504,23.622048,6,P-GPS,
17400,2025-09-03 13:47:27,0,0,23.950132,,,1713.4768015504,24.278216,0,0,0,7,2,15.971,1713.4768015504,23.950132,0.447388,0,0,0,-2.684328,163.2, 0.6, 0.4,0,0,1024,1024,1275,1024,0,0,38,0,293,-43.2,-20.3,99,4.018,4.033,4.029,3.998,0,0,17.044,85.91,1713.4768015504,23.950132,6,P-GPS,
17500,2025-09-03 13:47:28,0,0,24.278216,,,1713.8048855504,24.6063,0,0,0,7,2,15.929,1713.8048855504,24.278216,0.447388,0,0,0,-2.684328,163.1, 0.6, 0.7,0,0,1024,1024,1275,1024,0,0,38,0,292.7,-43.1,-20.1,99,4.018,4.033,4.029,3.998,0,0,17.668,85.91,1713.8048855504,24.278216,6,P-GPS,
17600,2025-09-03 13:47:28,0,0,24.934384,,,1714.4610535504,25.262468,0,0,0,7,2,15.929,1714.4610535504,24.934384,0.447388,0,0,0,-2.684328,163.1, 0.6, 1,0,0,1024,1024,1270,1024,0,0,37,0,292.8,-43.2,-19.6,99,4.018,4.033,4.029,3.998,0,0,17.668,85.91,1714.4610535504,24.934384,6,P-GPS,
17700,2025-09-03 13:47:28,0,0,25.262468,,,1714.7891375504,25.590552,0,0,0,7,2,15.929,1714.7891375504,25.262468,0.447388,0,0,0,-2.684328,163.2, 0.5, 1.3,0,0,1024,1024,1265,1024,0,0,37,0,292.6,-43.2,-19.7,99,4.018,4.033,4.029,3.998,0,0,17.668,85.91,1714.7891375504,25.262468,6,P-GPS,
17800,2025-09-03 13:47:28,0,0,25.590552,,,1715.1172215504,25.918636,0,0,0,7,2,15.929,1715.1172215504,25.590552,0.447388,0,0,0,-2.460634,163.2, 0.7, 1.1,0,0,1024,1024,1270,1024,0,0,37,0,292.2,-43.3,-20.1,99,4.018,4.033,4.029,3.998,0,0,17.668,85.91,1715.1172215504,25.590552,6,P-GPS,
17900,2025-09-03 13:47:28,0,0,25.918636,,,1715.4453055504,26.24672,0,0,0,7,2,15.929,1715.4453055504,25.918636,0.447388,0,0,0,-2.460634,163.2, 0.8, 0.6,0,0,1024,1024,1271,1024,0,0,37,0,292.2,-43.3,-20.1,99,4.018,4.033,4.029,3.998,0,0,17.668,85.91,1715.4453055504,25.918636,6,P-GPS,
18000,2025-09-03 13:47:28,0,0,26.24672,,,1715.7733895504,26.902888,0,0,0,7,2,15.929,1715.7733895504,26.24672,0.447388,0,0,0,-2.460634,163.2, 0.7, 0.4,0,0,1024,1024,1271,1024,0,0,37,0,292.3,-43.2,-20.5,99,4.018,4.033,4.029,3.998,0,0,17.668,85.91,1715.7733895504,26.24672,6,P-GPS,
18100,2025-09-03 13:47:28,0,0,26.574804,,,1716.1014735504,27.230972,0,0,0,7,2,15.929,1716.1014735504,26.574804,0.447388,0,0,0,-2.460634,163.3, 0.5, 0.3,0,0,1024,1024,1268,1024,0,0,37,0,291.9,-43.6,-20.6,99,4.018,4.033,4.029,3.998,0,0,17.668,85.91,1716.1014735504,26.574804,6,P-GPS,
18200,2025-09-03 13:47:28,0,0,27.230972,,,1716.7576415504,27.559056,0,0,0,7,2,15.929,1716.7576415504,27.230972,0.447388,0,0,0,-2.460634,163.3, 0.6, 0.3,0,0,1024,1024,1265,1024,0,0,37,0,292.1,-43.4,-20.6,99,4.018,4.033,4.029,3.998,0,0,17.668,85.91,1716.7576415504,27.230972,6,P-GPS,
18300,2025-09-03 13:47:28,0,0,27.559056,,,1717.0857255504,27.88714,0,0,0,7,2,15.929,1717.0857255504,27.559056,0.447388,0,0,0,-2.460634,163.3, 0.7, 0.3,0,0,1024,1024,1270,1024,0,0,37,0,292.1,-43.2,-20.6,99,4.018,4.033,4.029,3.998,0,0,17.668,85.91,1717.0857255504,27.559056,6,P-GPS,
18400,2025-09-03 13:47:28,0,0,27.88714,,,1717.4138095504,28.215224,0,0,0,7,2,15.929,1717.4138095504,27.88714,0.447388,0,0,0,-2.460634,163.3, 0.9, 0,0,0,1024,1024,1269,1024,0,0,37,0,291.9,-43.2,-20.7,99,4.018,4.033,4.029,3.998,0,0,17.668,85.91,1717.4138095504,27.88714,6,P-GPS,
18500,2025-09-03 13:47:28,0,0,28.215224,,,1717.7418935504,28.543308,0,0,0,8,2,15.917,1717.7418935504,28.215224,0.447388,0,0,0,-2.460634,163.3, 0.8, 0,0,0,1024,1024,1266,1024,0,0,37,0,291.6,-43.5,-20.8,99,4.006,4.02,4.016,3.981,0,0,17.668,85.91,1717.7418935504,28.215224,6,P-GPS,
18600,2025-09-03 13:47:29,0,0,28.543308,,,1718.0699775504,29.199476,0,0,0,8,2,15.917,1718.0699775504,28.543308,0.447388,0,0,0,-2.460634,163.2, 0.6, 0.2,0,0,1024,1024,1269,1024,0,0,37,0,291.6,-43.5,-20.4,99,4.006,4.02,4.016,3.981,0,0,17.668,85.91,1718.0699775504,28.543308,6,P-GPS,
18700,2025-09-03 13:47:29,0,0,28.871392,,,1718.3980615504,29.52756,0,0,0,8,2,15.917,1718.3980615504,28.871392,0.447388,0,0,0,-2.460634,163.2, 0.5, 0.3,0,0,1024,1024,1266,1024,0,0,37,0,291.7,-43.4,-20.3,99,4.006,4.02,4.016,3.981,0,0,17.668,85.91,1718.3980615504,28.871392,6,P-GPS,
18800,2025-09-03 13:47:29,0,0,29.199476,,,1718.7261455504,29.855644,0,0,0,8,2,15.917,1718.7261455504,29.199476,0.447388,0,0,0,-2.460634,163.2, 0.5, 0.4,0,0,1024,1024,1266,1024,0,0,37,0,292.2,-43.4,-19.8,99,4.006,4.02,4.016,3.981,0,0,17.668,85.91,1718.7261455504,29.199476,6,P-GPS,
18900,2025-09-03 13:47:29,0,0,29.52756,,,1719.0542295504,30.183728,0,0,0,8,2,15.917,1719.0542295504,29.52756,0.447388,0,0,0,-2.460634,163.3, 0.4, 0.6,0,0,1024,1024,1271,1024,0,0,37,0,291.7,-43.6,-19.9,99,4.006,4.02,4.016,3.981,0,0,17.668,85.91,1719.0542295504,29.52756,6,P-GPS,
19000,2025-09-03 13:47:29,0,0,30.183728,,,1719.7103975504,30.511812,0,0,0,8,2,15.917,1719.7103975504,30.183728,0.447388,0,0,0,-2.460634,163.3, 0.4, 0.4,0,0,1024,1024,1272,1024,0,0,38,0,291.9,-43.4,-19.8,99,4.006,4.02,4.016,3.981,0,0,17.668,85.91,1719.7103975504,30.183728,6,P-GPS,
19100,2025-09-03 13:47:29,0,0,30.511812,,,1720.0384815504,30.839896,0,0,0,7,2,15.917,1720.0384815504,30.511812,0.447388,0,0,0,-2.460634,163.3, 0.5, 0.3,0,0,1024,1024,1272,1024,0,0,38,0,291.5,-43.4,-19.6,99,4.006,4.02,4.016,3.981,0,0,17.668,85.91,1720.0384815504,30.511812,6,P-GPS,
19200,2025-09-03 13:47:29,0,0,30.839896,,,1720.3665655504,31.16798,0,0,0,7,2,15.917,1720.3665655504,30.839896,0.447388,0,0,0,-2.460634,163.2, 0.7, 0.4,0,0,1024,1024,1273,1024,0,0,38,0,291.5,-43.4,-19.6,99,4.006,4.02,4.016,3.981,0,0,17.668,85.91,1720.3665655504,30.839896,6,P-GPS,
19300,2025-09-03 13:47:29,0,0,31.16798,,,1720.6946495504,31.496064,0,0,0,8,2,15.917,1720.6946495504,31.16798,0.447388,0,0,0,-2.460634,163.2, 0.6, 0.5,0,0,1024,1024,1268,1024,0,0,37,0,291.6,-43.5,-19.9,99,4.006,4.02,4.016,3.981,0,0,17.668,85.91,1720.6946495504,31.16798,6,P-GPS,
19400,2025-09-03 13:47:29,0,0,31.496064,,,1721.0227335504,31.824148,0,0,0,8,2,15.917,1721.0227335504,31.496064,0.447388,0,0,0,-2.460634,163.2, 0.4, 0.6,0,0,1024,1024,1264,1024,0,0,36,0,291.8,-43.6,-19.9,99,4.006,4.02,4.016,3.981,0,0,17.668,85.91,1721.0227335504,31.496064,6,P-GPS,
19500,2025-09-03 13:47:29,0,0,31.824148,,,1721.3508175504,32.152232,0,0,0,8,2,15.895,1721.3508175504,31.824148,0.447388,0,0,0,-2.460634,163.3, 0.4, 0.7,0,0,1024,1024,1265,1024,0,0,37,0,291.4,-43.7,-19.6,99,4.006,4.02,4.014,3.979,0,0,17.176,85.91,1721.3508175504,31.824148,6,P-GPS,
19600,2025-09-03 13:47:30,0,0,32.152232,,,1721.6789015504,32.480316,0,0,0,8,2,15.895,1721.6789015504,32.152232,0.447388,0,0,0,-2.460634,163.3, 0.5, 0.6,0,0,1024,1024,1266,1024,0,0,37,0,291.5,-43.5,-19.5,99,4.006,4.02,4.014,3.979,0,0,17.176,85.91,1721.6789015504,32.152232,6,P-GPS,
19700,2025-09-03 13:47:30,0,0,32.480316,,,1722.0069855504,32.8084,0,0,0,7,2,15.895,1722.0069855504,32.480316,0.447388,0,0,0,-2.460634,163.3, 0.6, 0.6,0,0,1024,1024,1263,1024,0,0,36,0,291.4,-43.5,-19.9,99,4.006,4.02,4.014,3.979,0,0,17.176,85.91,1722.0069855504,32.480316,6,P-GPS,
19800,2025-09-03 13:47:30,0,0,32.8084,,,1722.3350695504,33.136484,0,0,0,7,2,15.895,1722.3350695504,32.8084,0.447388,0,0,0,-2.23694,163.3, 0.5, 0.4,0,0,1024,1024,1262,1024,0,0,36,0,291.2,-43.5,-19.8,99,4.006,4.02,4.014,3.979,0,0,17.176,85.91,1722.3350695504,32.8084,6,P-GPS,
19900,2025-09-03 13:47:30,0,0,33.136484,,,1722.6631535504,33.792652,0,0,0,6,2,15.895,1722.6631535504,33.136484,0.447388,0,0,0,-2.460634,163.3, 0.6, 0.3,0,0,1024,1024,1268,1024,0,0,37,0,290.7,-43.7,-20,99,4.006,4.02,4.014,3.979,0,0,17.176,85.91,1722.6631535504,33.136484,6,P-GPS,
20000,2025-09-03 13:47:30,0,0,33.464568,,,1722.9912375504,34.120736,0,0,0,6,2,15.895,1722.9912375504,33.464568,0.447388,0,0,0,-2.23694,163.3, 0.7, 0.1,0,0,1024,1024,1269,1024,0,0,37,0,290.6,-43.7,-19.9,99,4.006,4.02,4.014,3.979,0,0,17.176,85.91,1722.9912375504,33.464568,6,P-GPS,
20100,2025-09-03 13:47:30,0,0,33.792652,,,1723.3193215504,34.44882,0,0,0,6,2,15.895,1723.3193215504,33.792652,0.447388,0,0,0,-2.23694,163.3, 0.7, 0.2,0,0,1024,1024,1268,1024,0,0,37,0,290.6,-43.7,-19.7,99,4.006,4.02,4.014,3.979,0,0,17.176,85.91,1723.3193215504,33.792652,6,P-GPS,
20200,2025-09-03 13:47:30,0,0,34.120736,,,1723.6474055504,34.776904,0,0,0,6,2,15.895,1723.6474055504,34.120736,0.447388,0,0,0,-2.23694,163.3, 0.7, 0.2,0,0,1024,1024,1265,1024,0,0,37,0,290.3,-43.8,-19.7,99,4.006,4.02,4.014,3.979,0,0,17.176,85.91,1723.6474055504,34.120736,6,P-GPS,
20300,2025-09-03 13:47:30,0,0,34.120736,,,1723.6474055504,35.104988,0,0,0,7,2,15.895,1723.6474055504,34.120736,0.447388,0,0,0,-2.23694,163.3, 0.5, 0,0,0,1024,1024,1256,1024,0,0,35,0,290.6,-43.8,-20.2,99,4.006,4.02,4.014,3.979,0,0,17.176,85.91,1723.6474055504,34.120736,6,P-GPS,
20400,2025-09-03 13:47:30,0,0,34.44882,,,1723.9754895504,35.433072,0,0,0,7,2,15.895,1723.9754895504,34.44882,0.447388,0,0,0,-2.23694,163.2, 0.4, 0,0,0,1024,1024,1261,1024,0,0,36,0,290.3,-44,-20.5,99,4.006,4.02,4.014,3.979,0,0,17.176,85.91,1723.9754895504,34.44882,6,P-GPS,
20500,2025-09-03 13:47:31,0,0,34.776904,,,1724.3035735504,35.761156,0,0,0,7,2,15.876,1724.3035735504,34.776904,0.447388,0,0,0,-2.23694,163.2, 0.4, 0,0,0,1024,1024,1262,1024,0,0,36,0,290.3,-44,-20.5,99,3.993,4.007,4.014,3.979,0,0,17.498,87.71,1724.3035735504,34.776904,6,P-GPS,
20600,2025-09-03 13:47:31,0,0,35.104988,,,1724.6316575504,36.08924,0,0,0,7,2,15.876,1724.6316575504,35.104988,0.447388,0,0,0,-2.23694,163.2, 0.6, 0.3,0,0,1024,1024,1264,1024,0,0,36,0,290,-43.9,-20,99,3.993,4.007,4.014,3.979,0,0,17.498,87.71,1724.6316575504,35.104988,6,P-GPS,
20700,2025-09-03 13:47:31,0,0,35.433072,,,1724.9597415504,36.417324,0,0,0,7,2,15.876,1724.9597415504,35.433072,0.447388,0,0,0,-2.23694,163.1, 0.8, 0.4,0,0,1024,1024,1266,1024,0,0,37,0,289.9,-43.7,-20,99,3.993,4.007,4.014,3.979,0,0,17.498,87.71,1724.9597415504,35.433072,6,P-GPS,
20800,2025-09-03 13:47:31,0,0,35.761156,,,1725.2878255504,36.745408,0,0,0,7,2,15.876,1725.2878255504,35.761156,0.447388,0,0,0,-2.23694,163.1, 1, 0.4,0,0,1024,1024,1261,1024,0,0,36,0,290.3,-43.3,-20,99,3.993,4.007,4.014,3.979,0,0,17.498,87.71,1725.2878255504,35.761156,6,P-GPS,
20900,2025-09-03 13:47:31,0,0,36.08924,,,1725.6159095504,37.073492,0,0,0,7,2,15.876,1725.6159095504,36.08924,0.447388,0,0,0,-2.23694,163.1, 1, 0.5,0,0,1024,1024,1266,1024,0,0,37,0,290.1,-43.5,-20.1,99,3.993,4.007,4.014,3.979,0,0,17.498,87.71,1725.6159095504,36.08924,6,P-GPS,
21000,2025-09-03 13:47:31,0,0,36.417324,,,1725.9439935504,37.401576,0,0,0,7,2,15.876,1725.9439935504,36.417324,0.447388,0,0,0,-2.23694,163.1, 1, 0.6,0,0,1024,1024,1265,1024,0,0,37,0,290.3,-43.4,-19.3,99,3.993,4.007,4.014,3.979,0,0,17.498,87.71,1725.9439935504,36.417324,6,P-GPS,
21100,2025-09-03 13:47:31,0,0,36.745408,,,1726.2720775504,37.72966,0,0,0,7,2,15.876,1726.2720775504,36.745408,0.447388,0,0,0,-2.23694,163.1, 1, 0.7,0,0,1024,1024,1261,1024,0,0,36,0,290.7,-43.3,-19.3,99,3.993,4.007,4.014,3.979,0,0,17.498,87.71,1726.2720775504,36.745408,6,P-GPS,
21200,2025-09-03 13:47:31,0,0,36.745408,,,1726.2720775504,38.057744,0,0,0,7,2,15.876,1726.2720775504,36.745408,0.447388,0,0,0,-2.23694,163.1, 0.8, 0.5,0,0,1024,1024,1262,1024,0,0,36,0,290,-43.4,-19.7,99,3.993,4.007,4.014,3.979,0,0,17.498,87.71,1726.2720775504,36.745408,6,P-GPS,
21300,2025-09-03 13:47:31,0,0,37.073492,,,1726.6001615504,38.385828,0,0,0,7,2,15.876,1726.6001615504,37.073492,0.447388,0,0,0,-2.23694,163.2, 0.9, 0.3,0,0,1024,1024,1265,1024,0,0,37,0,289.6,-43.5,-19.3,99,3.993,4.007,4.014,3.979,0,0,17.498,87.71,1726.6001615504,37.073492,6,P-GPS,
21400,2025-09-03 13:47:31,0,0,37.073492,,,1726.6001615504,38.713912,0,0,0,7,2,15.876,1726.6001615504,37.073492,0.447388,0,0,0,-2.23694,163.2, 1.1, 0.2,0,0,1024,1024,1266,1024,0,0,37,0,289.9,-43.3,-19.5,99,3.993,4.007,4.014,3.979,0,0,17.498,87.71,1726.6001615504,37.073492,6,P-GPS,
21500,2025-09-03 13:47:31,0,0,37.401576,,,1726.9282455504,39.041996,0,0,0,7,2,15.815,1726.9282455504,37.401576,0.447388,0,0,0,-2.23694,163.3, 1.2, 0.2,0,0,1024,1024,1263,1024,0,0,36,0,289.8,-43.3,-19.7,98,3.983,3.997,3.993,3.96,0,0,17.538,87.71,1726.9282455504,37.401576,6,P-GPS,
21600,2025-09-03 13:47:32,0,0,37.72966,,,1727.2563295504,39.37008,0,0,0,7,2,15.815,1727.2563295504,37.72966,0.447388,0,0,0,-2.23694,163.3, 1.1, 0.5,0,0,1024,1024,1265,1024,0,0,37,0,289.5,-43.5,-19,98,3.983,3.997,3.993,3.96,0,0,17.538,87.71,1727.2563295504,37.72966,6,P-GPS,
21700,2025-09-03 13:47:32,0,0,38.057744,,,1727.5844135504,39.698164,0,0,0,7,2,15.815,1727.5844135504,38.057744,0.447388,0,0,0,-2.23694,163.3, 1.1, 0.4,0,0,1024,1024,1265,1024,0,0,37,0,289.4,-43.5,-19.8,98,3.983,3.997,3.993,3.96,0,0,17.538,87.71,1727.5844135504,38.057744,6,P-GPS,
21800,2025-09-03 13:47:32,0,0,38.385828,,,1727.9124975504,40.026248,0,0,0,7,2,15.815,1727.9124975504,38.385828,0.447388,0,0,0,-2.23694,163.3, 1.1, 0,0,0,1024,1024,1262,1024,0,0,36,0,289.4,-43.5,-19.8,98,3.983,3.997,3.993,3.96,0,0,17.538,87.71,1727.9124975504,38.385828,6,P-GPS,
21900,2025-09-03 13:47:32,0,0,38.713912,,,1728.2405815504,40.682416,0,0,0,7,2,15.815,1728.2405815504,38.713912,0.447388,0,0,0,-2.23694,163.3, 1.3, -0.2,0,0,1024,1024,1262,1024,0,0,36,0,289.1,-43.5,-20.2,98,3.983,3.997,3.993,3.96,0,0,17.538,87.71,1728.2405815504,38.713912,6,P-GPS,
22000,2025-09-03 13:47:32,0,0,38.713912,,,1728.2405815504,41.0105,0,0,0,7,2,15.815,1728.2405815504,38.713912,0.447388,0,0,0,-2.23694,163.2, 1.4, -0.3,0,0,1024,1024,1263,1024,0,0,36,0,289.1,-43.2,-20.2,98,3.983,3.997,3.993,3.96,0,0,17.538,87.71,1728.2405815504,38.713912,6,P-GPS,
22100,2025-09-03 13:47:32,0,0,39.041996,,,1728.5686655504,41.338584,0,0,0,7,2,15.815,1728.5686655504,39.041996,0.447388,0,0,0,-2.23694,163.2, 1.4, -0.1,0,0,1024,1024,1263,1024,0,0,36,0,289.2,-43.2,-20.3,98,3.983,3.997,3.993,3.96,0,0,17.538,87.71,1728.5686655504,39.041996,6,P-GPS,
22200,2025-09-03 13:47:32,0,0,39.37008,,,1728.8967495504,41.666668,0,0,0,7,2,15.815,1728.8967495504,39.37008,0.447388,0,0,0,-2.23694,163.2, 1.4, 0,0,0,1024,1024,1262,1024,0,0,36,0,288.9,-43.3,-19.8,98,3.983,3.997,3.993,3.96,0,0,17.538,87.71,1728.8967495504,39.37008,6,P-GPS,
22300,2025-09-03 13:47:32,0,0,39.37008,,,1728.8967495504,41.994752,0,0,0,7,2,15.815,1728.8967495504,39.37008,0.447388,0,0,0,-2.23694,163.2, 1.5, 0.3,0,0,1024,1024,1264,1024,0,0,36,0,289.3,-43,-19.4,98,3.983,3.997,3.993,3.96,0,0,17.538,87.71,1728.8967495504,39.37008,6,P-GPS,
22400,2025-09-03 13:47:32,0,0,40.026248,,,1729.5529175504,42.322836,0,0,0,7,2,15.815,1729.5529175504,40.026248,0.447388,0,0,0,-2.23694,163.2, 1.4, 0.6,0,0,1024,1024,1261,1024,0,0,36,0,289.6,-42.9,-19.4,98,3.983,3.997,3.993,3.96,0,0,17.538,87.71,1729.5529175504,40.026248,6,P-GPS,
22500,2025-09-03 13:47:33,0,0,40.354332,,,1729.8810015504,42.65092,0,0,0,7,2,15.786,1729.8810015504,40.354332,0.447388,0,0,0,-2.23694,163.2, 1.4, 0.6,0,0,1024,1024,1259,1024,0,0,36,0,289.2,-43.2,-19.5,98,3.983,3.997,3.993,3.96,0,0,17.538,87.71,1729.8810015504,40.354332,6,P-GPS,
22600,2025-09-03 13:47:33,0,0,40.354332,,,1729.8810015504,42.979004,0,0,0,7,2,15.786,1729.8810015504,40.354332,0.447388,0,0,0,-2.23694,163.2, 1.4, 0.6,0,0,1024,1024,1262,1024,0,0,36,0,289,-42.9,-19.8,98,3.983,3.997,3.993,3.96,0,0,17.538,87.71,1729.8810015504,40.354332,6,P-GPS,
22700,2025-09-03 13:47:33,0,0,40.682416,,,1730.2090855504,42.979004,0,0,0,8,2,15.786,1730.2090855504,40.682416,0.447388,0,0,0,-2.23694,163.3, 1.6, 0.3,0,0,1024,1024,1264,1024,0,0,36,0,289.1,-42.7,-19.7,98,3.983,3.997,3.993,3.96,0,0,17.538,87.71,1730.2090855504,40.682416,6,P-GPS,
22800,2025-09-03 13:47:33,0,0,41.0105,,,1730.5371695504,42.979004,0,0,0,8,2,15.786,1730.5371695504,41.0105,0.447388,0,0,0,-2.23694,163.3, 1.7, 0,0,0,1024,1024,1262,1024,0,0,36,0,288.5,-43,-19.9,98,3.983,3.997,3.993,3.96,0,0,17.538,87.71,1730.5371695504,41.0105,6,P-GPS,
22900,2025-09-03 13:47:33,0,0,41.0105,,,1730.5371695504,42.979004,0,0,0,8,2,15.786,1730.5371695504,41.0105,0.447388,0,0,0,-2.23694,163.4, 1.8, 0,0,0,1024,1024,1262,1024,0,0,36,0,289.1,-43,-19.5,98,3.983,3.997,3.993,3.96,0,0,17.538,87.71,1730.5371695504,41.0105,6,P-GPS,
23000,2025-09-03 13:47:33,0,0,41.338584,,,1730.8652535504,42.979004,0,0,0,8,2,15.786,1730.8652535504,41.338584,0.447388,0,0,0,-2.23694,163.4, 1.6, 0.4,0,0,1024,1024,1265,1024,0,0,37,0,289.1,-42.6,-19.8,98,3.983,3.997,3.993,3.96,0,0,17.538,87.71,1730.8652535504,41.338584,6,P-GPS,
23100,2025-09-03 13:47:33,0,0,41.338584,,,1730.8652535504,42.979004,0,0,0,8,2,15.786,1730.8652535504,41.338584,0.447388,0,0,0,-2.23694,163.4, 1.8, 0.8,0,0,1024,1024,1265,1024,0,0,37,0,289.1,-42.6,-19.8,98,3.983,3.997,3.993,3.96,0,0,17.538,87.71,1730.8652535504,41.338584,6,P-GPS,
23200,2025-09-03 13:47:33,0,0,41.666668,,,1731.1933375504,42.979004,0,0,0,8,2,15.786,1731.1933375504,41.666668,0.447388,0,0,0,-2.23694,163.3, 1.3, 0.7,0,0,1024,1024,1265,1024,0,0,37,0,288.5,-43.4,-19.6,98,3.983,3.997,3.993,3.96,0,0,17.538,87.71,1731.1933375504,41.666668,6,P-GPS,
23300,2025-09-03 13:47:33,0,0,41.994752,,,1731.5214215504,42.979004,0,0,0,8,2,15.786,1731.5214215504,41.994752,0.447388,0,0,0,-2.23694,163.3, 1.1, 1,0,0,1024,1024,1267,1024,0,0,37,0,288.9,-43.4,-19.6,98,3.983,3.997,3.993,3.96,0,0,17.538,87.71,1731.5214215504,41.994752,6,P-GPS,
23400,2025-09-03 13:47:33,0,0,42.322836,,,1731.8495055504,42.979004,0,0,0,8,2,15.786,1731.8495055504,42.322836,0.447388,0,0,0,-2.23694,163.2, 1.1, 1.6,0,0,1024,1024,1268,1024,0,0,37,0,289,-43.4,-18.8,98,3.983,3.997,3.993,3.96,0,0,17.538,87.71,1731.8495055504,42.322836,6,P-GPS,
23500,2025-09-03 13:47:33,0,0,42.65092,,,1732.1775895504,42.979004,0,0,0,8,2,15.755,1732.1775895504,42.65092,0.447388,0,0,0,-2.23694,163.2, 1, 1.7,0,0,1024,1024,1268,1024,0,0,37,0,288.7,-43.7,-18.8,98,3.973,3.988,3.984,3.95,0,0,17.964,87.71,1732.1775895504,42.65092,6,P-GPS,
23600,2025-09-03 13:47:34,0,0,42.979004,,,1732.5056735504,42.979004,0,0,0,8,2,15.755,1732.5056735504,42.979004,0.447388,0,0,0,-2.23694,163.2, 0.7, 1.6,0,0,1024,1024,1268,1024,0,0,37,0,288.9,-43.8,-19.1,98,3.973,3.988,3.984,3.95,0,0,17.964,87.71,1732.5056735504,42.979004,6,P-GPS,
23700,2025-09-03 13:47:34,0,0,42.979004,,,1732.5056735504,42.979004,0,0,0,8,2,15.755,1732.5056735504,42.979004,0.447388,0,0,0,-2.23694,163.2, 0.8, 1.4,0,0,1024,1024,1269,1024,0,0,37,0,288.5,-43.6,-19.2,98,3.973,3.988,3.984,3.95,0,0,17.964,87.71,1732.5056735504,42.979004,6,P-GPS,
23800,2025-09-03 13:47:34,0,0,43.307088,,,1732.8337575504,42.979004,0,0,0,8,2,15.755,1732.8337575504,43.307088,0.447388,0,0,0,-2.23694,163.2, 1.2, 1.3,0,0,1024,1024,1270,1024,0,0,37,0,288.8,-43.3,-19.5,98,3.973,3.988,3.984,3.95,0,0,17.964,87.71,1732.8337575504,43.307088,6,P-GPS,
23900,2025-09-03 13:47:34,0,0,43.635172,,,1733.1618415504,42.979004,0,0,0,8,2,15.755,1733.1618415504,43.635172,0.447388,0,0,0,-2.23694,163.2, 1.3, 1.6,0,0,1024,1024,1271,1024,0,0,37,0,288.6,-43.3,-19,98,3.973,3.988,3.984,3.95,0,0,17.964,87.71,1733.1618415504,43.635172,6,P-GPS,
24000,2025-09-03 13:47:34,0,0,43.963256,,,1733.4899255504,42.979004,0,0,0,8,2,15.755,1733.4899255504,43.963256,0.447388,0,0,0,-2.460634,163.1, 1.3, 1.9,0,0,1024,1024,1276,1024,0,0,38,0,288.6,-43.2,-18.8,98,3.973,3.988,3.984,3.95,0,0,17.964,87.71,1733.4899255504,43.963256,6,P-GPS,
24100,2025-09-03 13:47:34,0,0,44.619424,,,1734.1460935504,42.979004,0,0,0,8,2,15.755,1734.1460935504,44.619424,0.447388,0,0,0,-2.460634,163.1, 1.4, 2,0,0,1024,1024,1264,1024,0,0,36,0,288.4,-43.2,-18.6,98,3.973,3.988,3.984,3.95,0,0,17.964,87.71,1734.1460935504,44.619424,6,P-GPS,
24200,2025-09-03 13:47:34,0,0,44.619424,,,1734.1460935504,42.979004,0,0,0,8,2,15.755,1734.1460935504,44.619424,0.447388,0,0,0,-2.460634,163.1, 1.3, 2.2,0,0,1024,1024,1268,1024,0,0,37,0,289.1,-42.8,-18.3,98,3.973,3.988,3.984,3.95,0,0,17.964,87.71,1734.1460935504,44.619424,6,P-GPS,
24300,2025-09-03 13:47:34,0,0,44.947508,,,1734.4741775504,42.979004,0.223694,0,0,8,2,15.755,1734.4741775504,44.947508,0.447388,0,0,0.223694,-2.460634,163.2, 1.5, 2.4,0,0,1024,1024,1271,1024,0,0,37,0,288.7,-42.5,-18.3,98,3.973,3.988,3.984,3.95,0,0,17.964,87.71,1734.4741775504,44.947508,6,P-GPS,
24400,2025-09-03 13:47:34,0,0,45.275592,,,1734.8022615504,42.979004,0,0,0,8,2,15.755,1734.8022615504,45.275592,0.447388,0,0,0,-2.460634,163.2, 2.1, 2.4,0,0,1024,1024,1270,1024,0,0,37,0,288.5,-42.5,-18.4,98,3.973,3.988,3.984,3.95,0,0,17.964,87.71,1734.8022615504,45.275592,6,P-GPS,
24500,2025-09-03 13:47:34,0,0,45.93176,,,1735.4584295504,42.979004,0,0,0,8,2,15.724,1735.4584295504,45.93176,0.447388,0,0,0,-2.460634,163.2, 2.2, 2.4,0,0,1024,1024,1265,1024,0,0,37,0,288.5,-42.5,-18.4,98,3.96,3.976,3.969,3.929,0,0,18.436,87.71,1735.4584295504,45.93176,6,P-GPS,
24600,2025-09-03 13:47:35,0,0,46.259844,,,1735.7865135504,42.979004,0,0,0,8,2,15.724,1735.7865135504,46.259844,0.447388,0,0,0,-2.460634,163.2, 2, 2.6,0,0,1024,1024,1269,1024,0,0,37,0,288.9,-42.5,-18.5,98,3.96,3.976,3.969,3.929,0,0,18.436,87.71,1735.7865135504,46.259844,6,P-GPS,
24700,2025-09-03 13:47:35,0,0,46.916012,,,1736.4426815504,42.979004,0,0,0,8,2,15.724,1736.4426815504,46.916012,0.447388,0,0,0,-2.460634,163.2, 2, 2.8,0,0,1024,1024,1267,1024,0,0,37,0,288.4,-42.7,-18.1,98,3.96,3.976,3.969,3.929,0,0,18.436,87.71,1736.4426815504,46.916012,6,P-GPS,
24800,2025-09-03 13:47:35,0,0,47.244096,,,1736.7707655504,42.979004,0,0,0,8,2,15.724,1736.7707655504,47.244096,0.447388,0,0,0,-2.460634,163.1, 2, 2.5,0,0,1024,1024,1264,1024,0,0,36,0,288.2,-42.7,-18.4,98,3.96,3.976,3.969,3.929,0,0,18.436,87.71,1736.7707655504,47.244096,6,P-GPS,
24900,2025-09-03 13:47:35,0,0,47.57218,,,1737.0988495504,42.979004,0,0,0,8,2,15.724,1737.0988495504,47.57218,0.447388,0,0,0,-2.460634,163.1, 2.1, 2.4,0,0,1024,1024,1260,1024,0,0,36,0,288.3,-42.4,-18.3,98,3.96,3.976,3.969,3.929,0,0,18.436,87.71,1737.0988495504,47.57218,6,P-GPS,
25000,2025-09-03 13:47:35,0,0,47.900264,,,1737.4269335504,42.979004,0,0,0,8,2,15.724,1737.4269335504,47.900264,0.447388,0,0,0,-2.460634,163.1, 2.1, 2.7,0,0,1024,1024,1257,1024,0,0,35,0,288.4,-42.5,-18.1,98,3.96,3.976,3.969,3.929,0,0,18.436,87.71,1737.4269335504,47.900264,6,P-GPS,
