time(millisecond),datetime(utc),latitude,longitude,height_above_takeoff(feet),height_above_ground_at_drone_location(feet),ground_elevation_at_drone_location(feet),altitude_above_seaLevel(feet),height_sonar(feet),speed(mph),distance(feet),mileage(feet),satellites,gpslevel,voltage(v),max_altitude(feet),max_ascent(feet),max_speed(mph),max_distance(feet), xSpeed(mph), ySpeed(mph), zSpeed(mph), compass_heading(degrees), pitch(degrees), roll(degrees),isPhoto,isVideo,rc_elevator,rc_aileron,rc_throttle,rc_rudder,rc_elevator(percent),rc_aileron(percent),rc_throttle(percent),rc_rudder(percent),gimbal_heading(degrees),gimbal_pitch(degrees),gimbal_roll(degrees),battery_percent,voltageCell1,voltageCell2,voltageCell3,voltageCell4,voltageCell5,voltageCell6,current(A),battery_temperature(f),altitude(feet),ascent(feet),flycStateRaw,flycState,message
350300,2025-09-03 07:42:07,48.1489063138513,11.5726401022446,0,Available with any HD 360 subscription,Available with any HD 360 subscription,1692.9360679535,0.328084,0,0,0,8,2,0,1692.9360679535,0,0,0,0,0,0,118.3, -2.4, 0.5,0,0,1024,1024,1024,1024,0,0,0,0,0,0,0,67,3.985,3.991,3.992,3.983,0,0,0,112.91,1692.9360679535,0,41,Motors_Started,
350400,2025-09-03 07:42:07,48.1489064602028,11.572641019377,0,,,1692.9360679535,0.328084,0,0.229550860364,0.229550860364,8,2,0,1692.9360679535,0,0,0.229550860364,0,0,0,117.8, -2.4, 0.5,0,0,1024,1024,1024,1024,0,0,0,0,14.7,-8.1,-22.1,67,3.985,3.991,3.992,3.983,0,0,0,112.91,1692.9360679535,0,41,Motors_Started,
350500,2025-09-03 07:42:08,48.148906622435,11.5726419667588,0,,,1692.9360679535,0.328084,0,0.46762796772,0.46764437192,8,2,0,1692.9360679535,0,0,0.46762796772,0,0,0,118.1, -2.3, 0.5,0,0,1024,1024,1024,1024,0,0,0,0,14.7,-8.1,-22.1,67,3.985,3.991,3.992,3.983,0,0,0,112.91,1692.9360679535,0,41,Motors_Started,
350600,2025-09-03 07:42:08,48.1489067708969,11.5726428885904,0,,,1692.9360679535,0.328084,0,0.69846787012,0.69848755516,8,2,15.857,1692.9360679535,0,0,0.69846787012,0,0,0,118.1, -2.3, 0.5,0,0,1024,1024,1024,1024,0,0,0,0,14.6,-8.1,-22.1,67,3.985,3.991,3.992,3.983,0,0,1.694,112.91,1692.9360679535,0,41,Motors_Started,"Setting new Return-To-Home altitude to 100m (328 ft). Data Recorder File Index is 234. Setting new Maximum Flight Altitude to 150m (492 ft)"
350700,2025-09-03 07:42:08,48.1489069195674,11.5726438100112,0,,,1692.9360679535,0.328084,0,112.775922244,0.9292487174,8,2,15.857,1692.9360679535,0,0,112.775922244,0,0,0,118.2, -2.4, 0.5,0,0,1024,1024,1024,1024,0,0,0,0,14.5,-8.1,-22.2,67,3.985,3.991,3.992,3.983,0,0,1.694,112.91,1692.9360679535,0,41,Motors_Started,
350800,2025-09-03 07:42:08,48.1489070686286,11.5726447322793,0,,,1692.9360679535,0.328084,0,113.006237212,1.16024938096,8,2,15.857,1692.9360679535,0,0,113.006237212,0,0,0,118.1, -2.4, 0.5,0,0,1024,1024,1024,1024,0,0,0,0,14.5,-8.1,-22.2,67,3.985,3.991,3.992,3.983,0,0,1.694,112.91,1692.9360679535,0,41,Motors_Started,
350900,2025-09-03 07:42:08,48.1489072182435,11.572645656422,0,,,1692.9360679535,0.328084,0,113.237208348,1.39173560884,8,2,15.857,1692.9360679535,0,0,113.237208348,0,0,0,118.2, -2.4, 0.4,0,0,1024,1024,1024,1024,0,0,0,0,14.4,-8.2,-22.2,67,3.985,3.991,3.992,3.983,0,0,1.694,112.91,1692.9360679535,0,41,Motors_Started,
351000,2025-09-03 07:42:08,48.1489073835306,11.5726466009021,0,,,1692.9360679535,0.328084,0,113.474741164,1.62942590516,8,2,15.857,1692.9360679535,0,0,113.474741164,0,0,0,118.2, -2.4, 0.4,0,0,365,364,364,1684,-100,-100,-100,100,14.3,-8.2,-22.3,67,3.985,3.991,3.992,3.983,0,0,1.694,112.91,1692.9360679535,0,41,Motors_Started,
351100,2025-09-03 07:42:08,48.1489075376074,11.5726475359581,0,,,1692.9360679535,0.328084,0,113.70899314,1.86388129324,8,2,15.857,1692.9360679535,0,0,113.70899314,0,0,0,118.2, -2.3, 0.5,0,0,612,488,451,1622,-62,-81,-87,91,14.3,-8.2,-22.4,67,3.985,3.991,3.992,3.983,0,0,1.694,112.91,1692.9360679535,0,41,Motors_Started,
351200,2025-09-03 07:42:08,48.1489076919774,11.5726484722724,0,,,1692.9360679535,0.328084,0,113.943245116,2.09866148448,8,2,15.857,1692.9360679535,0,0,113.943245116,0,0,0,118.2, -2.4, 0.5,0,0,1024,1007,895,1280,0,-3,-20,39,14.2,-8.3,-22.3,67,3.985,3.991,3.992,3.983,0,0,1.694,112.91,1692.9360679535,0,41,Motors_Started,
351300,2025-09-03 07:42:08,48.1489078462497,11.5726494100247,0,,,1692.9360679535,0.328084,0,114.177825176,2.33377304056,8,2,15.857,1692.9360679535,0,0,114.177825176,0,0,0,118.2, -2.4, 0.5,0,0,1024,1024,1024,1024,0,0,0,0,14.2,-8.2,-22.4,67,3.985,3.991,3.992,3.983,0,0,1.694,112.91,1692.9360679535,0,41,Motors_Started,
351400,2025-09-03 07:42:08,48.1489079858269,11.5726503026599,0,,,1692.9360679535,0.328084,0,114.400594212,2.55694890072,8,2,15.857,1692.9360679535,0,0,114.400594212,0,0,0,118.2, -2.4, 0.5,0,0,1024,1024,1024,1024,0,0,0,0,14.1,-8.2,-22.4,67,3.985,3.991,3.992,3.983,0,0,1.694,112.91,1692.9360679535,0,41,Motors_Started,
351500,2025-09-03 07:42:09,48.1489081378063,11.5726512322465,0,,,1692.9360679535,0.328084,0,114.633205768,2.78993119164,8,2,15.857,1692.9360679535,0,0,114.633205768,0,0,0,118.2, -2.4, 0.5,0,0,1024,1024,1024,1024,0,0,0,0,14,-8.3,-22.3,67,3.985,3.991,3.992,3.983,0,0,1.694,112.91,1692.9360679535,0,41,Motors_Started,
351600,2025-09-03 07:42:09,48.148908289675,11.5726521639643,0,,,1692.9360679535,0.328084,0,114.866145408,3.02340560856,8,2,15.915,1692.9360679535,0,0,114.866145408,0,0,0,118.2, -2.4, 0.5,0,0,1024,1024,1024,1024,0,0,0,0,13.9,-8.3,-22.4,67,3.985,3.991,3.992,3.983,0,0,1.694,112.91,1692.9360679535,0,41,Motors_Started,
351700,2025-09-03 07:42:09,48.1489084416414,11.5726530978135,0,,,1692.9360679535,0.328084,0,115.099741216,3.25739511736,8,2,15.915,1692.9360679535,0,0,115.099741216,0,0,0,118.2, -2.4, 0.5,0,0,1024,1024,1024,1024,0,0,0,0,13.9,-8.3,-22.4,67,3.985,3.991,3.992,3.983,0,0,1.694,112.91,1692.9360679535,0,41,Motors_Started,
351800,2025-09-03 07:42:09,48.1489085935231,11.572654055672,0,,,1692.9360679535,0.328084,0,115.338914452,3.497047356,8,2,15.915,1692.9360679535,0,0,115.338914452,0,0,0,118.2, -2.4, 0.5,0,0,1024,1024,1024,1024,0,0,0,0,13.9,-8.3,-22.4,67,3.985,3.991,3.992,3.983,0,0,1.694,112.91,1692.9360679535,0,10,Assisted_Takeoff,
351900,2025-09-03 07:42:09,48.1489087458087,11.5726549958381,0,,,1692.9360679535,0.328084,0,115.57415068,3.7325788596,8,2,15.915,1692.9360679535,0,0,115.57415068,0,0,0,118.2, -2.4, 0.6,0,0,1024,1024,1024,1024,0,0,0,0,13.7,-8.4,-22.5,67,3.985,3.991,3.992,3.983,0,0,1.694,112.91,1692.9360679535,0,10,Assisted_Takeoff,
352000,2025-09-03 07:42:09,48.1489088980356,11.5726559365691,0,,,1692.9360679535,0.328084,0,115.809386908,3.9682087884,8,2,15.915,1692.9360679535,0,0,115.809386908,0,0,0,118.2, -2.4, 0.5,0,0,1024,1024,1024,1024,0,0,0,0,13.7,-8.3,-22.6,67,3.985,3.991,3.992,3.983,0,0,1.694,112.91,1692.9360679535,0,10,Assisted_Takeoff,
352100,2025-09-03 07:42:09,48.1489090502039,11.5726568776339,0,,,1692.9360679535,0.328084,0,116.044623136,4.203904334,8,2,15.915,1692.9360679535,0,0,116.044623136,0,0,0,118.2, -2.4, 0.5,0,0,1024,1024,1024,1024,0,0,0,0,13.6,-8.4,-22.6,67,3.985,3.991,3.992,3.983,0,0,1.694,112.91,1692.9360679535,0,10,Assisted_Takeoff,
352200,2025-09-03 07:42:09,48.1489092003334,11.5726578020333,0,,,1692.9360679535,0.328084,0,116.275594272,4.4354988296,8,2,15.915,1692.9360679535,0,0,116.275594272,0,0,0,118.2, -2.4, 0.5,0,0,1024,1024,1024,1024,0,0,0,0,13.5,-8.4,-22.6,67,3.985,3.991,3.992,3.983,0,0,1.694,112.91,1692.9360679535,0,10,Assisted_Takeoff,
352300,2025-09-03 07:42:09,48.1489093518243,11.5726587413263,0,,,1692.9360679535,0.328084,0,116.510502416,4.6707350576,8,2,15.915,1692.9360679535,0,0,116.510502416,0,0,0,118.2, -2.4, 0.5,0,0,1024,1024,1024,1024,0,0,0,0,13.4,-8.4,-22.6,67,3.985,3.991,3.992,3.983,0,0,1.694,112.91,1692.9360679535,0,10,Assisted_Takeoff,
352400,2025-09-03 07:42:09,48.1489095030872,11.57265968121,0,,,1692.9360679535,0.328084,0,116.74541056,4.9061025192,8,2,15.915,1692.9360679535,0,0,116.74541056,0,0,0,118.2, -2.4, 0.5,0,0,1024,1024,1024,1024,0,0,0,0,13.4,-8.4,-22.6,67,3.985,3.991,3.992,3.983,0,0,1.694,112.91,1692.9360679535,0,10,Assisted_Takeoff,
352500,2025-09-03 07:42:09,48.1489096538746,11.5726606215301,0,,,1692.9360679535,0.328084,0,116.980318704,5.1415027892,8,2,15.915,1692.9360679535,0,0,116.980318704,0,0,0,118.2, -2.4, 0.5,0,0,1024,1024,1024,1024,0,0,0,0,13.3,-8.5,-22.6,67,3.985,3.991,3.992,3.983,0,0,1.694,112.91,1692.9360679535,0,10,Assisted_Takeoff,
352600,2025-09-03 07:42:10,48.1489098042386,11.5726615629544,0,,,1692.9360679535,0.328084,0,117.215554932,5.3771655264,8,2,15.865,1692.9360679535,0,0,117.215554932,0,0,0,118.2, -2.4, 0.5,0,0,1024,1024,1024,1024,0,0,0,0,13.3,-8.4,-22.6,67,3.97,3.977,3.976,3.964,0,0,5.234,112.91,1692.9360679535,0,10,Assisted_Takeoff,
352700,2025-09-03 07:42:10,48.1489099567392,11.5726625231497,0,,,1692.9360679535,0.328084,0,117.455384336,5.6174214396,8,2,15.865,1692.9360679535,0,0,117.455384336,0,0,0,118.2, -2.4, 0.5,0,0,1024,1024,1024,1024,0,0,0,0,13.1,-8.5,-22.5,67,3.97,3.977,3.976,3.964,0,0,5.234,112.91,1692.9360679535,0,10,Assisted_Takeoff,
352800,2025-09-03 07:42:10,48.1489101082626,11.5726634707111,0,,,1692.9360679535,0.328084,0,117.6919329,5.8546261716,8,2,15.865,1692.9360679535,0,0,117.6919329,0,0,0,118.2, -2.4, 0.5,0,0,1024,1024,1024,1024,0,0,0,0,13.1,-8.5,-22.6,67,3.97,3.977,3.976,3.964,0,0,5.234,112.91,1692.9360679535,0,10,Assisted_Takeoff,
352900,2025-09-03 07:42:10,48.1489102598577,11.5726644192741,0,,,1692.9360679535,0.328084,0,117.928809548,6.0920605624,8,2,15.865,1692.9360679535,0,0,117.928809548,0,0,0,118.2, -2.4, 0.5,0,0,1024,1024,1024,1024,0,0,0,0,13,-8.5,-22.7,67,3.97,3.977,3.976,3.964,0,0,5.234,112.91,1692.9360679535,0,10,Assisted_Takeoff,
353000,2025-09-03 07:42:10,48.1489104112249,11.5726653687871,0,,,1692.9360679535,0.328084,0,118.16601428,6.3296918036,8,2,15.865,1692.9360679535,0,0,118.16601428,0,0,0,118.2, -2.4, 0.5,0,0,1024,1024,1024,1024,0,0,0,0,12.9,-8.5,-22.8,67,3.97,3.977,3.976,3.964,0,0,5.234,112.91,1692.9360679535,0,10,Assisted_Takeoff,
353100,2025-09-03 07:42:10,48.148910559537,11.5726663049473,0,,,1692.9360679535,0.328084,0,118.399938172,6.5639109712,8,2,15.865,1692.9360679535,0,0,118.399938172,0,0,0,118.1, -2.4, 0.5,0,0,1024,1024,1024,1024,0,0,0,0,12.9,-8.5,-22.8,67,3.97,3.977,3.976,3.964,0,0,5.234,112.91,1692.9360679535,0,10,Assisted_Takeoff,
353200,2025-09-03 07:42:10,48.1489107100834,11.5726672548455,0,,,1692.9360679535,0.328084,0,118.637142904,6.8015750208,8,2,15.865,1692.9360679535,0,0,118.637142904,0,0,0,118.2, -2.4, 0.5,0,0,1024,1024,1028,1024,0,0,1,0,12.8,-8.6,-22.8,67,3.97,3.977,3.976,3.964,0,0,5.234,112.91,1692.9360679535,0,10,Assisted_Takeoff,
353300,2025-09-03 07:42:10,48.1489108603237,11.5726682058479,0,,,1692.9360679535,0.328084,0,118.874347636,7.0395015376,8,2,15.865,1692.9360679535,0,0,118.874347636,0,0,0,118.1, -2.4, 0.6,0,0,1024,1024,1040,1024,0,0,2,0,12.7,-8.6,-22.9,67,3.97,3.977,3.976,3.964,0,0,5.234,112.91,1692.9360679535,0,10,Assisted_Takeoff,
353400,2025-09-03 07:42:10,48.1489110100558,11.5726691580572,0,,,1692.9360679535,0.328084,0,119.112208536,7.2776249048,8,2,15.865,1692.9360679535,0,0,119.112208536,0,0,0,118.1, -2.4, 0.6,0,0,1024,1024,1049,1024,0,0,4,0,12.7,-8.6,-22.8,67,3.97,3.977,3.976,3.964,0,0,5.234,112.91,1692.9360679535,0,10,Assisted_Takeoff,
353500,2025-09-03 07:42:11,48.1489111464282,11.5726700990963,0,,,1692.9360679535,0.328084,0,119.345804344,7.5120409228,8,2,15.865,1692.9360679535,0,0,119.345804344,0,0,0,118.1, -2.4, 0.6,0,0,1024,1024,1064,1024,0,0,6,0,12.6,-8.6,-22.8,67,3.97,3.977,3.976,3.964,0,0,5.234,112.91,1692.9360679535,0,10,Assisted_Takeoff,
353600,2025-09-03 07:42:11,48.1489112917571,11.5726710492513,0,,,1692.9360679535,0.656168,0,119.582352908,7.74934408,8,2,15.858,1692.9360679535,0,0,119.582352908,0,0,0,118.1, -2.3, 0.6,0,0,1024,1024,1125,1024,0,0,15,0,12.6,-8.6,-22.9,67,3.979,3.987,3.987,3.978,0,0,2.586,112.91,1692.9360679535,0,10,Assisted_Takeoff,
353700,2025-09-03 07:42:11,48.1489114362848,11.5726719993806,0,,,1692.9360679535,0.328084,0,119.818901472,7.986548812,8,2,15.858,1692.9360679535,0,0,119.818901472,0,0,0,118.1, -2.4, 0.5,0,0,1024,1024,1123,1024,0,0,15,0,12.5,-8.6,-22.9,67,3.979,3.987,3.987,3.978,0,0,2.586,112.91,1692.9360679535,0,10,Assisted_Takeoff,
353800,2025-09-03 07:42:11,48.1489115806105,11.5726729508709,0,,,1692.9360679535,0.328084,0,120.05577812,8.224081628,8,2,15.858,1692.9360679535,0,0,120.05577812,0,0,0,118.1, -2.4, 0.5,0,0,1024,1024,1124,1024,0,0,15,0,12.4,-8.7,-22.9,67,3.979,3.987,3.987,3.978,0,0,2.586,112.91,1692.9360679535,0,10,Assisted_Takeoff,
353900,2025-09-03 07:42:11,48.1489117450377,11.5726739256259,0,,,1692.9360679535,0.328084,0,120.3002007,8.468832292,8,2,15.858,1692.9360679535,0,0,120.3002007,0,0,0,118.1, -2.4, 0.5,0,0,1024,1024,1128,1024,0,0,16,0,12.3,-8.7,-22.9,67,3.979,3.987,3.987,3.978,0,0,2.586,112.91,1692.9360679535,0,10,Assisted_Takeoff,
354000,2025-09-03 07:42:11,48.1489118941641,11.5726748887485,0,,,1692.9360679535,0.328084,0,120.540358188,8.7095147144,8,2,15.858,1692.9360679535,0,0,120.540358188,0,0,0,118.1, -2.4, 0.6,0,0,1024,1024,1132,1024,0,0,16,0,12.3,-8.8,-23,67,3.979,3.987,3.987,3.978,0,0,2.586,112.91,1692.9360679535,0,10,Assisted_Takeoff,
354100,2025-09-03 07:42:11,48.1489120430169,11.5726758534375,0,,,1692.9360679535,0.328084,0,120.78084376,8.9505580292,8,2,15.858,1692.9360679535,0,0,120.78084376,0,0,0,118.1, -2.5, 0.6,0,0,1024,1024,1141,1024,0,0,18,0,12.3,-8.8,-23,67,3.979,3.987,3.987,3.978,0,0,2.586,112.91,1692.9360679535,0,10,Assisted_Takeoff,
354200,2025-09-03 07:42:11,48.1489121915115,11.572676819847,0,,,1692.9360679535,0.656168,0,121.021657416,9.1919622364,8,2,15.858,1692.9360679535,0,0,121.021657416,0,0,0,118.1, -2.5, 0.6,0,0,1024,1024,1142,1024,0,0,18,0,12.2,-8.9,-22.9,67,3.979,3.987,3.987,3.978,0,0,2.586,112.91,1692.9360679535,0,10,Assisted_Takeoff,
354300,2025-09-03 07:42:11,48.1489123389834,11.5726777881053,0,,,1692.9360679535,0.656168,0,121.262799156,9.433727336,8,2,15.858,1692.9360679535,0,0,121.262799156,0,0,0,118.1, -2.7, 0.6,0,0,1024,1024,1146,1024,0,0,18,0,12.2,-9.1,-22.8,67,3.979,3.987,3.987,3.978,0,0,2.586,112.91,1692.9360679535,0,10,Assisted_Takeoff,
354400,2025-09-03 07:42:11,48.1489124715257,11.5726787192069,0,,,1692.9360679535,0.656168,0,121.493770292,9.6654530652,8,2,15.858,1692.9360679535,0,0,121.493770292,0,0,0,118.1, -2.8, 0.6,0,0,1024,1024,1148,1024,0,0,19,0,12.4,-9.4,-22.8,67,3.979,3.987,3.987,3.978,0,0,2.586,112.91,1692.9360679535,0,10,Assisted_Takeoff,
354500,2025-09-03 07:42:12,48.1489126134739,11.5726796917021,0,,,1692.9360679535,0.656168,0,121.735240116,9.907808716,8,2,15.858,1692.9360679535,0,0,121.735240116,0,0,0,118.1, -3.2, 0.7,0,0,1024,1024,1150,1024,0,0,19,0,12.4,-9.4,-22.8,67,3.979,3.987,3.987,3.978,0,0,2.586,112.91,1692.9360679535,0,10,Assisted_Takeoff,
354600,2025-09-03 07:42:12,48.1489127507713,11.5726806761379,0,,,1692.9360679535,0.328084,0,121.979006528,10.1526249968,8,2,15.819,1692.9360679535,0,0,121.979006528,0,0,0,118.1, -4, 0.7,0,0,1024,1024,1148,1024,0,0,19,0,12.3,-10.2,-22.7,67,3.972,3.979,3.98,3.966,0,0,3.542,112.91,1692.9360679535,0,10,Assisted_Takeoff,
354700,2025-09-03 07:42:12,48.1489128814572,11.5726816847114,0,,,1692.9360679535,0.328084,0,122.228022284,10.40272343,8,2,15.819,1692.9360679535,0,0,122.228022284,0,0,0,118.1, -5.6, 0.7,0,0,1024,1024,1146,1024,0,0,18,0,12.6,-11.6,-22.3,67,3.972,3.979,3.98,3.966,0,0,3.542,112.91,1692.9360679535,0,10,Assisted_Takeoff,
354800,2025-09-03 07:42:12,48.1489129835671,11.5726827313405,0,,,1692.9360679535,0.328084,0,122.482615468,10.6602037532,8,2,15.819,1692.9360679535,0,0,122.482615468,0,0,0,118.3, -7.8, 0.8,0,0,1024,1024,1143,1024,0,0,18,0,12.9,-14.3,-22.3,67,3.972,3.979,3.98,3.966,0,0,3.542,112.91,1692.9360679535,0,10,Assisted_Takeoff,
354900,2025-09-03 07:42:12,48.1489130427773,11.5726838849717,0,,,1692.9360679535,0.328084,0,122.75754986,10.9418638672,8,2,15.819,1692.9360679535,0,0,122.75754986,-0.223694,0.223694,-0.223694,118.6, -9.1, 0.8,0,0,1024,1024,1140,1024,0,0,18,0,13.2,-15.1,-21.9,67,3.972,3.979,3.98,3.966,0,0,3.542,112.91,1692.9360679535,0,10,Assisted_Takeoff,
355000,2025-09-03 07:42:12,48.1489130356773,11.5726851746475,0,,,1692.9360679535,0.656168,0.6263432,123.057090552,11.2558074468,8,2,15.819,1692.9360679535,0,0.6263432,123.057090552,-0.447388,0.447388,-0.447388,118.8, -6.7, 1.1,0,0,1024,1024,1140,1024,0,0,18,0,12.9,-10.9,-21.9,67,3.972,3.979,3.98,3.966,0,0,3.542,112.91,1692.9360679535,0,6,P-GPS,
355100,2025-09-03 07:42:12,48.1489129674716,11.572686574484,0,,,1692.9360679535,0.656168,0.8052984,123.376316284,11.5974741244,8,2,15.819,1692.9360679535,0,0.8052984,123.376316284,-0.447388,0.671082,-0.671082,119, -0.8, 0.4,0,0,1024,1024,1140,1024,0,0,18,0,12.2,-5.6,-23.4,67,3.972,3.979,3.98,3.966,0,0,3.542,112.91,1692.9360679535,0,6,P-GPS,
355200,2025-09-03 07:42:12,48.1489128533242,11.5726880148925,0,,,1692.9360679535,0.656168,0.8052984,123.700135192,11.9505581252,8,2,15.819,1692.9360679535,0,0.8052984,123.700135192,-0.447388,0.671082,-0.671082,118.9, 3.5, -0.4,0,0,1024,1024,1140,1024,0,0,18,0,12.3,-2.3,-23.9,67,3.972,3.979,3.98,3.966,0,0,3.542,112.91,1692.9360679535,0,6,P-GPS,
355300,2025-09-03 07:42:12,48.1489127597798,11.5726894176563,0.328084,,,1693.2641519535,0.984252,0.6263432,124.01739242,12.2937339892,9,2,15.819,1693.2641519535,0.328084,0.8052984,124.01739242,-0.447388,0.447388,-0.894776,118.9, 5.3, -0.9,0,0,1024,1024,1143,1024,0,0,18,0,11.9,-2.5,-24.9,67,3.972,3.979,3.98,3.966,0,0,3.542,112.91,1693.2641519535,0.328084,6,P-GPS,
355400,2025-09-03 07:42:12,48.1489127032793,11.5726907373246,0.328084,,,1693.2641519535,0.984252,0.6263432,124.3192297,12.61565001,9,2,15.819,1693.2641519535,0.328084,0.8052984,124.3192297,-0.447388,0.447388,-0.894776,119, 4.7, -1.2,0,0,1024,1024,1149,1024,0,0,19,0,12.6,-3.2,-24.2,67,3.972,3.979,3.98,3.966,0,0,3.542,112.91,1693.2641519535,0.328084,6,P-GPS,
355500,2025-09-03 07:42:12,48.1489126904211,11.5726919739486,0.656168,,,1693.5922359535,0.984252,0.4921268,124.606631284,12.9166998884,9,2,15.819,1693.5922359535,0.656168,0.8052984,124.606631284,-0.447388,0.223694,-0.671082,119, 3.8, -0.8,0,0,1024,1024,1151,1024,0,0,19,0,12.2,-4,-23.3,67,3.972,3.979,3.98,3.966,0,0,3.542,112.91,1693.5922359535,0.656168,6,P-GPS,
355600,2025-09-03 07:42:13,48.1489127134017,11.5726931274772,0.656168,,,1693.5922359535,1.312336,0.223694,124.877956752,13.1976382176,9,2,15.831,1693.5922359535,0.656168,0.8052984,124.877956752,-0.223694,0,-0.671082,119, 3.5, -0.3,0,0,1024,1024,1163,1024,0,0,21,0,12,-4.5,-24.6,67,3.972,3.979,3.98,3.966,0,0,3.542,112.91,1693.5922359535,0.656168,6,P-GPS,
355700,2025-09-03 07:42:13,48.1489127710291,11.5726942160905,0.984252,,,1693.9203199535,1.312336,0.223694,125.138127364,13.4634518744,8,2,15.831,1693.9203199535,0.984252,0.8052984,125.138127364,-0.223694,0,-0.671082,119.1, 3, -1.5,0,0,1024,1024,1175,1024,0,0,23,0,12.6,-5.5,-25.1,67,3.972,3.979,3.98,3.966,0,0,3.542,112.91,1693.9203199535,0.984252,6,P-GPS,
355800,2025-09-03 07:42:13,48.1489128607955,11.572695249906,0.984252,,,1693.9203199535,1.64042,0,125.38878354,13.7172576568,8,2,15.831,1693.9203199535,0.984252,0.8052984,125.38878354,0,0,-0.894776,119.2, 1.8, -1.7,0,0,1024,1024,1176,1024,0,0,23,0,12.1,-6.6,-24.2,67,3.972,3.979,3.98,3.966,0,0,3.542,112.91,1693.9203199535,0.984252,6,P-GPS,
355900,2025-09-03 07:42:13,48.148912977379,11.5726962456659,0.984252,,,1693.9203199535,1.64042,0,125.63320612,13.9633534652,8,2,15.831,1693.9203199535,0.984252,0.8052984,125.63320612,0,0,-0.894776,119.1, 1.1, -1.1,0,0,1024,1024,1181,1024,0,0,24,0,12.1,-6.6,-24.2,67,3.972,3.979,3.98,3.966,0,0,3.542,112.91,1693.9203199535,0.984252,6,P-GPS,
356000,2025-09-03 07:42:13,48.1489131159857,11.57269721698,1.312336,,,1694.2484039535,1.64042,0,125.87434786,14.2051185648,8,2,15.831,1694.2484039535,1.312336,0.8052984,125.87434786,0,0,-0.894776,119, 0.8, -1,0,0,1024,1024,1179,1024,0,0,23,0,11.7,-6.8,-24.6,67,3.972,3.979,3.98,3.966,0,0,3.542,112.91,1694.2484039535,1.312336,6,P-GPS,
356100,2025-09-03 07:42:13,48.1489133016999,11.5726981826448,1.312336,,,1694.2484039535,1.968504,0,126.119098524,14.4497708036,8,2,15.831,1694.2484039535,1.312336,0.8052984,126.119098524,0,0,-0.894776,118.9, 0.3, -0.3,0,0,1024,1024,1178,1024,0,0,23,0,11.7,-7.4,-23.9,67,3.972,3.979,3.98,3.966,0,0,3.542,112.91,1694.2484039535,1.312336,6,P-GPS,
356200,2025-09-03 07:42:13,48.1489134681139,11.5726991343918,1.64042,,,1694.5764879535,1.968504,0,126.35827176,14.6892721236,8,2,15.831,1694.5764879535,1.64042,0.8052984,126.35827176,0,0,-0.894776,118.9, 0.2, 0.3,0,0,1024,1024,1178,1024,0,0,23,0,11.7,-7.5,-23.2,67,3.972,3.979,3.98,3.966,0,0,3.542,112.91,1694.5764879535,1.64042,6,P-GPS,
356300,2025-09-03 07:42:13,48.1489136274539,11.5727000731456,1.64042,,,1694.5764879535,2.296588,0,126.594164156,14.9250660944,8,2,15.831,1694.5764879535,1.64042,0.8052984,126.594164156,0,0,-0.894776,118.9, 0, 0.3,0,0,1024,1024,1171,1024,0,0,22,0,11.7,-7.8,-23.6,67,3.972,3.979,3.98,3.966,0,0,3.542,112.91,1694.5764879535,1.64042,6,P-GPS,
356400,2025-09-03 07:42:13,48.1489137744177,11.5727010045553,1.968504,,,1694.9045719535,2.296588,0,126.826775712,15.1580713512,8,2,15.831,1694.9045719535,1.968504,0.8052984,126.826775712,0,0,-0.894776,118.9, 0, -0.1,0,0,1024,1024,1171,1024,0,0,22,0,11.9,-7.8,-23.9,67,3.972,3.979,3.98,3.966,0,0,3.542,112.91,1694.9045719535,1.968504,6,P-GPS,
356500,2025-09-03 07:42:14,48.1489138352042,11.5727018786506,1.968504,,,1694.9045719535,2.624672,0,127.037077556,15.3719821192,9,2,15.831,1694.9045719535,1.968504,0.8052984,127.037077556,0,0,-0.894776,118.9, 0, -0.7,0,0,1024,1024,1168,1024,0,0,22,0,11.2,-8,-24.5,67,3.972,3.979,3.98,3.966,0,0,3.542,112.91,1694.9045719535,1.968504,6,P-GPS,
356600,2025-09-03 07:42:14,48.1489139544389,11.5727027993781,1.968504,,,1694.9045719535,2.624672,0,127.264439768,15.6002957748,9,2,15.569,1694.9045719535,1.968504,0.8052984,127.264439768,0,0,-0.894776,118.9, 0.3, -1,0,0,1024,1024,1176,1024,0,0,23,0,11.2,-7.8,-24.9,67,3.887,3.908,3.906,3.878,0,0,16.352,112.91,1694.9045719535,1.968504,6,P-GPS,
356700,2025-09-03 07:42:14,48.1489140747093,11.572703720311,2.296588,,,1695.2326559535,2.624672,0,127.49180198,15.828740664,9,2,15.569,1695.2326559535,2.296588,0.8052984,127.49180198,0,0,-0.894776,118.9, 0.4, -1.3,0,0,1024,1024,1189,1024,0,0,25,0,10.8,-7.8,-25.1,67,3.887,3.908,3.906,3.878,0,0,16.352,112.91,1695.2326559535,2.296588,6,P-GPS,
356800,2025-09-03 07:42:14,48.1489141986208,11.5727046410898,2.296588,,,1695.2326559535,2.952756,0,127.719492276,16.0573824036,9,2,15.569,1695.2326559535,2.296588,0.8052984,127.719492276,0,0,-0.894776,118.9, 0.5, -1.2,0,0,1024,1024,1219,1024,0,0,30,0,11,-7.9,-24.5,67,3.887,3.908,3.906,3.878,0,0,16.352,112.91,1695.2326559535,2.296588,6,P-GPS,
356900,2025-09-03 07:42:14,48.1489143899891,11.5727056448101,2.624672,,,1695.5607399535,2.952756,0,127.973757376,16.31151627,8,2,15.569,1695.5607399535,2.624672,0.8052984,127.973757376,0,0,-1.11847,119, 0.4, -0.7,0,0,1024,1024,1235,1024,0,0,32,0,11.5,-7.8,-24.2,67,3.887,3.908,3.906,3.878,0,0,16.352,112.91,1695.5607399535,2.624672,6,P-GPS,
357000,2025-09-03 07:42:14,48.1489145219191,11.5727065706219,2.624672,,,1695.5607399535,3.28084,0,128.203416176,16.5419624716,8,2,15.569,1695.5607399535,2.624672,0.8052984,128.203416176,0,0,-1.11847,118.9, 0.4, -0.3,0,0,1024,1024,1257,1024,0,0,35,0,11.4,-8.2,-24.2,67,3.887,3.908,3.906,3.878,0,0,16.352,112.91,1695.5607399535,2.624672,6,P-GPS,
357100,2025-09-03 07:42:14,48.1489146450099,11.5727074845189,2.952756,,,1695.8888239535,3.28084,0,128.429466052,16.7688981744,8,2,15.569,1695.8888239535,2.952756,0.8052984,128.429466052,0,0,-1.342164,118.9, 0.2, -0.3,0,0,1024,1024,1265,1024,0,0,37,0,10.4,-8.9,-24.5,67,3.887,3.908,3.906,3.878,0,0,16.352,112.91,1695.8888239535,2.952756,6,P-GPS,
357200,2025-09-03 07:42:14,48.1489147541417,11.5727083874255,3.28084,,,1696.2169079535,3.608924,0,128.65157892,16.9922577616,8,2,15.569,1696.2169079535,3.28084,0.8052984,128.65157892,0,0,-1.565858,118.8, 0, -0.3,0,0,1024,1024,1269,1024,0,0,37,0,10.4,-8.9,-24.5,67,3.887,3.908,3.906,3.878,0,0,16.352,112.91,1696.2169079535,3.28084,6,P-GPS,
357300,2025-09-03 07:42:14,48.1489148292911,11.5727092555121,3.28084,,,1696.2169079535,3.937008,0,128.862208848,17.2053483196,8,2,15.569,1696.2169079535,3.28084,0.8052984,128.862208848,0,0,-1.789552,118.7, 0.2, -0.5,0,0,1024,1024,1274,1024,0,0,38,0,10.8,-8.4,-24.5,67,3.887,3.908,3.906,3.878,0,0,16.352,112.91,1696.2169079535,3.28084,6,P-GPS,
357400,2025-09-03 07:42:14,48.1489149016918,11.5727101318158,3.608924,,,1696.5449919535,4.265092,0,129.074151112,17.4203089564,8,2,15.569,1696.5449919535,3.608924,0.8052984,129.074151112,0,0,-2.013246,118.5, 0.7, -1.2,0,0,1024,1024,1265,1024,0,0,37,0,9.9,-8.4,-25.3,67,3.887,3.908,3.906,3.878,0,0,16.352,112.91,1696.5449919535,3.608924,6,P-GPS,
357500,2025-09-03 07:42:15,48.1489149696956,11.5727109894255,3.937008,,,1696.8730759535,4.593176,0.223694,129.2815002,17.6305451836,8,2,15.569,1696.8730759535,3.937008,0.8052984,129.2815002,-0.223694,0,-2.23694,118.3, 0.9, -2,0,0,1024,1024,1266,1024,0,0,37,0,10.1,-8.2,-26.5,67,3.887,3.908,3.906,3.878,0,0,16.352,112.91,1696.8730759535,3.937008,6,P-GPS,
357600,2025-09-03 07:42:15,48.1489150472681,11.5727118322445,4.593176,,,1697.5292439535,4.92126,0,129.4865527,17.8376318044,8,2,15.422,1697.5292439535,4.593176,0.8052984,129.4865527,0,0,-2.460634,118.1, 0.7, -2.7,0,0,1024,1024,1266,1024,0,0,37,0,10.5,-8.2,-26.9,67,3.86,3.887,3.887,3.858,0,0,16.352,112.91,1697.5292439535,4.593176,6,P-GPS,
357700,2025-09-03 07:42:15,48.1489151440172,11.5727126694655,4.92126,,,1697.8573279535,5.249344,0,129.691933284,18.0444887664,8,2,15.422,1697.8573279535,4.92126,0.8052984,129.691933284,0,0,-2.460634,117.9, 0.2, -2.8,0,0,1024,1024,1267,1024,0,0,37,0,9.6,-9.4,-26.2,67,3.86,3.887,3.887,3.858,0,0,16.352,112.91,1697.8573279535,4.92126,6,P-GPS,
357800,2025-09-03 07:42:15,48.1489152230945,11.5727134313973,5.249344,,,1698.1854119535,5.577428,0,129.877956912,18.2321856228,8,2,15.422,1698.1854119535,5.249344,0.8052984,129.877956912,0,0,-2.684328,117.9, -0.4, -2.8,0,0,1024,1024,1270,1024,0,0,37,0,9.9,-9.9,-26.6,67,3.86,3.887,3.887,3.858,0,0,16.352,112.91,1698.1854119535,5.249344,6,P-GPS,
357900,2025-09-03 07:42:15,48.1489153633231,11.5727142705699,5.577428,,,1698.5134959535,5.905512,0,130.08858684,18.4427827424,8,2,15.422,1698.5134959535,5.577428,0.8052984,130.08858684,0,0,-2.684328,117.8, -0.6, -2.7,0,0,1024,1024,1270,1024,0,0,37,0,10.1,-9.8,-26.5,67,3.86,3.887,3.887,3.858,0,0,16.352,112.91,1698.5134959535,5.577428,6,P-GPS,
358000,2025-09-03 07:42:15,48.1489155333717,11.5727151249442,6.233596,,,1699.1696639535,6.56168,0,130.305450364,18.6598103084,8,2,15.422,1699.1696639535,6.233596,0.8052984,130.305450364,0,0,-2.684328,117.9, -0.7, -2.6,0,0,1024,1024,1274,1024,0,0,38,0,9.8,-10.1,-26.7,67,3.86,3.887,3.887,3.858,0,0,16.352,112.91,1699.1696639535,6.233596,6,P-GPS,
358100,2025-09-03 07:42:15,48.1489157308238,11.5727159979097,6.56168,,,1699.4977479535,6.889764,0.223694,130.52985982,18.884186956,8,2,15.422,1699.4977479535,6.56168,0.8052984,130.52985982,0,-0.223694,-2.684328,118.1, -0.8, -2.4,0,0,1024,1024,1276,1024,0,0,38,0,9.9,-10.2,-25.9,67,3.86,3.887,3.887,3.858,0,0,16.352,112.91,1699.4977479535,6.56168,6,P-GPS,
358200,2025-09-03 07:42:15,48.1489159125256,11.5727168231646,6.889764,,,1699.8258319535,7.217848,0,130.741145916,19.0957355192,8,2,15.422,1699.8258319535,6.889764,0.8052984,130.741145916,0,0,-2.684328,118.2, -0.9, -2.2,0,0,1024,1024,1279,1024,0,0,39,0,10.2,-10.3,-25.7,67,3.86,3.887,3.887,3.858,0,0,16.352,112.91,1699.8258319535,6.889764,6,P-GPS,
358300,2025-09-03 07:42:15,48.1489161520827,11.5727177190866,7.217848,,,1700.1539159535,7.545932,0,130.975069808,19.3306764716,9,2,15.422,1700.1539159535,7.217848,0.8052984,130.975069808,0,0,-2.684328,118.3, -1.4, -1.6,0,0,1024,1024,1286,1024,0,0,40,0,10.4,-10.2,-25.7,67,3.86,3.887,3.887,3.858,0,0,16.352,112.91,1700.1539159535,7.217848,6,P-GPS,
358400,2025-09-03 07:42:15,48.1489164020489,11.5727186283615,7.874016,,,1700.8100839535,7.874016,0,131.212930708,19.5700793664,9,2,15.422,1700.8100839535,7.874016,0.8052984,131.212930708,0,0,-2.684328,118.6, -1.5, -1.5,0,0,1024,1024,1297,1024,0,0,41,0,10,-10.6,-26.4,67,3.86,3.887,3.887,3.858,0,0,16.352,112.91,1700.8100839535,7.874016,6,P-GPS,
358500,2025-09-03 07:42:16,48.1489166542948,11.5727195512973,8.2021,,,1701.1381679535,8.530184,0,131.454400532,19.8128615264,9,2,15.422,1701.1381679535,8.2021,0.8052984,131.454400532,0,0,-2.684328,118.8, -1.3, -1.5,0,0,1024,1024,1294,1024,0,0,41,0,10.7,-10.1,-25.6,67,3.86,3.887,3.887,3.858,0,0,16.352,112.91,1701.1381679535,8.2021,6,P-GPS,
358600,2025-09-03 07:42:16,48.1489168860029,11.5727204770064,8.530184,,,1701.4662519535,8.858268,0,131.69455802,20.0535439488,9,2,15.348,1701.4662519535,8.530184,0.8052984,131.69455802,0,0,-2.908022,118.8, -1.3, -1.2,0,0,1024,1024,1296,1024,0,0,41,0,10.4,-10.7,-26.1,67,3.86,3.887,3.887,3.858,0,0,19.134,112.91,1701.4662519535,8.530184,6,P-GPS,
358700,2025-09-03 07:42:16,48.1489171242703,11.572721414733,9.186352,,,1702.1224199535,9.186352,0,131.937996348,20.2978024868,9,2,15.348,1702.1224199535,9.186352,0.8052984,131.937996348,0,0,-2.908022,118.7, -1.7, -1.7,0,0,1024,1024,1293,1024,0,0,41,0,10.4,-10.7,-26.1,67,3.86,3.887,3.887,3.858,0,0,19.134,112.91,1702.1224199535,9.186352,6,P-GPS,
358800,2025-09-03 07:42:16,48.1489173579064,11.5727223713076,9.514436,,,1702.4505039535,9.514436,0,132.185371684,20.545768374,9,2,15.348,1702.4505039535,9.514436,0.8052984,132.185371684,0,0,-2.908022,118.5, -1.9, -2.6,0,0,1024,1024,1302,1024,0,0,42,0,9.5,-11.2,-27.1,67,3.86,3.887,3.887,3.858,0,0,19.134,112.91,1702.4505039535,9.514436,6,P-GPS,
358900,2025-09-03 07:42:16,48.1489175962064,11.5727233577719,9.84252,,,1702.7785879535,10.170604,0,132.440292952,20.8011489596,9,2,15.348,1702.7785879535,9.84252,0.8052984,132.440292952,0,0,-2.908022,118.5, -2, -2.7,0,0,1024,1024,1316,1024,0,0,44,0,9.6,-11.3,-27,67,3.86,3.887,3.887,3.858,0,0,19.134,112.91,1702.7785879535,9.84252,6,P-GPS,
359000,2025-09-03 07:42:16,48.1489178373333,11.572724414698,10.498688,,,1703.4347559535,10.498688,0,132.711946504,21.0730649788,9,2,15.348,1703.4347559535,10.498688,0.8052984,132.711946504,0,0,-2.908022,118.6, -2.1, -1.7,0,0,1024,1024,1316,1024,0,0,44,0,10.1,-11.2,-26.3,67,3.86,3.887,3.887,3.858,0,0,19.134,112.91,1703.4347559535,10.498688,6,P-GPS,
359100,2025-09-03 07:42:16,48.1489180684486,11.5727254699807,10.826772,,,1703.7628399535,11.154856,0,132.98228772,21.3434390032,10,2,15.348,1703.7628399535,10.826772,0.8052984,132.98228772,0,0,-3.131716,118.7, -1.8, -0.7,0,0,1024,1024,1318,1024,0,0,45,0,10,-10.9,-25.3,67,3.86,3.887,3.887,3.858,0,0,19.134,112.91,1703.7628399535,10.826772,6,P-GPS,
359200,2025-09-03 07:42:16,48.1489182787654,11.5727265366133,11.154856,,,1704.0909239535,11.811024,0,133.25295702,21.61417392,10,2,15.348,1704.0909239535,11.154856,0.8052984,133.25295702,0,0,-3.131716,118.6, -1.1, -0.8,0,0,1024,1024,1322,1024,0,0,45,0,9.1,-10.4,-26,67,3.86,3.887,3.887,3.858,0,0,19.134,112.91,1704.0909239535,11.154856,6,P-GPS,
359300,2025-09-03 07:42:16,48.1489184715732,11.5727276024241,11.811024,,,1704.7470919535,12.139108,0,133.521657816,21.8830059496,10,2,15.348,1704.7470919535,11.811024,0.8052984,133.521657816,0,0,-3.35541,118.5, -0.7, -1.6,0,0,1024,1024,1324,1024,0,0,45,0,9.4,-10.3,-26.6,67,3.86,3.887,3.887,3.858,0,0,19.134,112.91,1704.7470919535,11.811024,6,P-GPS,
359400,2025-09-03 07:42:16,48.1489186573787,11.5727286651536,12.467192,,,1705.4032599535,12.467192,0,133.789046276,22.150427218,10,2,15.348,1705.4032599535,12.467192,0.8052984,133.789046276,0,0,-3.35541,118.5, -0.7, -2,0,0,1024,1024,1322,1024,0,0,45,0,9.9,-10,-26.6,67,3.86,3.887,3.887,3.858,0,0,19.134,112.91,1705.4032599535,12.467192,6,P-GPS,
359500,2025-09-03 07:42:17,48.1489188687963,11.5727297354838,12.795276,,,1705.7313439535,13.12336,0,134.060699828,22.4221463868,10,2,15.348,1705.7313439535,12.795276,0.8052984,134.060699828,0,0,-3.35541,118.4, -0.7, -2.1,0,0,1024,1024,1324,1024,0,0,45,0,9.6,-10.1,-26.8,67,3.86,3.887,3.887,3.858,0,0,19.134,112.91,1705.7313439535,12.795276,6,P-GPS,
359600,2025-09-03 07:42:17,48.1489190676423,11.5727308024245,13.451444,,,1706.3875119535,13.451444,0,134.330384876,22.6918314348,10,2,15.339,1706.3875119535,13.451444,0.8052984,134.330384876,0,0,-3.579104,118.4, -0.7, -1.9,0,0,1024,1024,1322,1024,0,0,45,0,8.5,-10.5,-26,67,3.849,3.876,3.873,3.841,0,0,19.136,112.91,1706.3875119535,13.451444,6,P-GPS,
359700,2025-09-03 07:42:17,48.1489192727351,11.5727318740901,13.779528,,,1706.7155959535,13.779528,0,134.601710344,22.9632225196,10,2,15.339,1706.7155959535,13.779528,0.8052984,134.601710344,0,0,-3.579104,118.4, -0.7, -1.5,0,0,1024,1024,1319,1024,0,0,45,0,8.7,-10.4,-26.3,67,3.849,3.876,3.873,3.841,0,0,19.136,112.91,1706.7155959535,13.779528,6,P-GPS,
359800,2025-09-03 07:42:17,48.1489194807265,11.5727329520212,14.435696,,,1707.3717639535,14.435696,0,134.875004316,23.2363524496,10,2,15.339,1707.3717639535,14.435696,0.8052984,134.875004316,0,0,-3.579104,118.4, -0.7, -1.3,0,0,1024,1024,1322,1024,0,0,45,0,9.5,-10,-25.5,67,3.849,3.876,3.873,3.841,0,0,19.136,112.91,1707.3717639535,14.435696,6,P-GPS,
359900,2025-09-03 07:42:17,48.1489197018626,11.5727340377585,15.091864,,,1708.0279319535,14.76378,0,135.151251044,23.5126976028,9,2,15.339,1708.0279319535,15.091864,0.8052984,135.151251044,0,0,-3.579104,118.4, -0.8, -1.1,0,0,1024,1024,1325,1024,0,0,46,0,8.7,-10.3,-25.3,67,3.849,3.876,3.873,3.841,0,0,19.136,112.91,1708.0279319535,15.091864,6,P-GPS,
360000,2025-09-03 07:42:17,48.1489199046951,11.5727351341268,15.419948,,,1708.3560159535,15.419948,0.223694,135.42815394,23.7896661156,9,2,15.339,1708.3560159535,15.419948,0.8052984,135.42815394,0,0.223694,-3.579104,118.4, -0.8, -0.7,0,0,1024,1024,1322,1024,0,0,45,0,8.7,-10.3,-25.3,67,3.849,3.876,3.873,3.841,0,0,19.136,112.91,1708.3560159535,15.419948,6,P-GPS,
360100,2025-09-03 07:42:17,48.1489200969492,11.5727362395338,16.076116,,,1709.0121839535,15.748032,0.223694,135.706041088,24.0677173056,9,2,15.339,1709.0121839535,16.076116,0.8052984,135.706041088,0,0.223694,-3.579104,118.5, -0.6, -0.3,0,0,1024,1024,1324,1024,0,0,45,0,8,-10.5,-25,67,3.849,3.876,3.873,3.841,0,0,19.136,112.91,1709.0121839535,16.076116,6,P-GPS,
360200,2025-09-03 07:42:17,48.1489202757524,11.5727373483818,16.732284,,,1709.6683519535,16.4042,0.223694,135.983600152,24.3454404116,9,2,15.339,1709.6683519535,16.732284,0.8052984,135.983600152,0,0.223694,-3.579104,118.5, -0.2, 0,0,0,1024,1024,1326,1024,0,0,46,0,8.9,-9.5,-24.6,67,3.849,3.876,3.873,3.841,0,0,19.136,112.91,1709.6683519535,16.732284,6,P-GPS,
360300,2025-09-03 07:42:17,48.1489204894759,11.572738490355,17.060368,,,1709.9964359535,16.732284,0.223694,136.272314072,24.6341543316,9,2,15.339,1709.9964359535,17.060368,0.8052984,136.272314072,0,0.223694,-3.579104,118.5, 0, 0.1,0,0,1024,1024,1335,1024,0,0,47,0,8.8,-9.4,-24.6,67,3.849,3.876,3.873,3.841,0,0,19.136,112.91,1709.9964359535,17.060368,6,P-GPS,
360400,2025-09-03 07:42:17,48.1489206475326,11.5727395851312,17.716536,,,1710.6526039535,17.388452,0.223694,136.544295708,24.9067921356,9,2,15.339,1710.6526039535,17.716536,0.8052984,136.544295708,0,0.223694,-3.579104,118.5, 0.3, 0.4,0,0,1024,1024,1338,1024,0,0,48,0,8.5,-9.2,-24.6,67,3.849,3.876,3.873,3.841,0,0,19.136,112.91,1710.6526039535,17.716536,6,P-GPS,
360500,2025-09-03 07:42:18,48.1489207897023,11.5727406626001,18.372704,,,1711.3087719535,18.04462,0.223694,136.810371832,25.1741805956,9,2,15.339,1711.3087719535,18.372704,0.8052984,136.810371832,0,0.223694,-3.579104,118.5, 0.5, 0.4,0,0,1024,935,1331,1024,0,-13,47,0,8.8,-9,-24.8,67,3.849,3.876,3.873,3.841,0,0,19.136,112.91,1711.3087719535,18.372704,6,P-GPS,
360600,2025-09-03 07:42:18,48.1489209177827,11.5727417196289,18.700788,,,1711.6368559535,18.700788,0.223694,137.070542444,25.435696352,9,2,15.251,1711.6368559535,18.700788,0.8052984,137.070542444,0,0.223694,-3.579104,118.5, 0.6, 0.2,0,0,1024,916,1329,1024,0,-16,46,0,8.4,-9,-25.2,67,3.849,3.876,3.873,3.841,0,0,19.716,112.91,1711.6368559535,18.700788,6,P-GPS,
360700,2025-09-03 07:42:18,48.1489210107408,11.5727427516469,19.356956,,,1712.2930239535,19.028872,0,137.32119862,25.6891740504,10,2,15.251,1712.2930239535,19.356956,0.8052984,137.32119862,0,0,-3.802798,118.6, 0.6, -0.1,0,0,1024,932,1330,1024,0,-14,46,0,7.9,-9.3,-25.6,67,3.849,3.876,3.873,3.841,0,0,19.716,112.91,1712.2930239535,19.356956,6,P-GPS,
360800,2025-09-03 07:42:18,48.1489211237809,11.5727437648682,20.013124,,,1712.9491919535,19.68504,0,137.569558208,25.9392396752,10,2,15.251,1712.9491919535,20.013124,0.8052984,137.569558208,0,0,-3.802798,118.6, 0.3, -1,0,0,1024,982,1329,1024,0,-6,46,0,8.8,-9.3,-26.7,67,3.849,3.876,3.873,3.841,0,0,19.716,112.91,1712.9491919535,20.013124,6,P-GPS,
360900,2025-09-03 07:42:18,48.1489212456341,11.5727447739296,20.669292,,,1713.6053599535,20.341208,0,137.817589712,26.1888787908,10,2,15.251,1713.6053599535,20.669292,0.8052984,137.817589712,0,0,-3.579104,118.6, 0.2, -2,0,0,1024,1024,1333,1024,0,0,47,0,9.2,-9.1,-27.8,67,3.849,3.876,3.873,3.841,0,0,19.716,112.91,1713.6053599535,20.669292,6,P-GPS,
361000,2025-09-03 07:42:18,48.148921387452,11.5727457893593,20.997376,,,1713.9334439535,20.669292,0,138.069558224,26.4414050456,10,2,15.251,1713.9334439535,20.997376,0.8052984,138.069558224,0,0,-3.579104,118.7, 0.3, -2.4,0,0,1024,1024,1338,1024,0,0,48,0,8.9,-9.1,-27.1,67,3.849,3.876,3.873,3.841,0,0,19.716,112.91,1713.9334439535,20.997376,6,P-GPS,
361100,2025-09-03 07:42:18,48.1489215513972,11.5727468122357,21.653544,,,1714.5896119535,21.32546,0,138.325463744,26.697507416,10,2,15.251,1714.5896119535,21.653544,0.8052984,138.325463744,0,0,-3.579104,118.7, 0.2, -1.3,0,0,1024,1024,1348,1024,0,0,49,0,8.5,-9.2,-25.5,67,3.849,3.876,3.873,3.841,0,0,19.716,112.91,1714.5896119535,21.653544,6,P-GPS,
361200,2025-09-03 07:42:18,48.1489217686707,11.572747857966,22.309712,,,1715.2457799535,21.981628,0,138.591867952,26.9641084744,10,2,15.251,1715.2457799535,22.309712,0.8052984,138.591867952,0,0,-3.802798,118.6, 0.3, 0,0,0,1024,1024,1351,1024,0,0,50,0,7.9,-9.6,-24.8,67,3.849,3.876,3.873,3.841,0,0,19.716,112.91,1715.2457799535,22.309712,6,P-GPS,
361300,2025-09-03 07:42:18,48.1489219482295,11.5727488726254,22.637796,,,1715.5738639535,22.637796,0,138.847445388,27.219653102,10,2,15.251,1715.5738639535,22.637796,0.8052984,138.847445388,0,0,-3.802798,118.5, 0.1, 0.3,0,0,1024,1024,1352,1024,0,0,50,0,8.5,-9.4,-24.6,67,3.849,3.876,3.873,3.841,0,0,19.716,112.91,1715.5738639535,22.637796,6,P-GPS,
361400,2025-09-03 07:42:18,48.1489221171968,11.5727498698233,23.293964,,,1716.2300319535,23.293964,0,139.09777348,27.4701124276,10,2,15.251,1716.2300319535,23.293964,0.8052984,139.09777348,0,0,-3.802798,118.4, 0, 0,0,0,1024,1024,1353,1024,0,0,50,0,8.5,-9.4,-24.8,67,3.849,3.876,3.873,3.841,0,0,19.716,112.91,1716.2300319535,23.293964,6,P-GPS,
361500,2025-09-03 07:42:18,48.1489222823732,11.5727508581879,23.950132,,,1716.8861999535,23.622048,0,139.3454769,27.7181111232,10,2,15.251,1716.8861999535,23.950132,0.8052984,139.3454769,0.223694,0,-4.026492,118.5, 0.1, 0,0,0,1024,1024,1344,1024,0,0,48,0,8.5,-9.4,-24.8,67,3.849,3.876,3.873,3.841,0,0,19.716,112.91,1716.8861999535,23.950132,6,P-GPS,
361600,2025-09-03 07:42:19,48.1489224253115,11.5727518271395,24.6063,,,1717.5423679535,24.278216,0,139.58661864,27.9596793724,10,2,15.274,1717.5423679535,24.6063,0.8052984,139.58661864,0,0,-4.026492,118.5, 0.1, 0.3,0,0,1024,953,1336,1024,0,-11,47,0,7.4,-9.7,-24.9,67,3.838,3.865,3.863,3.832,0,0,19.716,112.91,1717.5423679535,24.6063,6,P-GPS,
361700,2025-09-03 07:42:19,48.1489225750632,11.5727527889012,25.262468,,,1718.1985359535,24.934384,0,139.826448044,28.2000993276,10,2,15.274,1718.1985359535,25.262468,0.8052984,139.826448044,0,0,-4.026492,118.5, 0, 0.2,0,0,1024,915,1335,1024,0,-17,47,0,8,-9.6,-24.9,67,3.838,3.865,3.863,3.832,0,0,19.716,112.91,1718.1985359535,25.262468,6,P-GPS,
361800,2025-09-03 07:42:19,48.1489227189525,11.5727537403401,25.918636,,,1718.8547039535,25.590552,0,140.063652776,28.4375665268,10,2,15.274,1718.8547039535,25.918636,0.8052984,140.063652776,0,0,-4.026492,118.6, 0, 0.1,0,0,1024,887,1334,1024,0,-21,47,0,7.8,-9.8,-25.1,67,3.838,3.865,3.863,3.832,0,0,19.716,112.91,1718.8547039535,25.918636,6,P-GPS,
361900,2025-09-03 07:42:19,48.1489228595979,11.572754685873,26.574804,,,1719.5108719535,26.24672,0,140.298889004,28.673393306,11,2,15.274,1719.5108719535,26.574804,0.8052984,140.298889004,0,0,-3.802798,118.7, 0, -0.7,0,0,1024,885,1335,1024,0,-21,47,0,7.1,-10.1,-26.3,67,3.838,3.865,3.863,3.832,0,0,19.716,112.91,1719.5108719535,26.574804,6,P-GPS,
362000,2025-09-03 07:42:19,48.1489230723053,11.5727556842008,26.902888,,,1719.8389559535,26.902888,0,140.554138356,28.9285114244,11,2,15.274,1719.8389559535,26.902888,0.8052984,140.554138356,0,0,-3.802798,118.8, 0, -2.3,0,0,1024,940,1334,1024,0,-13,47,0,7.8,-9.9,-27.8,67,3.838,3.865,3.863,3.832,0,0,19.716,112.91,1719.8389559535,26.902888,6,P-GPS,
362100,2025-09-03 07:42:19,48.1489232588729,11.5727566538201,27.559056,,,1720.4951239535,27.230972,0.223694,140.799545188,29.1741479152,10,2,15.274,1720.4951239535,27.559056,0.8052984,140.799545188,0.223694,0,-3.802798,118.8, 0, -3.8,0,0,1024,945,1334,1024,0,-12,47,0,8.1,-9.6,-28.5,67,3.838,3.865,3.863,3.832,0,0,19.716,112.91,1720.4951239535,27.559056,6,P-GPS,
362200,2025-09-03 07:42:19,48.1489234878972,11.572757653894,28.215224,,,1721.1512919535,27.88714,0.223694,141.056763044,29.4315298132,10,2,15.274,1721.1512919535,28.215224,0.8052984,141.056763044,0.223694,0,-3.802798,118.8, 0, -4.3,0,0,1024,1018,1341,1024,0,-1,48,0,8.1,-9.6,-28.9,67,3.838,3.865,3.863,3.832,0,0,19.716,112.91,1721.1512919535,28.215224,6,P-GPS,
362300,2025-09-03 07:42:19,48.1489237681589,11.5727586937696,28.543308,,,1721.4793759535,28.543308,0.4921268,141.328416596,29.704561318,10,2,15.274,1721.4793759535,28.543308,0.8052984,141.328416596,0.447388,0.223694,-3.802798,118.8, 0, -3.8,0,0,1024,1024,1346,1024,0,0,49,0,7.2,-10.1,-27.6,67,3.838,3.865,3.863,3.832,0,0,19.716,112.91,1721.4793759535,28.543308,6,P-GPS,
362400,2025-09-03 07:42:19,48.1489241195185,11.5727598334318,29.199476,,,1722.1355439535,29.199476,0.7158208,141.63058196,30.010171564,10,2,15.274,1722.1355439535,29.199476,0.8052984,141.63058196,0.671082,0.223694,-3.802798,118.9, -0.1, -2.4,0,0,1024,1024,1361,1024,0,0,51,0,7.3,-9.9,-25.7,67,3.838,3.865,3.863,3.832,0,0,19.716,112.91,1722.1355439535,29.199476,6,P-GPS,
362500,2025-09-03 07:42:19,48.1489244806227,11.5727609524998,29.855644,,,1722.7917119535,29.52756,0.8052984,141.9291384,30.3127634372,12,2,15.274,1722.7917119535,29.855644,0.8052984,141.9291384,0.671082,0.447388,-3.802798,118.9, -0.1, 0.3,0,0,1024,1050,1365,1024,0,4,52,0,7.4,-9.6,-23,67,3.838,3.865,3.863,3.832,0,0,19.716,112.91,1722.7917119535,29.855644,6,P-GPS,
362600,2025-09-03 07:42:20,48.1489248349721,11.5727620656617,30.511812,,,1723.4478799535,30.183728,0.8052984,142.225398252,30.6129931056,12,2,15.24,1723.4478799535,30.511812,0.8052984,142.225398252,0.671082,0.447388,-3.802798,119, 0, 2.7,0,0,1024,1199,1362,1024,0,27,51,0,6.6,-9.8,-22.1,67,3.838,3.864,3.861,3.829,0,0,19.026,114.71,1723.4478799535,30.511812,6,P-GPS,
362700,2025-09-03 07:42:20,48.1489251505516,11.5727631488312,31.16798,,,1724.1040479535,30.839896,0.4921268,142.510831332,30.9007227736,10,2,15.24,1724.1040479535,31.16798,0.8052984,142.510831332,0.447388,0.223694,-4.026492,118.9, 0, 3.7,0,0,1024,1208,1365,1024,0,28,52,0,6.4,-10,-22.4,67,3.838,3.864,3.861,3.829,0,0,19.026,114.71,1724.1040479535,31.16798,6,P-GPS,
362800,2025-09-03 07:42:20,48.1489254127701,11.5727641919423,31.496064,,,1724.4321319535,31.496064,0.4921268,142.781172548,31.1720482416,10,2,15.24,1724.4321319535,31.496064,0.8052984,142.781172548,0.447388,0.223694,-4.026492,118.8, 0, 3.8,0,0,1024,1204,1365,1024,0,27,52,0,6.4,-10,-22.4,67,3.838,3.864,3.861,3.829,0,0,19.026,114.71,1724.4321319535,31.496064,6,P-GPS,
362900,2025-09-03 07:42:20,48.1489255363299,11.5727650978276,32.152232,,,1725.0882999535,32.152232,0,143.005582004,31.3971138656,11,2,15.24,1725.0882999535,32.152232,0.8052984,143.005582004,0,0,-4.026492,118.7, 0, 4.8,0,0,1024,1130,1362,1024,0,16,51,0,6.8,-9.7,-20.4,67,3.838,3.864,3.861,3.829,0,0,19.026,114.71,1725.0882999535,32.152232,6,P-GPS,
363000,2025-09-03 07:42:20,48.1489256417294,11.5727660054077,32.8084,,,1725.7444679535,32.8084,0,143.22835104,31.621392088,11,2,15.24,1725.7444679535,32.8084,0.8052984,143.22835104,0,0,-4.250186,118.7, 0, 5.9,0,0,1024,1024,1357,1024,0,0,50,0,7.1,-9.3,-19.6,67,3.838,3.864,3.861,3.829,0,0,19.026,114.71,1725.7444679535,32.8084,6,P-GPS,
363100,2025-09-03 07:42:20,48.1489256654069,11.5727668443235,33.464568,,,1726.4006359535,33.464568,0.223694,143.42684186,31.82578842,11,2,15.24,1726.4006359535,33.464568,0.8052984,143.42684186,-0.223694,0,-4.250186,118.6, 0.2, 5.6,0,0,1024,1024,1355,1024,0,0,50,0,6.7,-9.3,-19.8,67,3.838,3.864,3.861,3.829,0,0,19.026,114.71,1726.4006359535,33.464568,6,P-GPS,
363200,2025-09-03 07:42:20,48.1489256149121,11.5727676214569,34.120736,,,1727.0568039535,33.792652,0.4921268,143.603351052,32.0158474812,11,2,15.24,1727.0568039535,34.120736,0.8052984,143.603351052,-0.447388,-0.223694,-4.026492,118.6, 0.1, 2.4,0,0,1024,1034,1361,1024,0,2,51,0,6.4,-9.7,-23.9,67,3.838,3.864,3.861,3.829,0,0,19.026,114.71,1727.0568039535,34.120736,6,P-GPS,
363300,2025-09-03 07:42:20,48.148925567544,11.5727684485093,34.44882,,,1727.3848879535,34.44882,0.4921268,143.791671268,32.2179144168,13,2,15.24,1727.3848879535,34.44882,0.8052984,143.791671268,-0.447388,-0.223694,-4.026492,118.6, 0, -1.5,0,0,1024,1157,1366,1024,0,20,52,0,6.8,-9.8,-26.8,67,3.838,3.864,3.861,3.829,0,0,19.026,114.71,1727.3848879535,34.44882,6,P-GPS,
363400,2025-09-03 07:42:20,48.1489255033637,11.5727692281592,35.104988,,,1728.0410559535,35.104988,0.223694,143.967524292,32.4091545804,13,2,15.24,1728.0410559535,35.104988,0.8052984,143.967524292,-0.223694,0,-4.026492,118.7, 0, -2.6,0,0,1024,1207,1368,1024,0,28,52,0,7,-9.8,-27.4,67,3.838,3.864,3.861,3.829,0,0,19.026,114.71,1728.0410559535,35.104988,6,P-GPS,
363500,2025-09-03 07:42:21,48.1489254757323,11.5727700429887,35.761156,,,1728.6972239535,35.761156,0,144.15518834,32.6077438256,13,2,15.24,1728.6972239535,35.761156,0.8052984,144.15518834,0,0,-4.026492,118.8, 0, -1.5,0,0,1024,1227,1369,1024,0,31,52,0,6.7,-9.7,-24.9,67,3.838,3.864,3.861,3.829,0,0,19.026,114.71,1728.6972239535,35.761156,6,P-GPS,
363600,2025-09-03 07:42:21,48.1489254745728,11.5727708812882,36.417324,,,1729.3533919535,36.417324,0,144.351054488,32.81168084,13,2,15.27,1729.3533919535,36.417324,0.8052984,144.351054488,0,0,-4.026492,118.7, 0, 1.6,0,0,1024,1161,1369,1024,0,21,52,0,6.7,-9.3,-21.2,67,3.829,3.855,3.854,3.823,0,0,18.572,114.71,1729.3533919535,36.417324,6,P-GPS,
363700,2025-09-03 07:42:21,48.1489254899388,11.5727717826027,36.745408,,,1729.6814759535,37.073492,0,144.563324836,33.031169036,12,2,15.27,1729.6814759535,36.745408,0.8052984,144.563324836,0,0,-4.026492,118.7, 0.3, 5.3,0,0,1024,1024,1370,1024,0,0,52,0,6.7,-9.1,-18.8,67,3.829,3.855,3.854,3.823,0,0,18.572,114.71,1729.6814759535,36.745408,6,P-GPS,
363800,2025-09-03 07:42:21,48.1489254244624,11.572772572524,37.401576,,,1730.3376439535,37.72966,0.223694,144.741474448,33.22506668,12,2,15.27,1730.3376439535,37.401576,0.8052984,144.741474448,-0.223694,0,-4.250186,118.7, 0.3, 7,0,0,1024,1024,1369,1024,0,0,52,0,6.6,-9,-18.8,67,3.829,3.855,3.854,3.823,0,0,18.572,114.71,1730.3376439535,37.401576,6,P-GPS,
363900,2025-09-03 07:42:21,48.1489252765475,11.5727732901347,38.385828,,,1731.3218959535,38.385828,0.7158208,144.894361592,33.407809468,12,2,15.27,1731.3218959535,38.385828,0.8052984,144.894361592,-0.671082,-0.223694,-4.250186,118.7, 0.3, 5.6,0,0,1024,1024,1369,1024,0,0,52,0,6.8,-9.2,-22.4,67,3.829,3.855,3.854,3.823,0,0,18.572,114.71,1731.3218959535,38.385828,6,P-GPS,
364000,2025-09-03 07:42:21,48.1489250624397,11.5727739486336,38.713912,,,1731.6499799535,38.713912,0.7158208,145.026907528,33.586287164,12,2,15.27,1731.6499799535,38.713912,0.8052984,145.026907528,-0.671082,-0.223694,-4.250186,118.6, 0.1, 1.3,0,0,1024,1024,1367,1024,0,0,52,0,7.3,-9.5,-27.9,67,3.829,3.855,3.854,3.823,0,0,18.572,114.71,1731.6499799535,38.713912,6,P-GPS,
364100,2025-09-03 07:42:21,48.1489248286408,11.5727745531563,39.37008,,,1732.3061479535,38.713912,0.7158208,145.144689684,33.756234676,12,2,15.27,1732.3061479535,39.37008,0.8052984,145.144689684,-0.671082,-0.223694,-4.250186,118.7, 0, -2.5,0,0,1024,1024,1363,1024,0,0,51,0,7.1,-9.6,-29.3,67,3.829,3.855,3.854,3.823,0,0,18.572,114.71,1732.3061479535,39.37008,6,P-GPS,
364200,2025-09-03 07:42:21,48.1489246338333,11.5727752175612,40.026248,,,1732.9623159535,38.713912,0.4921268,145.280844544,33.933071952,12,2,15.27,1732.9623159535,40.026248,0.8052984,145.280844544,-0.447388,-0.223694,-4.250186,118.6, 0.1, -3.7,0,0,1024,1024,1361,1024,0,0,51,0,7.1,-9.6,-29.3,67,3.829,3.855,3.854,3.823,0,0,18.572,114.71,1732.9623159535,40.026248,6,P-GPS,
364300,2025-09-03 07:42:21,48.1489244935591,11.5727759209974,40.682416,,,1733.6184839535,38.713912,0.4921268,145.4314351,34.111549648,14,2,15.27,1733.6184839535,40.682416,0.8052984,145.4314351,-0.447388,-0.223694,-4.250186,118.5, 0.1, -3.5,0,0,1024,1024,1354,1024,0,0,50,0,6.8,-9.6,-29.1,67,3.829,3.855,3.854,3.823,0,0,18.572,114.71,1733.6184839535,40.682416,6,P-GPS,
364400,2025-09-03 07:42:21,48.1488746435989,11.5725394390211,41.338584,,,1734.2746519535,38.713912,0.4921268,85.103677264,94.482614572,14,2,15.27,1734.2746519535,41.338584,0.8052984,145.4314351,-0.447388,-0.223694,-4.250186,118.5, 0, -2.9,0,0,1024,1024,1352,1024,0,0,50,0,7.5,-9.2,-28.5,67,3.829,3.855,3.854,3.823,0,0,18.572,114.71,1734.2746519535,41.338584,6,P-GPS,
364500,2025-09-03 07:42:22,48.1488160539133,11.5722611661617,41.666668,,,1734.6027359535,38.713912,0.223694,14.5780188392,165.514440992,14,2,15.27,1734.6027359535,41.666668,0.8052984,145.4314351,-0.223694,0,-4.026492,118.4, 0.2, -2.6,0,0,1024,1024,1351,1024,0,0,50,0,6.9,-9.2,-28.5,67,3.829,3.855,3.854,3.823,0,0,18.572,114.71,1734.6027359535,41.666668,6,P-GPS,
364600,2025-09-03 07:42:22,48.1488056120991,11.5722145648976,42.322836,,,1735.2589039535,38.713912,0.223694,4.8230644588,177.480976808,14,2,15.227,1735.2589039535,42.322836,0.8052984,145.4314351,-0.223694,0,-4.026492,118.5, -0.1, -2.1,0,0,1024,1024,1352,1024,0,0,50,0,6.9,-9.7,-27.7,66,3.821,3.849,3.847,3.815,0,0,19.476,114.71,1735.2589039535,42.322836,6,P-GPS,
364700,2025-09-03 07:42:22,48.148804647448,11.5722130466512,42.65092,,,1735.5869879535,38.713912,0.223694,4.8634187908,177.991475512,14,2,15.227,1735.5869879535,42.65092,0.8052984,145.4314351,0,0,-3.802798,118.5, -0.4, -1.5,0,0,1024,1024,1358,1024,0,0,51,0,7.2,-9.8,-27.3,66,3.821,3.849,3.847,3.815,0,0,19.476,114.71,1735.5869879535,42.65092,6,P-GPS,
364800,2025-09-03 07:42:22,48.1488038949343,11.5722119326579,43.307088,,,1736.2431559535,38.713912,0,4.9404857224,178.377302296,14,2,15.227,1736.2431559535,43.307088,0.8052984,145.4314351,0,0,-3.802798,118.5, -0.2, -1.2,0,0,1024,1024,1361,1024,0,0,51,0,7.3,-9.4,-26.9,66,3.821,3.849,3.847,3.815,0,0,19.476,114.71,1736.2431559535,43.307088,6,P-GPS,
364900,2025-09-03 07:42:22,48.1488031602227,11.5722108673799,43.963256,,,1736.8993239535,38.713912,0,5.0456366444,178.750333804,15,2,15.227,1736.8993239535,43.963256,0.8052984,145.4314351,0,0,-3.802798,118.6, 0.1, -1,0,0,1024,1024,1367,1024,0,0,52,0,7.4,-8.9,-26.7,66,3.821,3.849,3.847,3.815,0,0,19.476,114.71,1736.8993239535,43.963256,6,P-GPS,
365000,2025-09-03 07:42:22,48.1487998952543,11.5722053906519,44.29134,,,1737.2274079535,38.713912,0,5.75295294,180.53806352,15,2,15.227,1737.2274079535,44.29134,0.8052984,145.4314351,0,0,-3.802798,118.6, 0.3, -1,0,0,1024,1024,1370,1024,0,0,52,0,7.2,-9,-27.1,66,3.821,3.849,3.847,3.815,0,0,19.476,114.71,1737.2274079535,44.29134,6,P-GPS,
365100,2025-09-03 07:42:22,48.1487990391325,11.5722042065789,44.947508,,,1737.8835759535,38.713912,0,6.020013316,180.9629323,15,2,15.227,1737.8835759535,44.947508,0.8052984,145.4314351,0,0,-4.026492,118.6, 0.3, -1.1,0,0,1024,1024,1370,1024,0,0,52,0,7.2,-9.1,-27,66,3.821,3.849,3.847,3.815,0,0,19.476,114.71,1737.8835759535,44.947508,6,P-GPS,
365200,2025-09-03 07:42:22,48.1487981438335,11.5722030625803,45.603676,,,1738.5397439535,38.713912,0,6.3193571576,181.392394256,15,2,15.227,1738.5397439535,45.603676,0.8052984,145.4314351,0,0,-4.026492,118.6, 0.1, -1.2,0,0,1024,1029,1370,1024,0,1,52,0,7.2,-9.3,-26.9,66,3.821,3.849,3.847,3.815,0,0,19.476,114.71,1738.5397439535,45.603676,6,P-GPS,
365300,2025-09-03 07:42:22,48.1487972169753,11.5722018891028,45.93176,,,1738.8678279535,38.713912,0,6.644357168,181.834979572,15,2,15.227,1738.8678279535,45.93176,0.8052984,145.4314351,0,0,-4.026492,118.6, 0, -1,0,0,1024,1250,1368,1024,0,34,52,0,7.2,-9,-27.1,66,3.821,3.849,3.847,3.815,0,0,19.476,114.71,1738.8678279535,45.93176,6,P-GPS,
365400,2025-09-03 07:42:22,48.1487961331025,11.5722002710057,46.587928,,,1739.5239959535,38.713912,0,7.0425199104,182.393050456,15,4,15.227,1739.5239959535,46.587928,0.8052984,145.4314351,0,0,-4.026492,118.5, 0.2, -0.8,0,0,1024,1304,1369,1024,0,42,52,0,8,-8.5,-25.7,66,3.821,3.849,3.847,3.815,0,0,19.476,114.71,1739.5239959535,46.587928,6,P-GPS,
365500,2025-09-03 07:42:22,48.1487954304289,11.5721991794265,46.916012,,,1739.8520799535,38.713912,0,7.3125658508,182.76247304,15,4,15.227,1739.8520799535,46.916012,0.8052984,145.4314351,0,0,-4.026492,118.6, 0.3, 0.8,0,0,1024,1258,1370,1024,0,35,52,0,7.7,-8.7,-21.6,66,3.821,3.849,3.847,3.815,0,0,19.476,114.71,1739.8520799535,46.916012,6,P-GPS,
365600,2025-09-03 07:42:23,48.1487947567742,11.5721983051193,47.57218,,,1740.5082479535,38.713912,0,7.5751970928,183.087604284,15,4,15.259,1740.5082479535,47.57218,0.8052984,145.4314351,0,0,-4.026492,118.6, 0, 4.8,0,0,1024,1167,1370,1024,0,22,52,0,7.7,-8.7,-21.6,66,3.821,3.849,3.847,3.815,0,0,19.476,114.71,1740.5082479535,47.57218,6,P-GPS,
365700,2025-09-03 07:42:23,48.1487939900442,11.5721973733436,48.228348,,,1741.1644159535,38.713912,0,7.8778873912,183.447512432,15,4,15.259,1741.1644159535,48.228348,0.8052984,145.4314351,0,0,-4.250186,118.7, 0, 8.6,0,0,1024,1024,1370,1024,0,0,52,0,7.5,-8.6,-17.9,66,3.821,3.849,3.847,3.815,0,0,19.476,114.71,1741.1644159535,48.228348,6,P-GPS,
365800,2025-09-03 07:42:23,48.1487941017945,11.5721975879836,48.884516,,,1741.8205839535,38.713912,0.4921268,7.8312338464,183.5137854,15,4,15.259,1741.8205839535,48.884516,0.8052984,145.4314351,-0.447388,-0.223694,-4.250186,118.7, 0.1, 8.7,0,0,1024,1024,1370,1024,0,0,52,0,7.3,-8.4,-17.7,66,3.821,3.849,3.847,3.815,0,0,19.476,114.71,1741.8205839535,48.884516,6,P-GPS,
365900,2025-09-03 07:42:23,48.1487934994005,11.5721968608141,49.2126,,,1742.1486679535,38.713912,0.7158208,8.0713257176,183.796265724,15,4,15.259,1742.1486679535,49.2126,0.8052984,145.4314351,-0.671082,-0.223694,-4.026492,118.6, 0.3, 4.6,0,0,1024,1024,1369,1024,0,0,52,0,7.2,-8.5,-22,66,3.821,3.849,3.847,3.815,0,0,19.476,114.71,1742.1486679535,49.2126,6,P-GPS,
366000,2025-09-03 07:42:23,48.1487928661963,11.5721962428166,49.868768,,,1742.8048359535,38.713912,0.9171454,8.321194492,184.071856284,15,4,15.259,1742.8048359535,49.868768,0.9171454,145.4314351,-0.894776,-0.223694,-4.026492,118.6, 0.4, -1.2,0,0,1024,1024,1369,1024,0,0,52,0,8.1,-8.2,-28.5,66,3.821,3.849,3.847,3.815,0,0,19.476,114.71,1742.8048359535,49.868768,6,P-GPS,
366100,2025-09-03 07:42:23,48.1487921984822,11.572195605021,50.524936,,,1743.4610039535,38.713912,0.7158208,8.5858598548,184.360570204,15,4,15.259,1743.4610039535,50.524936,0.9171454,145.4314351,-0.671082,-0.223694,-4.250186,118.7, 0.6, -4.3,0,0,1024,1024,1370,1024,0,0,52,0,7.9,-8.3,-30.5,66,3.821,3.849,3.847,3.815,0,0,19.476,114.71,1743.4610039535,50.524936,6,P-GPS,
366200,2025-09-03 07:42:23,48.1487915826568,11.5721950719551,50.85302,,,1743.7890879535,38.713912,0.7158208,8.8290029072,184.620084648,15,4,15.259,1743.7890879535,50.85302,0.9171454,145.4314351,-0.671082,-0.223694,-4.026492,118.7, 0.9, -4.3,0,0,1024,1024,1370,1024,0,0,52,0,6.9,-8.5,-29.8,66,3.821,3.849,3.847,3.815,0,0,19.476,114.71,1743.7890879535,50.85302,6,P-GPS,
366300,2025-09-03 07:42:23,48.1487914971113,11.5721955235625,51.181104,,,1744.1171719535,38.713912,0.223694,8.8416341412,184.734585964,15,4,15.259,1744.1171719535,51.181104,0.9171454,145.4314351,-0.223694,0,-4.026492,118.6, 1.1, -3.2,0,0,1024,1024,1370,1024,0,0,52,0,6.7,-8.6,-28.4,66,3.821,3.849,3.847,3.815,0,0,19.476,114.71,1744.1171719535,51.181104,6,P-GPS,
366400,2025-09-03 07:42:23,48.1487911512754,11.5721952164479,51.837272,,,1744.7733399535,38.713912,0.223694,8.9782483188,184.881239512,15,4,15.259,1744.7733399535,51.837272,0.9171454,145.4314351,-0.223694,0,-4.250186,118.5, 0.8, -2.4,0,0,1024,1024,1367,1024,0,0,52,0,6.7,-8.9,-28.3,66,3.821,3.849,3.847,3.815,0,0,19.476,114.71,1744.7733399535,51.837272,6,P-GPS,
366500,2025-09-03 07:42:24,48.148790847284,11.5721949317635,52.49344,,,1745.4295079535,38.713912,0,9.0991800812,185.011816944,15,4,15.259,1745.4295079535,52.49344,0.9171454,145.4314351,0,0,-4.250186,118.5, 0.5, -2,0,0,1024,1024,1366,1024,0,0,52,0,6.8,-8.8,-28,66,3.821,3.849,3.847,3.815,0,0,19.476,114.71,1745.4295079535,52.49344,6,P-GPS,
366600,2025-09-03 07:42:24,48.1487903759798,11.5721943830465,53.149608,,,1746.0856759535,38.713912,0,9.2918966228,185.22966472,15,4,15.221,1746.0856759535,53.149608,0.9171454,145.4314351,0,0,-4.250186,118.5, 0.6, -1.5,0,0,1024,1024,1365,1024,0,0,52,0,6.7,-8.7,-27.7,66,3.814,3.843,3.842,3.811,0,0,19.11,114.71,1746.0856759535,53.149608,6,P-GPS,
366700,2025-09-03 07:42:24,48.1487900609084,11.5721941353134,53.805776,,,1746.7418439535,38.713912,0,9.4159451832,185.359585984,15,4,15.221,1746.7418439535,53.805776,0.9171454,145.4314351,0,0,-4.250186,118.4, 0.6, -1,0,0,1024,1024,1364,1024,0,0,52,0,6.4,-9,-27.1,66,3.814,3.843,3.842,3.811,0,0,19.11,114.71,1746.7418439535,53.805776,6,P-GPS,
366800,2025-09-03 07:42:24,48.1487897948402,11.572193834336,54.13386,,,1747.0699279535,38.713912,0,9.5250659216,185.480977064,15,4,15.221,1747.0699279535,54.13386,0.9171454,145.4314351,0,0,-4.026492,118.4, 0.4, -0.7,0,0,1024,1024,1367,1024,0,0,52,0,6.4,-9,-26.8,66,3.814,3.843,3.842,3.811,0,0,19.11,114.71,1747.0699279535,54.13386,6,P-GPS,
366900,2025-09-03 07:42:24,48.1487895606048,11.5721935695395,54.790028,,,1747.7260959535,38.713912,0,9.6213257672,185.587932448,15,4,15.221,1747.7260959535,54.790028,0.9171454,145.4314351,0,0,-4.026492,118.4, 0.4, -0.5,0,0,1024,1024,1367,1024,0,0,52,0,6.4,-9.1,-26.4,66,3.814,3.843,3.842,3.811,0,0,19.11,114.71,1747.7260959535,54.790028,6,P-GPS,
367000,2025-09-03 07:42:24,48.1487895460791,11.5721934935248,55.446196,,,1748.3822639535,38.713912,0,9.6301512268,185.607289404,15,4,15.221,1748.3822639535,55.446196,0.9171454,145.4314351,0,0,-4.026492,118.4, 0.4, -0.2,0,0,1024,1024,1356,1024,0,0,50,0,6.4,-9.1,-26.4,66,3.814,3.843,3.842,3.811,0,0,19.11,114.71,1748.3822639535,55.446196,6,P-GPS,
367100,2025-09-03 07:42:24,48.148790267317,11.5721941693567,56.102364,,,1749.0384319535,38.713912,0,9.3404202464,185.917656868,15,4,15.221,1749.0384319535,56.102364,0.9171454,145.4314351,0,0,-4.250186,118.3, 0.4, -0.1,0,0,1024,1024,1352,1024,0,0,50,0,6.5,-8.9,-26.4,66,3.814,3.843,3.842,3.811,0,0,19.11,114.71,1749.0384319535,56.102364,6,P-GPS,
367200,2025-09-03 07:42:24,48.148790051242,11.572193889365,56.758532,,,1749.6945999535,38.713912,0,9.4306761548,186.02198758,15,4,15.221,1749.6945999535,56.758532,0.9171454,145.4314351,0,0,-4.250186,118.3, 0.5, 0,0,0,1024,1024,1341,1024,0,0,48,0,6.4,-8.9,-26.2,66,3.814,3.843,3.842,3.811,0,0,19.11,114.71,1749.6945999535,56.758532,6,P-GPS,
367300,2025-09-03 07:42:24,48.1487897878835,11.5721935597239,57.086616,,,1750.0226839535,38.713912,0,9.5404858696,186.146987584,15,4,15.221,1750.0226839535,57.086616,0.9171454,145.4314351,0,0,-4.026492,118.3, 0.5, 0.5,0,0,1024,1024,1346,1024,0,0,49,0,6.2,-8.9,-25.9,66,3.814,3.843,3.842,3.811,0,0,19.11,114.71,1750.0226839535,57.086616,6,P-GPS,
367400,2025-09-03 07:42:24,48.1487893804403,11.5721930168167,57.4147,,,1750.3507679535,38.713912,0,9.7127955864,186.346134572,15,4,15.221,1750.3507679535,57.4147,0.9171454,145.4314351,0,0,-3.802798,118.4, 0.3, 0.7,0,0,1024,1024,1366,1024,0,0,52,0,6.2,-9.1,-25.7,66,3.814,3.843,3.842,3.811,0,0,19.11,114.71,1750.3507679535,57.4147,6,P-GPS,
