time(millisecond),datetime(utc),latitude,longitude,height_above_takeoff(feet),height_above_ground_at_drone_location(feet),ground_elevation_at_drone_location(feet),altitude_above_seaLevel(feet),height_sonar(feet),speed(mph),distance(feet),mileage(feet),satellites,gpslevel,voltage(v),max_altitude(feet),max_ascent(feet),max_speed(mph),max_distance(feet), xSpeed(mph), ySpeed(mph), zSpeed(mph), compass_heading(degrees), pitch(degrees), roll(degrees),isPhoto,isVideo,rc_elevator,rc_aileron,rc_throttle,rc_rudder,rc_elevator(percent),rc_aileron(percent),rc_throttle(percent),rc_rudder(percent),gimbal_heading(degrees),gimbal_pitch(degrees),gimbal_roll(degrees),battery_percent,voltageCell1,voltageCell2,voltageCell3,voltageCell4,voltageCell5,voltageCell6,current(A),battery_temperature(f),altitude(feet),ascent(feet),flycStateRaw,flycState,message
312500,,48.148788341969,11.5721610868305,0,Available with any HD 360 subscription,Available with any HD 360 subscription,1692.9124386876,1.64042,0,0,0,6,2,0,1692.9124386876,0,0,0,0,0,0,169.2, -0.1, -4.3,0,0,1024,1024,1024,1024,0,0,0,0,53.8,-31.8,-19,68,3.961,3.964,3.963,3.942,0,0,0,121.91,1692.9124386876,0,41,Motors_Started,
312600,2025-09-03 13:53:06,48.1487882385915,11.5721612153924,0,,,1692.9124386876,1.64042,0,0.049010172172,0.049010172172,6,2,0,1692.9124386876,0,0,0.049010172172,0,0,0,169.3, -0.1, -4.3,0,0,1024,1024,1024,1024,0,0,0,0,53.7,-31.8,-18.9,68,3.961,3.964,3.963,3.942,0,0,0,121.91,1692.9124386876,0,41,Motors_Started,
312700,2025-09-03 13:53:06,48.1487881350292,11.572161345999,0,,,1692.9124386876,1.64042,0,0.098390423096,0.098391079264,6,2,0,1692.9124386876,0,0,0.098390423096,0,0,0,169.3, -0.2, -4.2,0,0,1024,1024,1024,1024,0,0,0,0,53.6,-31.9,-18.9,68,3.961,3.964,3.963,3.942,0,0,0,121.91,1692.9124386876,0,41,Motors_Started,
312800,2025-09-03 13:53:06,48.1487880333776,11.5721614902376,0,,,1692.9124386876,1.312336,0,0.149397642576,0.149462603208,6,2,0,1692.9124386876,0,0,0.149397642576,0,0,0,169.2, -0.1, -4.2,0,0,365,364,364,1684,-100,-100,-100,100,53.5,-31.9,-18.9,68,3.961,3.964,3.963,3.942,0,0,0,121.91,1692.9124386876,0,41,Motors_Started,
312900,2025-09-03 13:53:06,48.1487879281142,11.5721616208409,0,,,1692.9124386876,1.312336,0,0.19924213236,0.199319888268,6,2,0,1692.9124386876,0,0,0.19924213236,0,0,0,169.2, -0.1, -4.2,0,0,393,378,372,1643,-96,-98,-99,94,53.4,-31.9,-19,68,3.961,3.964,3.963,3.942,0,0,0,121.91,1692.9124386876,0,41,Motors_Started,
313000,2025-09-03 13:53:07,48.1487878227732,11.5721617511747,0,,,1692.9124386876,1.312336,0,0.249070546028,0.24915683212,6,2,15.744,1692.9124386876,0,0,0.249070546028,0,0,0,169.2, -0.1, -4.2,0,0,928,833,900,1238,-15,-29,-19,32,53.4,-31.9,-19,68,3.961,3.964,3.963,3.942,0,0,1.65,121.91,1692.9124386876,0,41,Motors_Started,"Setting new Return-To-Home altitude to 100m (328 ft). Data Recorder File Index is 240. Setting new Maximum Flight Altitude to 150m (492 ft)"
313100,2025-09-03 13:53:07,48.1487877174387,11.572161880661,0,,,1692.9124386876,1.312336,0,7.1372705696,0.298860901952,6,2,15.744,1692.9124386876,0,0,7.1372705696,0,0,0,169.2, -0.1, -4.3,0,0,1024,1024,1024,1024,0,0,0,0,53.3,-31.9,-18.9,68,3.961,3.964,3.963,3.942,0,0,1.65,121.91,1692.9124386876,0,41,Motors_Started,
313200,2025-09-03 13:53:07,48.1487876201313,11.5721620315728,0,,,1692.9124386876,1.312336,0,7.0928808044,0.34994751776,6,2,15.744,1692.9124386876,0,0,7.1372705696,0,0,0,169.1, -0.1, -4.3,0,0,1024,1024,1024,1024,0,0,0,0,53.3,-31.9,-18.9,68,3.961,3.964,3.963,3.942,0,0,1.65,121.91,1692.9124386876,0,41,Motors_Started,
313300,2025-09-03 13:53:07,48.1487875168894,11.5721621708137,0,,,1692.9124386876,1.312336,0,7.0507876272,0.40062009156,6,2,15.744,1692.9124386876,0,0,7.1372705696,0,0,0,169.1, -0.1, -4.3,0,0,1024,1024,1024,1024,0,0,0,0,53.2,-31.9,-18.9,68,3.961,3.964,3.963,3.942,0,0,1.65,121.91,1692.9124386876,0,41,Motors_Started,
313400,2025-09-03 13:53:07,48.1487874135007,11.5721623111363,0,,,1692.9124386876,1.64042,0,7.0085632164,0.4515092008,6,2,15.744,1692.9124386876,0,0,7.1372705696,0,0,0,169.1, -0.1, -4.3,0,0,1024,1024,1024,1024,0,0,0,0,53.2,-32,-19.1,68,3.961,3.964,3.963,3.942,0,0,1.65,121.91,1692.9124386876,0,41,Motors_Started,
313500,2025-09-03 13:53:07,48.1487873097039,11.5721624522806,0,,,1692.9124386876,1.312336,0,6.966207572,0.50264437304,6,2,15.744,1692.9124386876,0,0,7.1372705696,0,0,0,169.1, -0.1, -4.3,0,0,1024,1024,1024,1024,0,0,0,0,53,-31.9,-19,68,3.961,3.964,3.963,3.942,0,0,1.65,121.91,1692.9124386876,0,41,Motors_Started,
313600,2025-09-03 13:53:07,48.1487872066749,11.5721625939225,0,,,1692.9124386876,1.312336,0,6.9239175444,0.55365159252,6,2,15.744,1692.9124386876,0,0,7.1372705696,0,0,0,169, -0.1, -4.3,0,0,1024,1024,1024,1024,0,0,0,0,53.1,-31.9,-19,68,3.961,3.964,3.963,3.942,0,0,1.65,121.91,1692.9124386876,0,41,Motors_Started,
313700,2025-09-03 13:53:07,48.1487871077152,11.5721627292571,0,,,1692.9124386876,0.984252,0,6.8835960208,0.60252954684,6,2,15.744,1692.9124386876,0,0,7.1372705696,0,0,0,169, -0.1, -4.3,0,0,1024,1024,1024,1024,0,0,0,0,52.9,-32,-18.9,68,3.961,3.964,3.963,3.942,0,0,1.65,121.91,1692.9124386876,0,41,Motors_Started,
313800,2025-09-03 13:53:07,48.1487870054129,11.5721628700644,0,,,1692.9124386876,0.984252,0,6.8417981192,0.65320540148,6,2,15.744,1692.9124386876,0,0,7.1372705696,0,0,0,169, -0.1, -4.3,0,0,1024,1024,1024,1024,0,0,0,0,52.8,-32,-19,68,3.961,3.964,3.963,3.942,0,0,1.65,121.91,1692.9124386876,0,41,Motors_Started,
313900,2025-09-03 13:53:07,48.1487869032002,11.572163011061,0,,,1692.9124386876,0.984252,0,6.8000986428,0.7038878178,6,2,15.744,1692.9124386876,0,0,7.1372705696,0,0,0,169, -0.1, -4.3,0,0,1024,1024,1024,1024,0,0,0,0,52.8,-31.9,-19,68,3.961,3.964,3.963,3.942,0,0,1.65,121.91,1692.9124386876,0,41,Motors_Started,
314000,2025-09-03 13:53:08,48.1487868011033,11.5721631524493,0,,,1692.9124386876,0.984252,0,6.7584319748,0.75460304252,6,2,15.642,1692.9124386876,0,0,7.1372705696,0,0,0,168.9, -0.1, -4.3,0,0,1024,1024,1024,1024,0,0,0,0,52.7,-32,-19.1,68,3.961,3.964,3.963,3.942,0,0,4.468,121.91,1692.9124386876,0,10,Assisted_Takeoff,
314100,2025-09-03 13:53:08,48.1487866735693,11.5721633003085,0,,,1692.9124386876,0.984252,0,6.7133860416,0.81343178456,6,2,15.642,1692.9124386876,0,0,7.1372705696,0,0,0,168.9, -0.1, -4.3,0,0,1024,1024,1024,1024,0,0,0,0,52.5,-32.1,-19,68,3.961,3.964,3.963,3.942,0,0,4.468,121.91,1692.9124386876,0,10,Assisted_Takeoff,
314200,2025-09-03 13:53:08,48.1487865859646,11.5721634193663,0,,,1692.9124386876,0.656168,0,6.6784122872,0.85657483056,6,2,15.642,1692.9124386876,0,0,7.1372705696,0,0,0,168.9, -0.1, -4.3,0,0,1024,1024,1024,1024,0,0,0,0,52.4,-32.1,-19,68,3.961,3.964,3.963,3.942,0,0,4.468,121.91,1692.9124386876,0,10,Assisted_Takeoff,
314300,2025-09-03 13:53:08,48.1487864843203,11.572163560915,0,,,1692.9124386876,0.656168,0,6.63713932,0.90719819176,6,2,15.642,1692.9124386876,0,0,7.1372705696,0,0,0,168.9, -0.1, -4.3,0,0,1024,1024,1024,1024,0,0,0,0,52.4,-32.1,-19,68,3.961,3.964,3.963,3.942,0,0,4.468,121.91,1692.9124386876,0,10,Assisted_Takeoff,
314400,2025-09-03 13:53:08,48.1487863819318,11.5721637026596,0,,,1692.9124386876,0.656168,0,6.5958991612,0.95805121176,6,2,15.642,1692.9124386876,0,0,7.1372705696,0,0,0,168.9, -0.1, -4.3,0,0,1024,1024,1024,1024,0,0,0,0,52.2,-32.1,-19.1,68,3.961,3.964,3.963,3.942,0,0,4.468,121.91,1692.9124386876,0,10,Assisted_Takeoff,
314500,2025-09-03 13:53:08,48.1487862799931,11.5721638385382,0,,,1692.9124386876,0.656168,0,6.5562338056,1.0078248354,6,2,15.642,1692.9124386876,0,0,7.1372705696,0,0,0,168.9, -0.1, -4.3,0,0,1024,1024,1024,1024,0,0,0,0,52.2,-32.1,-19.1,68,3.961,3.964,3.963,3.942,0,0,4.468,121.91,1692.9124386876,0,10,Assisted_Takeoff,
314600,2025-09-03 13:53:08,48.1487861786147,11.572163981602,0,,,1692.9124386876,0.656168,0,6.5150264552,1.05862536196,6,2,15.642,1692.9124386876,0,0,7.1372705696,0,0,0,168.9, -0.1, -4.3,0,0,1024,1024,1024,1024,0,0,0,0,52.2,-32.1,-19.1,68,3.961,3.964,3.963,3.942,0,0,4.468,121.91,1692.9124386876,0,10,Assisted_Takeoff,
314700,2025-09-03 13:53:08,48.148786077079,11.5721641251842,0,,,1692.9124386876,0.656168,0,6.4737862964,1.10955712212,6,2,15.642,1692.9124386876,0,0,7.1372705696,0,0,0,168.8, -0.1, -4.3,0,0,1024,1024,1024,1024,0,0,0,0,52.1,-32.2,-19,68,3.961,3.964,3.963,3.942,0,0,4.468,121.91,1692.9124386876,0,10,Assisted_Takeoff,
314800,2025-09-03 13:53:08,48.1487859757644,11.5721642691612,0,,,1692.9124386876,0.328084,0,6.4326445628,1.16049544396,6,2,15.642,1692.9124386876,0,0,7.1372705696,0,0,0,168.8, -0.1, -4.3,0,0,1024,1024,1024,1024,0,0,0,0,52.1,-32.1,-19,68,3.961,3.964,3.963,3.942,0,0,4.468,121.91,1692.9124386876,0,10,Assisted_Takeoff,
314900,2025-09-03 13:53:08,48.1487858726825,11.5721644203088,0,,,1692.9124386876,0.328084,0,6.3897967924,1.21311027504,6,2,15.642,1692.9124386876,0,0,7.1372705696,0,0,0,168.8, -0.1, -4.3,0,0,1024,1024,1024,1024,0,0,0,0,52,-32.1,-19.1,68,3.961,3.964,3.963,3.942,0,0,4.468,121.91,1692.9124386876,0,10,Assisted_Takeoff,
315000,2025-09-03 13:53:09,48.1487857700751,11.5721645697617,0,,,1692.9124386876,0.328084,0,6.3475395732,1.26531172028,6,2,15.67,1692.9124386876,0,0,7.1372705696,0,0,0,168.8, -0.2, -4.3,0,0,1024,1024,1024,1024,0,0,0,0,51.9,-32.2,-19,68,3.94,3.945,3.942,3.916,0,0,4.468,121.91,1692.9124386876,0,10,Assisted_Takeoff,
315100,2025-09-03 13:53:09,48.1487856672644,11.5721647206125,0,,,1692.9124386876,0.328084,0,6.3050855036,1.31780516028,6,2,15.67,1692.9124386876,0,0,7.1372705696,0,0,0,168.8, -0.1, -4.3,0,0,1024,1024,1024,1024,0,0,0,0,51.8,-32.2,-19,68,3.94,3.945,3.942,3.916,0,0,4.468,121.91,1692.9124386876,0,10,Assisted_Takeoff,
315200,2025-09-03 13:53:09,48.148785564403,11.5721648710299,0,,,1692.9124386876,0.328084,0,6.2628610928,1.37023626432,6,2,15.67,1692.9124386876,0,0,7.1372705696,0,0,0,168.8, -0.1, -4.2,0,0,1024,1024,1024,1024,0,0,0,0,51.7,-32.2,-19,68,3.94,3.945,3.942,3.916,0,0,4.468,121.91,1692.9124386876,0,10,Assisted_Takeoff,
315300,2025-09-03 13:53:09,48.14878546162,11.5721650215532,0,,,1692.9124386876,0.328084,0,6.220800724,1.42266736836,6,2,15.67,1692.9124386876,0,0,7.1372705696,0,0,0,168.8, -0.1, -4.3,0,0,1024,1024,1024,1024,0,0,0,0,51.7,-32.2,-18.9,68,3.94,3.945,3.942,3.916,0,0,4.468,121.91,1692.9124386876,0,10,Assisted_Takeoff,
315400,2025-09-03 13:53:09,48.1487853698281,11.5721651434917,0,,,1692.9124386876,0.328084,0,6.186351904,1.46741802596,6,2,15.67,1692.9124386876,0,0,7.1372705696,0,0,0,168.8, -0.1, -4.3,0,0,1024,1024,1024,1024,0,0,0,0,51.5,-32.2,-19,68,3.94,3.945,3.942,3.916,0,0,4.468,121.91,1692.9124386876,0,10,Assisted_Takeoff,
315500,2025-09-03 13:53:09,48.1487852685865,11.5721652922288,0,,,1692.9124386876,0.328084,0,6.1450789368,1.51914046856,6,2,15.67,1692.9124386876,0,0,7.1372705696,0,0,0,168.8, -0.1, -4.3,0,0,1024,1024,1024,1024,0,0,0,0,51.5,-32.2,-19,68,3.94,3.945,3.942,3.916,0,0,4.468,121.91,1692.9124386876,0,10,Assisted_Takeoff,
315600,2025-09-03 13:53:09,48.1487851676466,11.5721654414763,0,,,1692.9124386876,0.328084,0,6.1039043948,1.57087275368,6,2,15.67,1692.9124386876,0,0,7.1372705696,0,0,0,168.8, -0.1, -4.3,0,0,1024,1024,1024,1024,0,0,0,0,51.4,-32.3,-19,68,3.94,3.945,3.942,3.916,0,0,4.468,121.91,1692.9124386876,0,10,Assisted_Takeoff,
315700,2025-09-03 13:53:09,48.1487850666306,11.5721655911474,0,,,1692.9124386876,0.328084,0,6.0627298528,1.62269690232,6,2,15.67,1692.9124386876,0,0,7.1372705696,0,0,0,168.8, -0.2, -4.3,0,0,1024,1024,1024,1024,0,0,0,0,51.3,-32.3,-19.1,68,3.94,3.945,3.942,3.916,0,0,4.468,121.91,1692.9124386876,0,10,Assisted_Takeoff,
315800,2025-09-03 13:53:09,48.1487849572524,11.5721657343059,0,,,1692.9124386876,0.328084,0,6.0229332636,1.67567918748,6,2,15.67,1692.9124386876,0,0,7.1372705696,0,0,0,168.8, -0.1, -4.3,0,0,1024,1024,1024,1024,0,0,0,0,51.2,-32.3,-19,68,3.94,3.945,3.942,3.916,0,0,4.468,121.91,1692.9124386876,0,10,Assisted_Takeoff,
315900,2025-09-03 13:53:09,48.1487848539106,11.5721658832003,0,,,1692.9124386876,0.328084,0,5.9822180392,1.72797905792,6,2,15.67,1692.9124386876,0,0,7.1372705696,0,0,0,168.8, -0.1, -4.3,0,0,1024,1024,1024,1024,0,0,0,0,51.2,-32.3,-19,68,3.94,3.945,3.942,3.916,0,0,4.468,121.91,1692.9124386876,0,10,Assisted_Takeoff,
316000,2025-09-03 13:53:09,48.1487847508387,11.5721660332213,0,,,1692.9124386876,0.328084,0,5.9414043896,1.7803970386,6,2,15.763,1692.9124386876,0,0,7.1372705696,0,0,0,168.8, -0.1, -4.3,0,0,1024,1024,1024,1024,0,0,0,0,51.1,-32.3,-19.2,68,3.949,3.96,3.957,3.934,0,0,2.504,121.91,1692.9124386876,0,10,Assisted_Takeoff,
316100,2025-09-03 13:53:10,48.1487846480992,11.5721661844942,0,,,1692.9124386876,0.328084,0,5.9005251232,1.83294297204,6,2,15.763,1692.9124386876,0,0,7.1372705696,0,0,0,168.8, -0.1, -4.3,0,0,1024,1024,1024,1024,0,0,0,0,51,-32.3,-19.1,68,3.949,3.96,3.957,3.934,0,0,2.504,121.91,1692.9124386876,0,10,Assisted_Takeoff,
316200,2025-09-03 13:53:10,48.1487845623171,11.5721663449615,0,,,1692.9124386876,0.328084,0,5.8582350956,1.88299874792,6,2,15.763,1692.9124386876,0,0,7.1372705696,0,0,0,168.7, -0.1, -4.3,0,0,1024,1024,1024,1024,0,0,0,0,51,-32.3,-19.1,68,3.949,3.96,3.957,3.934,0,0,2.504,121.91,1692.9124386876,0,10,Assisted_Takeoff,
316300,2025-09-03 13:53:10,48.1487844622087,11.5721665001374,0,,,1692.9124386876,0.328084,0,5.8168308948,1.93554140052,6,2,15.763,1692.9124386876,0,0,7.1372705696,0,0,0,168.7, -0.1, -4.3,0,0,1024,1044,1024,1024,0,3,0,0,50.9,-32.3,-19.1,68,3.949,3.96,3.957,3.934,0,0,2.504,121.91,1692.9124386876,0,10,Assisted_Takeoff,
316400,2025-09-03 13:53:10,48.1487843615328,11.5721666571172,0,,,1692.9124386876,0.656168,0,5.7751314184,1.98854665156,6,2,15.763,1692.9124386876,0,0,7.1372705696,0,0,0,168.7, -0.1, -4.3,0,0,1024,1042,1024,1024,0,3,0,0,50.8,-32.4,-19.2,68,3.949,3.96,3.957,3.934,0,0,2.504,121.91,1692.9124386876,0,10,Assisted_Takeoff,
316500,2025-09-03 13:53:10,48.1487842607783,11.5721668155543,0,,,1692.9124386876,0.656168,0,5.7333007084,2.04182749316,6,2,15.763,1692.9124386876,0,0,7.1372705696,0,0,0,168.7, -0.1, -4.3,0,0,1024,1033,1024,1024,0,1,0,0,50.7,-32.4,-19.1,68,3.949,3.96,3.957,3.934,0,0,2.504,121.91,1692.9124386876,0,10,Assisted_Takeoff,
316600,2025-09-03 13:53:10,48.1487841548075,11.5721669669893,0,,,1692.9124386876,0.656168,0,5.6931432268,2.09524941088,6,2,15.763,1692.9124386876,0,0,7.1372705696,0,0,0,168.7, -0.1, -4.3,0,0,1024,1024,1024,1024,0,0,0,0,50.6,-32.3,-19.1,68,3.949,3.96,3.957,3.934,0,0,2.504,121.91,1692.9124386876,0,10,Assisted_Takeoff,
316700,2025-09-03 13:53:10,48.1487840522426,11.5721671231779,0,,,1692.9124386876,0.328084,0,5.6521983436,2.14859586928,6,2,15.763,1692.9124386876,0,0,7.1372705696,0,0,0,168.7, -0.1, -4.3,0,0,1024,1024,1024,1024,0,0,0,0,50.5,-32.3,-19.1,68,3.949,3.96,3.957,3.934,0,0,2.504,121.91,1692.9124386876,0,10,Assisted_Takeoff,
316800,2025-09-03 13:53:10,48.1487839489091,11.5721672805076,0,,,1692.9124386876,0.328084,0,5.6111550352,2.20233602848,6,2,15.763,1692.9124386876,0,0,7.1372705696,0,0,0,168.7, -0.2, -4.3,0,0,1024,1024,1024,1024,0,0,0,0,50.5,-32.4,-19.1,68,3.949,3.96,3.957,3.934,0,0,2.504,121.91,1692.9124386876,0,10,Assisted_Takeoff,
316900,2025-09-03 13:53:10,48.1487838452914,11.5721674396124,0,,,1692.9124386876,0.328084,0,5.5698492596,2.25646004596,6,2,15.763,1692.9124386876,0,0,7.1372705696,0,0,0,168.7, -0.1, -4.3,0,0,1024,1024,1024,1024,0,0,0,0,50.4,-32.4,-19.2,68,3.949,3.96,3.957,3.934,0,0,2.504,121.91,1692.9124386876,0,10,Assisted_Takeoff,
317000,2025-09-03 13:53:11,48.1487837416538,11.5721676002145,0,,,1692.9124386876,0.328084,0,5.5284450588,2.31084653064,6,2,15.768,1692.9124386876,0,0,7.1372705696,0,0,0,168.7, -0.1, -4.3,0,0,1024,1024,1024,1024,0,0,0,0,50.3,-32.4,-19,68,3.955,3.959,3.958,3.937,0,0,2.138,121.91,1692.9124386876,0,10,Assisted_Takeoff,
317100,2025-09-03 13:53:11,48.1487836363749,11.5721677773117,0,,,1692.9124386876,0.328084,0,5.4832022752,2.3685860338,6,2,15.768,1692.9124386876,0,0,7.1372705696,0,0,0,168.7, -0.1, -4.3,0,0,1024,1024,1024,1024,0,0,0,0,50.2,-32.4,-19.1,68,3.955,3.959,3.958,3.937,0,0,2.138,121.91,1692.9124386876,0,10,Assisted_Takeoff,
317200,2025-09-03 13:53:11,48.1487835329001,11.5721679412633,0,,,1692.9124386876,0.328084,0,5.441437182,2.4235236996,6,2,15.768,1692.9124386876,0,0,7.1372705696,0,0,0,168.7, -0.1, -4.3,0,0,1024,1024,1024,1024,0,0,0,0,50.2,-32.4,-19.1,68,3.955,3.959,3.958,3.937,0,0,2.138,121.91,1692.9124386876,0,10,Assisted_Takeoff,
317300,2025-09-03 13:53:11,48.1487834291865,11.5721681059755,0,,,1692.9124386876,0.328084,0,5.3997377056,2.47865493496,6,2,15.768,1692.9124386876,0,0,7.1372705696,0,0,0,168.7, -0.1, -4.3,0,0,1024,1024,1024,1024,0,0,0,0,50.1,-32.4,-19.2,68,3.955,3.959,3.958,3.937,0,0,2.138,121.91,1692.9124386876,0,10,Assisted_Takeoff,
317400,2025-09-03 13:53:11,48.1487833255135,11.5721682709189,0,,,1692.9124386876,0.328084,0,5.3582022712,2.53381897872,6,2,15.768,1692.9124386876,0,0,7.1372705696,0,0,0,168.7, -0.1, -4.3,0,0,1024,1024,1024,1024,0,0,0,0,50.1,-32.4,-19.2,68,3.955,3.959,3.958,3.937,0,0,2.138,121.91,1692.9124386876,0,10,Assisted_Takeoff,
317500,2025-09-03 13:53:11,48.1487832308665,11.5721684353759,0,,,1692.9124386876,0.328084,0,5.3171261544,2.58668643448,6,2,15.768,1692.9124386876,0,0,7.1372705696,0,0,0,168.7, -0.1, -4.3,0,0,1024,1024,1024,1024,0,0,0,0,50,-32.5,-19.2,68,3.955,3.959,3.958,3.937,0,0,2.138,121.91,1692.9124386876,0,10,Assisted_Takeoff,
317600,2025-09-03 13:53:11,48.1487831276186,11.5721686000432,0,,,1692.9124386876,0.328084,0,5.2761156544,2.64169627876,6,2,15.768,1692.9124386876,0,0,7.1372705696,0,0,0,168.7, -0.1, -4.3,0,0,1024,1024,1024,1024,0,0,0,0,49.9,-32.5,-19.1,68,3.955,3.959,3.958,3.937,0,0,2.138,121.91,1692.9124386876,0,10,Assisted_Takeoff,
317700,2025-09-03 13:53:11,48.1487830246336,11.57216876533,0,,,1692.9124386876,0.328084,0,5.235236388,2.69674549312,6,2,15.768,1692.9124386876,0,0,7.1372705696,0,0,0,168.7, -0.1, -4.3,0,0,1024,1024,1024,1024,0,0,0,0,49.8,-32.5,-19.2,68,3.955,3.959,3.958,3.937,0,0,2.138,121.91,1692.9124386876,0,10,Assisted_Takeoff,
317800,2025-09-03 13:53:11,48.1487829224149,11.5721689314434,0,,,1692.9124386876,0.328084,0,5.1944227384,2.7517553374,6,2,15.768,1692.9124386876,0,0,7.1372705696,0,0,0,168.7, -0.1, -4.3,0,0,1024,1024,1024,1024,0,0,0,0,49.7,-32.5,-19.1,68,3.955,3.959,3.958,3.937,0,0,2.138,121.91,1692.9124386876,0,10,Assisted_Takeoff,
317900,2025-09-03 13:53:11,48.1487828250735,11.5721691182502,0,,,1692.9124386876,0.328084,0,5.1488518708,2.80945547048,6,2,15.768,1692.9124386876,0,0,7.1372705696,0,0,0,168.7, -0.1, -4.3,0,0,1024,1024,1024,1024,0,0,0,0,49.6,-32.5,-19.3,68,3.955,3.959,3.958,3.937,0,0,2.138,121.91,1692.9124386876,0,10,Assisted_Takeoff,
318000,2025-09-03 13:53:12,48.1487827217687,11.5721692926256,0,,,1692.9124386876,0.328084,0,5.1065290348,2.86622056416,6,2,15.777,1692.9124386876,0,0,7.1372705696,0,0,0,168.7, -0.1, -4.3,0,0,1024,1024,1024,1024,0,0,0,0,49.6,-32.5,-19.2,68,3.955,3.96,3.958,3.937,0,0,2.138,121.91,1692.9124386876,0,10,Assisted_Takeoff,
318100,2025-09-03 13:53:12,48.1487826182729,11.5721694687535,0,,,1692.9124386876,0.328084,0,5.0641077736,2.92335311192,6,2,15.777,1692.9124386876,0,0,7.1372705696,0,0,0,168.7, -0.2, -4.3,0,0,1024,1024,1024,1024,0,0,0,0,49.5,-32.5,-19.2,68,3.955,3.96,3.958,3.937,0,0,2.138,121.91,1692.9124386876,0,10,Assisted_Takeoff,
318200,2025-09-03 13:53:12,48.1487825141237,11.5721696450771,0,,,1692.9124386876,0.328084,0,5.0218833628,2.98067922924,6,2,15.777,1692.9124386876,0,0,7.1372705696,0,0,0,168.7, -0.1, -4.3,0,0,1024,1024,1024,1024,0,0,0,0,49.4,-32.6,-19.2,68,3.955,3.96,3.958,3.937,0,0,2.138,121.91,1692.9124386876,0,10,Assisted_Takeoff,
318300,2025-09-03 13:53:12,48.1487824067433,11.5721698014086,0,,,1692.9124386876,0.328084,0,4.984908296,3.03529537272,6,2,15.777,1692.9124386876,0,0,7.1372705696,0,0,0,168.7, -0.1, -4.3,0,0,1024,1024,1024,1024,0,0,0,0,49.3,-32.6,-19.1,68,3.955,3.96,3.958,3.937,0,0,2.138,121.91,1692.9124386876,0,10,Assisted_Takeoff,
318400,2025-09-03 13:53:12,48.1487823019338,11.5721699744824,0,,,1692.9124386876,0.328084,0,4.9441274548,3.0921917,6,2,15.777,1692.9124386876,0,0,7.1372705696,0,0,0,168.7, -0.1, -4.3,0,0,1024,1024,1024,1024,0,0,0,0,49.2,-32.6,-19.1,68,3.955,3.96,3.958,3.937,0,0,2.138,121.91,1692.9124386876,0,10,Assisted_Takeoff,
318500,2025-09-03 13:53:12,48.1487821959701,11.5721701491482,0,,,1692.9124386876,0.328084,0,4.9033138052,3.14965889344,6,2,15.777,1692.9124386876,0,0,7.1372705696,0,0,0,168.7, -0.1, -4.3,0,0,1024,1024,1024,1024,0,0,0,0,49.2,-32.6,-19.1,68,3.955,3.96,3.958,3.937,0,0,2.138,121.91,1692.9124386876,0,10,Assisted_Takeoff,
318600,2025-09-03 13:53:12,48.1487820895363,11.5721703257367,0,,,1692.9124386876,0.328084,0,4.862368922,3.20758868532,6,2,15.777,1692.9124386876,0,0,7.1372705696,0,0,0,168.7, -0.1, -4.4,0,0,1024,1024,1024,1024,0,0,0,0,49.2,-32.6,-19.2,68,3.955,3.96,3.958,3.937,0,0,2.138,121.91,1692.9124386876,0,10,Assisted_Takeoff,
318700,2025-09-03 13:53:12,48.1487819825422,11.5721705039012,0,,,1692.9124386876,0.328084,0,4.8213912304,3.26593842472,6,2,15.777,1692.9124386876,0,0,7.1372705696,0,0,0,168.7, -0.1, -4.3,0,0,1024,1024,1024,1024,0,0,0,0,49,-32.6,-19.2,68,3.955,3.96,3.958,3.937,0,0,2.138,121.91,1692.9124386876,0,10,Assisted_Takeoff,
318800,2025-09-03 13:53:12,48.1487818699752,11.5721706855949,0,,,1692.9124386876,0.328084,0,4.7800854548,3.3263124424,6,2,15.777,1692.9124386876,0,0,7.1372705696,0,0,0,168.7, -0.1, -4.3,0,0,1024,1024,1024,1024,0,0,0,0,49,-32.6,-19.2,68,3.955,3.96,3.958,3.937,0,0,2.138,121.91,1692.9124386876,0,10,Assisted_Takeoff,
318900,2025-09-03 13:53:12,48.1487817618628,11.5721708616217,0,,,1692.9124386876,0.328084,0,4.7404200992,3.3845473524,6,2,15.777,1692.9124386876,0,0,7.1372705696,0,0,0,168.7, -0.1, -4.3,0,0,1024,1024,1024,1024,0,0,0,0,48.9,-32.6,-19.1,68,3.955,3.96,3.958,3.937,0,0,2.138,121.91,1692.9124386876,0,10,Assisted_Takeoff,
319000,2025-09-03 13:53:12,48.1487816534931,11.5721710378827,0,,,1692.9124386876,0.328084,0,4.7010828276,3.4428806876,6,2,15.775,1692.9124386876,0,0,7.1372705696,0,0,0,168.7, -0.1, -4.3,0,0,1024,1024,1024,1024,0,0,0,0,48.8,-32.6,-19,68,3.955,3.96,3.958,3.937,0,0,2.138,121.91,1692.9124386876,0,10,Assisted_Takeoff,
319100,2025-09-03 13:53:13,48.148781545029,11.5721712136848,0,,,1692.9124386876,0.328084,0,4.6622704904,3.5011812144,6,2,15.775,1692.9124386876,0,0,7.1372705696,0,0,0,168.7, -0.1, -4.3,0,0,1024,1024,1024,1024,0,0,0,0,48.8,-32.7,-19.2,68,3.955,3.96,3.958,3.937,0,0,2.138,121.91,1692.9124386876,0,10,Assisted_Takeoff,
319200,2025-09-03 13:53:13,48.1487814423987,11.5721713938202,0,,,1692.9124386876,0.328084,0,4.6226051348,3.5588255732,6,2,15.775,1692.9124386876,0,0,7.1372705696,0,0,0,168.7, -0.1, -4.3,0,0,1024,1024,1024,1024,0,0,0,0,48.6,-32.7,-19.1,68,3.955,3.96,3.958,3.937,0,0,2.138,121.91,1692.9124386876,0,10,Assisted_Takeoff,
319300,2025-09-03 13:53:13,48.1487813350831,11.5721715703236,0,,,1692.9124386876,0.328084,0,4.5843833488,3.616962058,6,2,15.775,1692.9124386876,0,0,7.1372705696,0,0,0,168.7, -0.1, -4.3,0,0,1024,1024,1024,1024,0,0,0,0,48.6,-32.7,-19.1,68,3.955,3.96,3.958,3.937,0,0,2.138,121.91,1692.9124386876,0,10,Assisted_Takeoff,
319400,2025-09-03 13:53:13,48.1487812219302,11.5721717562847,0,,,1692.9124386876,0.328084,0,4.5445867596,3.6782153408,6,2,15.775,1692.9124386876,0,0,7.1372705696,0,0,0,168.7, -0.1, -4.3,0,0,1024,1024,1024,1024,0,0,0,0,48.5,-32.7,-19,68,3.955,3.96,3.958,3.937,0,0,2.138,121.91,1692.9124386876,0,10,Assisted_Takeoff,
319500,2025-09-03 13:53:13,48.1487811196566,11.5721719251183,0,,,1692.9124386876,0.328084,0,4.5088256036,3.7337271536,6,2,15.775,1692.9124386876,0,0,7.1372705696,0,0,0,168.7, -0.1, -4.3,0,0,1024,1024,1024,1024,0,0,0,0,48.4,-32.7,-19.1,68,3.955,3.96,3.958,3.937,0,0,2.138,121.91,1692.9124386876,0,10,Assisted_Takeoff,
319600,2025-09-03 13:53:13,48.1487810095624,11.5721721214133,0,,,1692.9124386876,0.328084,0,4.4672901692,3.7961615388,6,2,15.775,1692.9124386876,0,0,7.1372705696,0,0,0,168.7, -0.1, -4.3,0,0,1024,1024,1068,1024,0,0,7,0,48.3,-32.7,-19,68,3.955,3.96,3.958,3.937,0,0,2.138,121.91,1692.9124386876,0,10,Assisted_Takeoff,
319700,2025-09-03 13:53:13,48.1487809009403,11.5721723053539,0,,,1692.9124386876,0.328084,0,4.429134,3.855971252,6,2,15.775,1692.9124386876,0,0,7.1372705696,0,0,0,168.7, -0.1, -4.3,0,0,1024,1024,1091,1024,0,0,10,0,48.2,-32.7,-19,68,3.955,3.96,3.958,3.937,0,0,2.138,121.91,1692.9124386876,0,10,Assisted_Takeoff,
319800,2025-09-03 13:53:13,48.1487807924513,11.5721724910197,0,,,1692.9124386876,0.328084,0,4.3910434476,3.9160434324,6,2,15.775,1692.9124386876,0,0,7.1372705696,0,0,0,168.7, -0.1, -4.3,0,0,1024,1024,1110,1024,0,0,13,0,48.2,-32.7,-19,68,3.955,3.96,3.958,3.937,0,0,2.138,121.91,1692.9124386876,0,10,Assisted_Takeoff,
319900,2025-09-03 13:53:13,48.1487806838728,11.5721726783931,0,,,1692.9124386876,0.328084,0,4.353018512,3.9764436968,6,2,15.775,1692.9124386876,0,0,7.1372705696,0,0,0,168.7, -0.1, -4.3,0,0,1024,1024,1117,1024,0,0,14,0,48.2,-32.7,-19,68,3.955,3.96,3.958,3.937,0,0,2.138,121.91,1692.9124386876,0,10,Assisted_Takeoff,
320000,2025-09-03 13:53:14,48.1487805735111,11.5721728594785,0,,,1692.9124386876,0.328084,0,4.3171589308,4.0361549848,6,2,15.753,1692.9124386876,0,0,7.1372705696,0,0,0,168.7, -0.1, -4.3,0,0,1024,1024,1161,1024,0,0,21,0,48.1,-32.8,-19.1,68,3.956,3.959,3.958,3.937,0,0,2.136,121.91,1692.9124386876,0,10,Assisted_Takeoff,
320100,2025-09-03 13:53:14,48.1487804640508,11.5721730464892,0,,,1692.9124386876,0.328084,0,4.280347906,4.0967192912,6,2,15.753,1692.9124386876,0,0,7.1372705696,0,0,0,168.7, -0.1, -4.3,0,0,1024,1024,1168,1024,0,0,22,0,48.2,-32.7,-19,68,3.956,3.959,3.958,3.937,0,0,2.136,121.91,1692.9124386876,0,10,Assisted_Takeoff,
320200,2025-09-03 13:53:14,48.1487803541047,11.5721732344147,0,,,1692.9124386876,0.328084,0,4.2438977736,4.1575460648,6,2,15.753,1692.9124386876,0,0,7.1372705696,0,0,0,168.7, -0.1, -4.3,0,0,1024,1024,1166,1024,0,0,22,0,48,-32.7,-19,68,3.956,3.959,3.958,3.937,0,0,2.136,121.91,1692.9124386876,0,10,Assisted_Takeoff,
320300,2025-09-03 13:53:14,48.1487802443566,11.5721734226579,0,,,1692.9124386876,0.328084,0,4.2079069588,4.2184056468,6,2,15.753,1692.9124386876,0,0,7.1372705696,0,0,0,168.7, -0.1, -4.3,0,0,1024,1024,1166,1024,0,0,22,0,48.1,-32.7,-19,68,3.956,3.959,3.958,3.937,0,0,2.136,121.91,1692.9124386876,0,10,Assisted_Takeoff,
320400,2025-09-03 13:53:14,48.1487801344077,11.5721736122862,0,,,1692.9124386876,0.328084,0,4.1722114196,4.2795605044,6,2,15.753,1692.9124386876,0,0,7.1372705696,0,0,0,168.7, -0.1, -4.3,0,0,1024,1024,1165,1024,0,0,21,0,47.9,-32.7,-19,68,3.956,3.959,3.958,3.937,0,0,2.136,121.91,1692.9124386876,0,10,Assisted_Takeoff,
320500,2025-09-03 13:53:14,48.1487800183721,11.5721738168224,-0.328084,,,1692.5843546876,0.328084,0,4.1341208672,4.3449148372,6,2,15.753,1692.9124386876,0,0,7.1372705696,0,0,0,168.7, -0.1, -4.3,0,0,1024,1024,1162,1024,0,0,21,0,47.8,-32.7,-18.9,68,3.956,3.959,3.958,3.937,0,0,2.136,121.91,1692.5843546876,-0.328084,10,Assisted_Takeoff,
320600,2025-09-03 13:53:14,48.1487799057147,11.5721740118768,-0.328084,,,1692.5843546876,0.328084,0,4.0986221784,4.4077101148,6,2,15.753,1692.9124386876,0,0,7.1372705696,0,0,0,168.7, 0, -4.4,0,0,1024,1024,1164,1024,0,0,21,0,47.8,-32.6,-18.8,68,3.956,3.959,3.958,3.937,0,0,2.136,121.91,1692.5843546876,-0.328084,10,Assisted_Takeoff,
320700,2025-09-03 13:53:14,48.1487797946878,11.5721742073485,0,,,1692.9124386876,0.656168,0,4.0635499988,4.4702101168,6,2,15.753,1692.9124386876,0,0,7.1372705696,0,0,0,168.7, 0, -4.5,0,0,1024,1024,1167,1024,0,0,22,0,47.7,-32.5,-19.1,68,3.956,3.959,3.958,3.937,0,0,2.136,121.91,1692.9124386876,0,10,Assisted_Takeoff,
320800,2025-09-03 13:53:14,48.1487796843721,11.5721744118189,0,,,1692.9124386876,0.656168,0,4.0269358244,4.5342193052,6,2,15.753,1692.9124386876,0,0,7.1372705696,0,0,0,168.7, 0, -4.8,0,0,1024,1024,1168,1024,0,0,22,0,47.9,-32.8,-19.9,68,3.956,3.959,3.958,3.937,0,0,2.136,121.91,1692.9124386876,0,10,Assisted_Takeoff,
320900,2025-09-03 13:53:14,48.1487795824063,11.5721746353635,0,,,1692.9124386876,0.656168,0,3.9856956656,4.6001313808,6,2,15.753,1692.9124386876,0,0,7.1372705696,0,0,0,168.7, -0.3, -6.1,0,0,1024,1024,1171,1024,0,0,22,0,46.6,-33.5,-22.2,68,3.956,3.959,3.958,3.937,0,0,2.136,121.91,1692.9124386876,0,10,Assisted_Takeoff,
321000,2025-09-03 13:53:15,48.1487794639911,11.5721749326162,0,,,1692.9124386876,0.328084,0.223694,3.929954194,4.6844161604,6,2,15.654,1692.9124386876,0,0.223694,7.1372705696,0,0.223694,0,168.6, -0.6, -8.8,0,0,1024,1024,1174,1024,0,0,23,0,43.9,-34.3,-24.7,68,3.93,3.959,3.958,3.937,0,0,3.286,121.91,1692.9124386876,0,10,Assisted_Takeoff,
321100,2025-09-03 13:53:15,48.1487793597666,11.5721753419582,0,,,1692.9124386876,0.328084,0.447388,3.8477363436,4.7910762688,6,2,15.654,1692.9124386876,0,0.447388,7.1372705696,0,0.447388,0,168.3, 0, -11.8,0,0,1024,1024,1169,1024,0,0,22,0,43.9,-34.3,-24.7,68,3.93,3.959,3.958,3.937,0,0,3.286,121.91,1692.9124386876,0,10,Assisted_Takeoff,
321200,2025-09-03 13:53:15,48.1487792861618,11.5721759186477,0,,,1692.9124386876,0.656168,0.671082,3.7246720352,4.9339896592,6,2,15.654,1692.9124386876,0,0.671082,7.1372705696,0,0.671082,-0.223694,167.7, 1.6, -11.7,0,0,1024,1024,1168,1024,0,0,22,0,44.3,-32.2,-26,68,3.93,3.959,3.958,3.937,0,0,3.286,121.91,1692.9124386876,0,6,P-GPS,
321300,2025-09-03 13:53:15,48.1487792591622,11.5721767202138,0,,,1692.9124386876,0.656168,1.11847,3.545931872,5.1293636812,6,2,15.654,1692.9124386876,0,1.11847,7.1372705696,0,1.11847,-0.447388,167.9, 1.8, -4.5,0,0,1024,1024,1172,1024,0,0,22,0,48.7,-30.5,-17.7,68,3.93,3.959,3.958,3.937,0,0,3.286,121.91,1692.9124386876,0,6,P-GPS,
321400,2025-09-03 13:53:15,48.1487792553989,11.5721776340393,0,,,1692.9124386876,0.656168,1.11847,3.340551288,5.3518374416,6,2,15.654,1692.9124386876,0,1.11847,7.1372705696,0,1.11847,-0.671082,167.7, 0.2, 3.6,0,0,1024,1024,1166,1024,0,0,22,0,50.5,-31.7,-9.8,68,3.93,3.959,3.958,3.937,0,0,3.286,121.91,1692.9124386876,0,6,P-GPS,
321500,2025-09-03 13:53:15,48.1487792454515,11.5721785438261,0,,,1692.9124386876,0.656168,1.11847,3.1393209666,5.57332695,6,2,15.654,1692.9124386876,0,1.11847,7.1372705696,0,1.11847,-0.671082,167.7, -0.1, 7,0,0,1024,1024,1167,1024,0,0,22,0,49.8,-31.5,-7.4,68,3.93,3.959,3.958,3.937,0,0,3.286,121.91,1692.9124386876,0,6,P-GPS,
321600,2025-09-03 13:53:15,48.1487792115359,11.5721793590555,0,,,1692.9124386876,0.984252,0.894776,2.96552174844,5.772145854,4,2,15.654,1692.9124386876,0,1.11847,7.1372705696,0,0.894776,-0.671082,167.9, 1.2, 6.8,0,0,1024,1024,1168,1024,0,0,22,0,50.4,-29.7,-9.4,68,3.93,3.959,3.958,3.937,0,0,3.286,121.91,1692.9124386876,0,6,P-GPS,
321700,2025-09-03 13:53:15,48.1487791130867,11.5721800478431,0,,,1692.9124386876,0.984252,0.671082,2.83334654736,5.9436353608,4,2,15.654,1692.9124386876,0,1.11847,7.1372705696,0,0.671082,-0.671082,167.9, 1.2, 5.4,0,0,1024,1024,1170,1024,0,0,22,0,51.7,-30.6,-10.7,68,3.93,3.959,3.958,3.937,0,0,3.286,121.91,1692.9124386876,0,6,P-GPS,
321800,2025-09-03 13:53:15,48.1487790366084,11.5721806437359,0,,,1692.9124386876,1.312336,0.447388,2.72091872224,6.0913387776,7,2,15.654,1692.9124386876,0,1.11847,7.1372705696,0,0.447388,-0.671082,167.9, 0.4, 4.6,0,0,1024,1024,1171,1024,0,0,22,0,50,-31.2,-10.5,68,3.93,3.959,3.958,3.937,0,0,3.286,121.91,1692.9124386876,0,6,P-GPS,
321900,2025-09-03 13:53:15,48.1487789496064,11.5721811545484,0,,,1692.9124386876,1.312336,0.447388,2.63152567476,6.2196852384,7,2,15.654,1692.9124386876,0,1.11847,7.1372705696,0,0.447388,-0.671082,167.8, 1, 4.9,0,0,1024,1024,1172,1024,0,0,22,0,49.3,-30.3,-10.4,68,3.93,3.959,3.958,3.937,0,0,3.286,121.91,1692.9124386876,0,6,P-GPS,
322000,2025-09-03 13:53:16,48.1487788552372,11.5721815873483,0,,,1692.9124386876,1.64042,0.447388,2.56263459644,6.3305120136,6,2,15.505,1692.9124386876,0,1.11847,7.1372705696,0,0.447388,-0.671082,167.7, 2.1, 3.2,0,0,1024,1024,1173,1024,0,0,23,0,50,-29.7,-13,68,3.812,3.829,3.826,3.785,0,0,17.986,121.91,1692.9124386876,0,6,P-GPS,
322100,2025-09-03 13:53:16,48.1487787678435,11.5721819912465,0.328084,,,1693.2405226876,1.64042,0.447388,2.5009187152,6.433891282,6,0,15.505,1693.2405226876,0.328084,1.11847,7.1372705696,0,0.447388,-0.894776,168.1, 2, 1.7,0,0,1024,1024,1172,1024,0,0,22,0,50.2,-30.2,-12.2,68,3.812,3.829,3.826,3.785,0,0,17.986,121.91,1693.2405226876,0.328084,6,P-GPS,
322200,2025-09-03 13:53:16,48.14877869997,11.5721823824146,0.328084,,,1693.2405226876,1.968504,0.447388,2.44005257152,6.5322508652,6,0,15.505,1693.2405226876,0.328084,1.11847,7.1372705696,0,0.447388,-0.894776,168.5, 1, 3.1,0,0,1024,1024,1171,1024,0,0,22,0,49.1,-31.9,-10.2,68,3.812,3.829,3.826,3.785,0,0,17.986,121.91,1693.2405226876,0.328084,6,P-GPS,
322300,2025-09-03 13:53:16,48.1487786430567,11.5721827626574,0.656168,,,1693.5686066876,1.968504,0.447388,2.38116477436,6.627132758,6,0,15.505,1693.5686066876,0.656168,1.11847,7.1372705696,0,0.447388,-0.894776,168.5, 0.3, 4.7,0,0,1024,1024,1173,1024,0,0,23,0,49.9,-31.7,-10.6,68,3.812,3.829,3.826,3.785,0,0,17.986,121.91,1693.5686066876,0.656168,6,P-GPS,
322400,2025-09-03 13:53:16,48.1487785788927,11.5721830920025,0.656168,,,1693.5686066876,2.296588,0.223694,2.33567592776,6.710630136,7,0,15.505,1693.5686066876,0.656168,1.11847,7.1372705696,0,0.223694,-0.894776,168.4, 0.1, 4.8,0,0,1024,1024,1175,1024,0,0,23,0,49.9,-31.7,-10.6,68,3.812,3.829,3.826,3.785,0,0,17.986,121.91,1693.5686066876,0.656168,6,P-GPS,
322500,2025-09-03 13:53:16,48.1487785006664,11.5721833567127,0.984252,,,1693.8966906876,2.296588,0,2.30730322344,6.7811353876,7,0,15.505,1693.8966906876,0.984252,1.11847,7.1372705696,0,0,-1.11847,168.2, 0.4, 3.4,0,0,1024,1024,1176,1024,0,0,23,0,50.2,-31.2,-12.4,68,3.812,3.829,3.826,3.785,0,0,17.986,121.91,1693.8966906876,0.984252,6,P-GPS,
322600,2025-09-03 13:53:16,48.1487784150916,11.5721835655957,1.312336,,,1694.2247746876,2.624672,0,2.29230322296,6.8407810588,7,0,15.505,1694.2247746876,1.312336,1.11847,7.1372705696,0,0,-1.11847,168.1, 0.2, 1.9,0,0,1024,1024,1179,1024,0,0,23,0,48,-32.2,-13.2,68,3.812,3.829,3.826,3.785,0,0,17.986,121.91,1694.2247746876,1.312336,6,P-GPS,
322700,2025-09-03 13:53:16,48.1487783247325,11.5721837857066,1.64042,,,1694.5528586876,2.952756,0,2.27812671332,6.90370757,7,0,15.505,1694.5528586876,1.64042,1.11847,7.1372705696,0,0,-1.11847,168.1, -0.1, 1.5,0,0,1024,1024,1181,1024,0,0,24,0,47.2,-32.8,-12.9,68,3.812,3.829,3.826,3.785,0,0,17.986,121.91,1694.5528586876,1.64042,6,P-GPS,
322800,2025-09-03 13:53:16,48.1487782296982,11.5721840205096,1.64042,,,1694.5528586876,2.952756,0,2.2644685764,6.9705382808,6,0,15.505,1694.5528586876,1.64042,1.11847,7.1372705696,0,0,-1.11847,168.2, -0.3, 2.1,0,0,1024,1024,1181,1024,0,0,24,0,48.9,-32.3,-12.7,68,3.812,3.829,3.826,3.785,0,0,17.986,121.91,1694.5528586876,1.64042,6,P-GPS,
322900,2025-09-03 13:53:16,48.1487781254729,11.572184263808,1.968504,,,1694.8809426876,3.28084,0,2.2539206758,7.0409451072,6,0,15.505,1694.8809426876,1.968504,1.11847,7.1372705696,0,0,-1.11847,168.2, -0.6, 2.6,0,0,1024,1024,1177,1024,0,0,23,0,48.7,-32.8,-12.6,68,3.812,3.829,3.826,3.785,0,0,17.986,121.91,1694.8809426876,1.968504,6,P-GPS,
323000,2025-09-03 13:53:16,48.1487780065012,11.5721845097971,2.296588,,,1695.2090266876,3.608924,0,2.24932421896,7.1148952408,7,0,15.09,1695.2090266876,2.296588,1.11847,7.1372705696,0,0,-1.11847,168.2, -0.7, 2.6,0,0,1024,1024,1175,1024,0,0,23,0,47.7,-33.2,-12.5,68,3.812,3.829,3.826,3.785,0,0,17.986,121.91,1695.2090266876,2.296588,6,P-GPS,
323100,2025-09-03 13:53:17,48.1487778672358,11.5721847444966,2.296588,,,1695.2090266876,3.608924,0,2.25473432412,7.1913388128,7,0,15.09,1695.2090266876,2.296588,1.11847,7.1372705696,0,0,-1.11847,168.1, -0.8, 2.1,0,0,1024,1024,1179,1024,0,0,23,0,47.8,-32.8,-12.9,68,3.812,3.829,3.826,3.785,0,0,17.986,121.91,1695.2090266876,2.296588,6,P-GPS,
323200,2025-09-03 13:53:17,48.1487777100788,11.5721849837792,2.624672,,,1695.5371106876,3.937008,0,2.2674541408,7.2730973456,9,0,15.09,1695.5371106876,2.624672,1.11847,7.1372705696,0,0,-1.11847,168.1, -0.5, 2,0,0,1024,1024,1181,1024,0,0,24,0,48.2,-32.8,-12.6,68,3.812,3.829,3.826,3.785,0,0,17.986,121.91,1695.5371106876,2.624672,6,P-GPS,
323300,2025-09-03 13:53:17,48.148777538532,11.572185231928,2.624672,,,1695.5371106876,4.265092,0,2.28629928576,7.360072414,9,0,15.09,1695.5371106876,2.624672,1.11847,7.1372705696,0,0,-1.11847,168.1, -0.3, 2.2,0,0,1024,1024,1181,1024,0,0,24,0,46.9,-33,-12.2,68,3.812,3.829,3.826,3.785,0,0,17.986,121.91,1695.5371106876,2.624672,6,P-GPS,
323400,2025-09-03 13:53:17,48.1487773604266,11.5721854863781,2.952756,,,1695.8651946876,4.265092,0.3131716,2.30956044136,7.4498361964,9,0,15.09,1695.8651946876,2.952756,1.11847,7.1372705696,-0.223694,0.223694,-1.11847,168.1, 0, 2.2,0,0,1024,1024,1183,1024,0,0,24,0,46.3,-31.8,-11.4,68,3.812,3.829,3.826,3.785,0,0,17.986,121.91,1695.8651946876,2.952756,6,P-GPS,
323500,2025-09-03 13:53:17,48.1487771786182,11.5721857471102,3.28084,,,1696.1932786876,4.593176,0.3131716,2.3365158228,7.5416340996,9,0,15.09,1696.1932786876,3.28084,1.11847,7.1372705696,-0.223694,0.223694,-1.11847,168.1, 1.1, 2.5,0,0,1024,1024,1185,1024,0,0,24,0,46.2,-31.6,-10.9,68,3.812,3.829,3.826,3.785,0,0,17.986,121.91,1696.1932786876,3.28084,6,P-GPS,
323600,2025-09-03 13:53:17,48.1487770027544,11.572186004027,3.28084,,,1696.1932786876,4.593176,0.223694,2.36518380272,7.63123384,9,0,15.09,1696.1932786876,3.28084,1.11847,7.1372705696,-0.223694,0,-1.342164,168.1, 1.3, 2.8,0,0,1024,1024,1187,1024,0,0,25,0,47.7,-31.2,-11.8,68,3.812,3.829,3.826,3.785,0,0,17.986,121.91,1696.1932786876,3.28084,6,P-GPS,
323700,2025-09-03 13:53:17,48.148776838678,11.572186246755,3.608924,,,1696.5213626876,4.92126,0.223694,2.39434390864,7.7153545776,9,0,15.09,1696.5213626876,3.608924,1.11847,7.1372705696,-0.223694,0,-1.342164,168.1, 1.3, 3,0,0,1024,1024,1188,1024,0,0,25,0,47.7,-31.2,-11.8,68,3.812,3.829,3.826,3.785,0,0,17.986,121.91,1696.5213626876,3.608924,6,P-GPS,
323800,2025-09-03 13:53:17,48.1487766876545,11.5721864662243,3.937008,,,1696.8494466876,5.249344,0.223694,2.42382553688,7.7920934252,9,0,15.09,1696.8494466876,3.937008,1.11847,7.1372705696,-0.223694,0,-1.342164,168.1, 1.2, 2.7,0,0,1024,1024,1185,1024,0,0,24,0,47.3,-31.5,-12,68,3.812,3.829,3.826,3.785,0,0,17.986,121.91,1696.8494466876,3.937008,6,P-GPS,
323900,2025-09-03 13:53:17,48.1487765907865,11.5721865482667,3.937008,,,1696.8494466876,5.249344,0,2.449065039,7.8327102244,9,0,15.09,1696.8494466876,3.937008,1.11847,7.1372705696,0,0,-1.342164,168.2, 1.2, 1.6,0,0,1024,1024,1189,1024,0,0,25,0,46,-31.8,-12.5,68,3.812,3.829,3.826,3.785,0,0,17.986,121.91,1696.8494466876,3.937008,6,P-GPS,
324000,2025-09-03 13:53:18,48.1487764736127,11.5721867360489,4.265092,,,1697.1775306876,5.577428,0.223694,2.47256241508,7.8952758432,9,0,15.051,1697.1775306876,4.265092,1.11847,7.1372705696,0,0.223694,-1.342164,168.3, 0.9, 2,0,0,1024,1024,1191,1024,0,0,25,0,46.1,-32.1,-11.8,68,3.812,3.829,3.826,3.785,0,0,17.986,121.91,1697.1775306876,4.265092,6,P-GPS,
324100,2025-09-03 13:53:18,48.1487763675668,11.5721869224309,4.593176,,,1697.5056146876,5.905512,0.223694,2.49368118216,7.9549215144,9,0,15.051,1697.5056146876,4.593176,1.11847,7.1372705696,0,0.223694,-1.342164,168.4, 0.6, 2.9,0,0,1024,1024,1189,1024,0,0,25,0,46.9,-32.2,-11.4,68,3.812,3.829,3.826,3.785,0,0,17.986,121.91,1697.5056146876,4.593176,6,P-GPS,
324200,2025-09-03 13:53:18,48.1487762683465,11.57218709711,4.593176,,,1697.5056146876,5.905512,0,2.51453748204,8.0107614112,8,0,15.051,1697.5056146876,4.593176,1.11847,7.1372705696,0,0,-1.342164,168.3, 0.3, 3.1,0,0,1024,1024,1182,1024,0,0,24,0,47.4,-32.2,-11.3,68,3.812,3.829,3.826,3.785,0,0,17.986,121.91,1697.5056146876,4.593176,6,P-GPS,
324300,2025-09-03 13:53:18,48.1487762280262,11.5721874333988,4.92126,,,1697.8336986876,6.233596,0,2.50475401716,8.0939307052,8,0,15.051,1697.8336986876,4.92126,1.11847,7.1372705696,0,0,-1.342164,168.4, 0.2, 3.4,0,0,1024,1024,1181,1024,0,0,24,0,47.1,-32.2,-11.5,68,3.812,3.829,3.826,3.785,0,0,17.986,121.91,1697.8336986876,4.92126,6,P-GPS,
324400,2025-09-03 13:53:18,48.1487761352252,11.5721875731008,4.92126,,,1697.8336986876,6.233596,0,2.52827435912,8.1419293944,8,2,15.051,1697.8336986876,4.92126,1.11847,7.1372705696,0,0,-1.342164,168.4, 0.1, 3.7,0,0,1024,1024,1179,1024,0,0,23,0,47.2,-32.5,-11.7,68,3.812,3.829,3.826,3.785,0,0,17.986,121.91,1697.8336986876,4.92126,6,P-GPS,
324500,2025-09-03 13:53:18,48.1487760362281,11.5721876725571,5.249344,,,1698.1617826876,6.56168,0,2.55708013432,8.1854005244,8,2,15.051,1698.1617826876,5.249344,1.11847,7.1372705696,0,0,-1.342164,168.4, -0.2, 3.5,0,0,1024,1024,1174,1024,0,0,23,0,46.7,-33,-12.2,68,3.812,3.829,3.826,3.785,0,0,17.986,121.91,1698.1617826876,5.249344,6,P-GPS,
324600,2025-09-03 13:53:18,48.1487759235666,11.5721877294661,5.577428,,,1698.4898666876,6.56168,0,2.59358932184,8.2287732292,8,2,15.051,1698.4898666876,5.577428,1.11847,7.1372705696,0,0,-1.11847,168.3, -0.3, 2.8,0,0,1024,1024,1175,1024,0,0,23,0,46.1,-32.7,-12.7,68,3.812,3.829,3.826,3.785,0,0,17.986,121.91,1698.4898666876,5.577428,6,P-GPS,
324700,2025-09-03 13:53:18,48.1487757927252,11.5721877512378,5.577428,,,1698.4898666876,6.889764,0,2.63873696108,8.2768047268,8,2,15.051,1698.4898666876,5.577428,1.11847,7.1372705696,0,0,-1.11847,168.3, 0, 2,0,0,1024,1024,1181,1024,0,0,24,0,46,-32.2,-13.7,68,3.812,3.829,3.826,3.785,0,0,17.986,121.91,1698.4898666876,5.577428,6,P-GPS,
324800,2025-09-03 13:53:18,48.1487756609898,11.572187755429,5.905512,,,1698.8179506876,7.217848,0,2.68527567648,8.3249018412,8,2,15.051,1698.8179506876,5.905512,1.11847,7.1372705696,0,0,-1.11847,168.3, 0.6, 1.1,0,0,1024,1024,1184,1024,0,0,24,0,46,-31.9,-14.4,68,3.812,3.829,3.826,3.785,0,0,17.986,121.91,1698.8179506876,5.905512,6,P-GPS,
324900,2025-09-03 13:53:18,48.1487755333304,11.5721877605572,5.905512,,,1698.8179506876,7.217848,0,2.73036754144,8.3714897692,8,2,15.051,1698.8179506876,5.905512,1.11847,7.1372705696,0,0,-1.11847,168.2, 0.7, 0.5,0,0,1024,1024,1187,1024,0,0,25,0,45.4,-32.6,-14,68,3.812,3.829,3.826,3.785,0,0,17.986,121.91,1698.8179506876,5.905512,6,P-GPS,
325000,2025-09-03 13:53:19,48.1487754114307,11.572187780756,6.233596,,,1699.1460346876,7.545932,0,2.7726542882,8.4162404268,8,2,15.044,1699.1460346876,6.233596,1.11847,7.1372705696,0,0,-1.11847,168.3, 0.2, 0.6,0,0,1024,1024,1188,1024,0,0,25,0,45.4,-32.6,-14,68,3.79,3.806,3.805,3.761,0,0,19.126,121.91,1699.1460346876,6.233596,6,P-GPS,
325100,2025-09-03 13:53:19,48.1487752868841,11.572187841765,6.233596,,,1699.1460346876,7.545932,0,2.81385835776,8.4640422656,8,2,15.044,1699.1460346876,6.233596,1.11847,7.1372705696,0,0,-1.11847,168.2, 0, 1.1,0,0,1024,1024,1188,1024,0,0,25,0,45.5,-32.9,-13.4,68,3.79,3.806,3.805,3.761,0,0,19.126,121.91,1699.1460346876,6.233596,6,P-GPS,
325200,2025-09-03 13:53:19,48.1487751696166,11.572187898836,6.56168,,,1699.4741186876,7.874016,0,2.85286098368,8.509022582,7,2,15.044,1699.4741186876,6.56168,1.11847,7.1372705696,0,0,-1.11847,168, 0.3, 1.5,0,0,1024,1024,1189,1024,0,0,25,0,46.3,-32.2,-13.1,68,3.79,3.806,3.805,3.761,0,0,19.126,121.91,1699.4741186876,6.56168,6,P-GPS,
325300,2025-09-03 13:53:19,48.1487750535932,11.5721879592622,6.889764,,,1699.8022026876,7.874016,0,2.89143053872,8.5538388564,7,2,15.044,1699.8022026876,6.889764,1.11847,7.1372705696,0,0,-1.11847,167.9, 0.3, 1.2,0,0,1024,1024,1191,1024,0,0,25,0,45.4,-32.8,-13.1,68,3.79,3.806,3.805,3.761,0,0,19.126,121.91,1699.8022026876,6.889764,6,P-GPS,
325400,2025-09-03 13:53:19,48.1487749389866,11.5721880263866,6.889764,,,1699.8022026876,8.2021,0,2.92937017248,8.5987207476,9,2,15.044,1699.8022026876,6.889764,1.11847,7.1372705696,0,0,-1.11847,167.8, 0, 1.4,0,0,1024,1024,1199,1024,0,0,27,0,44.4,-33.5,-12.5,68,3.79,3.806,3.805,3.761,0,0,19.126,121.91,1699.8022026876,6.889764,6,P-GPS,
325500,2025-09-03 13:53:19,48.1487748193155,11.5721880979629,7.217848,,,1700.1302866876,8.2021,0,2.96912411076,8.6457351848,9,2,15.044,1700.1302866876,7.217848,1.11847,7.1372705696,0,0,-1.342164,167.8, -0.3, 1.9,0,0,1024,1024,1211,1024,0,0,28,0,45.9,-32.8,-12.9,68,3.79,3.806,3.805,3.761,0,0,19.126,121.91,1700.1302866876,7.217848,6,P-GPS,
325600,2025-09-03 13:53:19,48.1487746978018,11.5721881432635,7.217848,,,1700.1302866876,8.530184,0,3.01084655304,8.6914044776,7,2,15.044,1700.1302866876,7.217848,1.11847,7.1372705696,0,0,-1.342164,167.8, 0, 1.9,0,0,1024,1024,1209,1024,0,0,28,0,46.4,-32.3,-13.3,68,3.79,3.806,3.805,3.761,0,0,19.126,121.91,1700.1302866876,7.217848,6,P-GPS,
325700,2025-09-03 13:53:19,48.1487745587701,11.5721881947135,7.545932,,,1700.4583706876,8.530184,0,3.05873369368,8.7436682588,7,2,15.044,1700.4583706876,7.545932,1.11847,7.1372705696,0,0,-1.342164,167.9, 0.3, 1.4,0,0,1024,1024,1206,1024,0,0,28,0,45,-32.5,-13.3,68,3.79,3.806,3.805,3.761,0,0,19.126,121.91,1700.4583706876,7.545932,6,P-GPS,
325800,2025-09-03 13:53:19,48.1487744172926,11.572188244886,7.874016,,,1700.7864546876,8.858268,0,3.10769694984,8.7967194416,7,2,15.044,1700.7864546876,7.874016,1.11847,7.1372705696,0,0,-1.342164,167.9, 0.5, 0.7,0,0,1024,1024,1207,1024,0,0,28,0,44.8,-32.3,-14.5,68,3.79,3.806,3.805,3.761,0,0,19.126,121.91,1700.7864546876,7.874016,6,P-GPS,
325900,2025-09-03 13:53:19,48.1487742804283,11.5721883068587,7.874016,,,1700.7864546876,8.858268,0,3.15468842116,8.8488847976,7,2,15.044,1700.7864546876,7.874016,1.11847,7.1372705696,0,0,-1.565858,168, 0.5, 0.6,0,0,1024,1024,1201,1024,0,0,27,0,45.5,-32.3,-14.4,68,3.79,3.806,3.805,3.761,0,0,19.126,121.91,1700.7864546876,7.874016,6,P-GPS,
326000,2025-09-03 13:53:19,48.1487741769839,11.5721883674352,8.2021,,,1701.1145386876,9.186352,0,3.18982621756,8.8894031716,8,2,15.049,1701.1145386876,8.2021,1.11847,7.1372705696,0,0,-1.565858,168, 0.2, 0.9,0,0,1024,1024,1200,1024,0,0,27,0,44.8,-32.6,-13.8,68,3.789,3.806,3.804,3.76,0,0,18.308,121.91,1701.1145386876,8.2021,6,P-GPS,
326100,2025-09-03 13:53:20,48.148774051246,11.572188456877,8.530184,,,1701.4426226876,9.514436,0,3.23217530028,8.9401905748,8,2,15.049,1701.4426226876,8.530184,1.11847,7.1372705696,0,0,-1.565858,168.1, 0.2, 1.2,0,0,1024,1024,1200,1024,0,0,27,0,44.2,-32.7,-13.6,68,3.789,3.806,3.804,3.76,0,0,18.308,121.91,1701.4426226876,8.530184,6,P-GPS,
326200,2025-09-03 13:53:20,48.1487739231559,11.572188548981,8.530184,,,1701.4426226876,9.84252,0,3.27553488172,8.9919950384,7,2,15.049,1701.4426226876,8.530184,1.11847,7.1372705696,0,0,-1.565858,168.2, 0.3, 1.3,0,0,1024,1024,1201,1024,0,0,27,0,45.4,-31.9,-13.7,68,3.789,3.806,3.804,3.76,0,0,18.308,121.91,1701.4426226876,8.530184,6,P-GPS,
326300,2025-09-03 13:53:20,48.1487737934682,11.572188637386,8.858268,,,1701.7707066876,9.84252,0,3.3198163792,9.0439963524,7,2,15.049,1701.7707066876,8.858268,1.11847,7.1372705696,0,0,-1.565858,168.3, 0.5, 1.4,0,0,1024,1024,1202,1024,0,0,27,0,45.4,-31.9,-13.7,68,3.789,3.806,3.804,3.76,0,0,18.308,121.91,1701.7707066876,8.858268,6,P-GPS,
326400,2025-09-03 13:53:20,48.1487736234522,11.5721887006695,9.186352,,,1702.0987906876,10.170604,0.223694,3.3796589008,9.1079071156,7,2,15.049,1702.0987906876,9.186352,1.11847,7.1372705696,-0.223694,0,-1.565858,168.4, 0.6, 1.1,0,0,1024,1024,1204,1024,0,0,27,0,45.1,-32,-14.1,68,3.789,3.806,3.804,3.76,0,0,18.308,121.91,1702.0987906876,9.186352,6,P-GPS,
326500,2025-09-03 13:53:20,48.1487734851085,11.5721887641153,9.514436,,,1702.4268746876,10.498688,0,3.4281169076,9.1606958312,7,2,15.049,1702.4268746876,9.514436,1.11847,7.1372705696,0,0,-1.565858,168.5, 1, 0.5,0,0,1024,1024,1202,1024,0,0,27,0,44.3,-31.9,-14.5,68,3.789,3.806,3.804,3.76,0,0,18.308,121.91,1702.4268746876,9.514436,6,P-GPS,
326600,2025-09-03 13:53:20,48.1487733569378,11.5721888314075,9.514436,,,1702.4268746876,10.826772,0,3.472933182,9.2102365152,8,2,15.049,1702.4268746876,9.514436,1.11847,7.1372705696,0,0,-1.565858,168.5, 1, 0.1,0,0,1024,1024,1199,1024,0,0,27,0,44.7,-31.9,-15,68,3.789,3.806,3.804,3.76,0,0,18.308,121.91,1702.4268746876,9.514436,6,P-GPS,
326700,2025-09-03 13:53:20,48.1487732402671,11.5721889149681,9.84252,,,1702.7549586876,10.826772,0,3.5133203224,9.2574149944,8,2,15.049,1702.7549586876,9.84252,1.11847,7.1372705696,0,0,-1.565858,168.5, 1, 0,0,0,1024,1024,1202,1024,0,0,27,0,44.6,-32,-14.5,68,3.789,3.806,3.804,3.76,0,0,18.308,121.91,1702.7549586876,9.84252,6,P-GPS,
326800,2025-09-03 13:53:20,48.1487731746408,11.5721889933525,10.170604,,,1703.0830426876,11.154856,0,3.535433184,9.2880252316,7,2,15.049,1703.0830426876,10.170604,1.11847,7.1372705696,0,0,-1.565858,168.5, 1, 0.2,0,0,1024,1024,1202,1024,0,0,27,0,44,-31.9,-14.3,68,3.789,3.806,3.804,3.76,0,0,18.308,121.91,1703.0830426876,10.170604,6,P-GPS,
326900,2025-09-03 13:53:20,48.1487730900789,11.5721891111591,10.498688,,,1703.4111266876,11.154856,0,3.5637796416,9.3301512172,7,2,15.049,1703.4111266876,10.498688,1.11847,7.1372705696,0,0,-1.565858,168.4, 0.9, 0.5,0,0,1024,1024,1206,1024,0,0,28,0,44.4,-32.1,-13.7,68,3.789,3.806,3.804,3.76,0,0,18.308,121.91,1703.4111266876,10.498688,6,P-GPS,
327000,2025-09-03 13:53:21,48.1487730138303,11.5721892379411,10.498688,,,1703.4111266876,11.48294,0,3.5892061516,9.3716866516,8,2,15.001,1703.4111266876,10.498688,1.11847,7.1372705696,0,0,-1.565858,168.4, 0.4, 0.9,0,0,1024,1024,1208,1024,0,0,28,0,44.7,-32.4,-13.5,68,3.775,3.793,3.791,3.744,0,0,18.822,121.91,1703.4111266876,10.498688,6,P-GPS,
327100,2025-09-03 13:53:21,48.1487729405169,11.5721893667039,10.826772,,,1703.7392106876,11.48294,0,3.61384526,9.412894002,8,2,15.001,1703.7392106876,10.826772,1.11847,7.1372705696,0,0,-1.565858,168.4, 0.3, 1.1,0,0,1024,1024,1211,1024,0,0,28,0,44.6,-32.5,-13.2,68,3.775,3.793,3.791,3.744,0,0,18.822,121.91,1703.7392106876,10.826772,6,P-GPS,
327200,2025-09-03 13:53:21,48.1487728658023,11.5721894892558,11.154856,,,1704.0672946876,11.811024,0,3.6393701952,9.4533139508,9,2,15.001,1704.0672946876,11.154856,1.11847,7.1372705696,0,0,-1.565858,168.3, 0.2, 1.2,0,0,1024,1024,1220,1024,0,0,30,0,44.2,-32.5,-13.5,68,3.775,3.793,3.791,3.744,0,0,18.822,121.91,1704.0672946876,11.154856,6,P-GPS,
327300,2025-09-03 13:53:21,48.1487727895871,11.5721896350849,11.154856,,,1704.0672946876,12.139108,0,3.6654856816,9.4984255008,9,2,15.001,1704.0672946876,11.154856,1.11847,7.1372705696,0,0,-1.565858,168.3, 0.2, 1.2,0,0,1024,1024,1225,1024,0,0,30,0,43.9,-32.3,-14.2,68,3.775,3.793,3.791,3.744,0,0,18.822,121.91,1704.0672946876,11.154856,6,P-GPS,
327400,2025-09-03 13:53:21,48.1487727084474,11.5721897366634,11.48294,,,1704.3953786876,12.467192,0,3.6940946064,9.5369753708,9,2,15.001,1704.3953786876,11.48294,1.11847,7.1372705696,0,0,-1.565858,168.2, 0.5, 1.1,0,0,1024,1024,1227,1024,0,0,31,0,43.5,-32.3,-14.6,68,3.775,3.793,3.791,3.744,0,0,18.822,121.91,1704.3953786876,11.48294,6,P-GPS,
327500,2025-09-03 13:53:21,48.1487726269242,11.5721898217858,11.811024,,,1704.7234626876,12.795276,0,3.7231628488,9.5732286528,9,2,15.001,1704.7234626876,11.811024,1.11847,7.1372705696,0,0,-1.789552,168.2, 0.7, 0.6,0,0,1024,1024,1228,1024,0,0,31,0,42.8,-32.3,-14.1,68,3.775,3.793,3.791,3.744,0,0,18.822,121.91,1704.7234626876,11.811024,6,P-GPS,
327600,2025-09-03 13:53:21,48.1487725482639,11.5721898967581,12.139108,,,1705.0515466876,12.795276,0,3.7513780728,9.6072509636,9,2,15.001,1705.0515466876,12.139108,1.11847,7.1372705696,0,0,-1.789552,168.2, 0.7, 0.2,0,0,1024,1024,1228,1024,0,0,31,0,42.8,-32.3,-14.1,68,3.775,3.793,3.791,3.744,0,0,18.822,121.91,1705.0515466876,12.139108,6,P-GPS,
327700,2025-09-03 13:53:21,48.148772451689,11.5721899686425,12.467192,,,1705.3796306876,13.12336,0,3.7862205936,9.6465882352,9,2,15.001,1705.3796306876,12.467192,1.11847,7.1372705696,0,0,-1.789552,168.2, 0.5, 0.3,0,0,1024,1024,1229,1024,0,0,31,0,43.4,-32.3,-14.4,68,3.775,3.793,3.791,3.744,0,0,18.822,121.91,1705.3796306876,12.467192,6,P-GPS,
327800,2025-09-03 13:53:21,48.1487723710012,11.572190036166,12.467192,,,1705.3796306876,13.451444,0,3.8153544528,9.6803152704,8,2,15.001,1705.3796306876,12.467192,1.11847,7.1372705696,0,0,-1.789552,168.2, 0.2, 0.4,0,0,1024,1024,1227,1024,0,0,31,0,44.1,-32.4,-14.5,68,3.775,3.793,3.791,3.744,0,0,18.822,121.91,1705.3796306876,12.467192,6,P-GPS,
327900,2025-09-03 13:53:21,48.1487722867602,11.5721901018675,12.795276,,,1705.7077146876,13.779528,0,3.8458990732,9.7149609408,8,2,15.001,1705.7077146876,12.795276,1.11847,7.1372705696,0,0,-1.789552,168.3, 0, 0.2,0,0,1024,1024,1232,1024,0,0,32,0,43.7,-32.7,-14.5,68,3.775,3.793,3.791,3.744,0,0,18.822,121.91,1705.7077146876,12.795276,6,P-GPS,
328000,2025-09-03 13:53:22,48.1487721983911,11.5721901718546,13.12336,,,1706.0357986876,14.107612,0,3.8779856884,9.7514110732,8,2,14.979,1706.0357986876,13.12336,1.11847,7.1372705696,0,0,-1.789552,168.2, 0.3, -0.1,0,0,1024,1024,1235,1024,0,0,32,0,43.1,-32.5,-14.8,68,3.777,3.792,3.787,3.742,0,0,18.404,121.91,1706.0357986876,13.12336,6,P-GPS,
328100,2025-09-03 13:53:22,48.1487721296544,11.5721902809497,13.451444,,,1706.3638826876,14.435696,0,3.9030184976,9.7879596308,8,2,14.979,1706.3638826876,13.451444,1.11847,7.1372705696,0,0,-1.789552,168.1, 0.7, -0.2,0,0,1024,1024,1236,1024,0,0,32,0,43.3,-32.2,-14.8,68,3.777,3.792,3.787,3.742,0,0,18.404,121.91,1706.3638826876,13.451444,6,P-GPS,
328200,2025-09-03 13:53:22,48.1487720490692,11.572190384063,13.779528,,,1706.6919666876,14.76378,0,3.9325132492,9.826607926,8,2,14.979,1706.6919666876,13.779528,1.11847,7.1372705696,0,0,-2.013246,168.1, 0.7, 0.1,0,0,1024,1024,1242,1024,0,0,33,0,43.3,-32.2,-14,68,3.777,3.792,3.787,3.742,0,0,18.404,121.91,1706.6919666876,13.779528,6,P-GPS,
328300,2025-09-03 13:53:22,48.1487719737407,11.5721904999823,14.107612,,,1707.0200506876,15.091864,0,3.9602691556,9.865978006,8,2,14.979,1707.0200506876,14.107612,1.11847,7.1372705696,0,0,-2.013246,168.1, 0.5, 0.5,0,0,1024,1024,1247,1024,0,0,34,0,43.7,-32.1,-13.8,68,3.777,3.792,3.787,3.742,0,0,18.404,121.91,1707.0200506876,14.107612,6,P-GPS,
328400,2025-09-03 13:53:22,48.148771901174,11.5721906220304,14.435696,,,1707.3481346876,15.419948,0,3.9872704688,9.9057745952,8,2,14.979,1707.3481346876,14.435696,1.11847,7.1372705696,0,0,-2.013246,168.2, 0.5, 0.6,0,0,1024,1024,1241,1024,0,0,33,0,43.4,-32,-14,68,3.777,3.792,3.787,3.742,0,0,18.404,121.91,1707.3481346876,14.435696,6,P-GPS,
328500,2025-09-03 13:53:22,48.1487717903421,11.5721907838396,14.76378,,,1707.6762186876,15.748032,0,4.0287402864,9.9622378516,8,2,14.979,1707.6762186876,14.76378,1.11847,7.1372705696,0,0,-2.013246,168.3, 0.7, 0.3,0,0,1024,1024,1235,1024,0,0,32,0,42.7,-32,-14,68,3.777,3.792,3.787,3.742,0,0,18.404,121.91,1707.6762186876,14.76378,6,P-GPS,
328600,2025-09-03 13:53:22,48.148771720547,11.5721909322191,15.091864,,,1708.0043026876,16.076116,0,4.0554791324,10.0064307664,8,2,14.979,1708.0043026876,15.091864,1.11847,7.1372705696,0,0,-2.013246,168.4, 1, 0.5,0,0,1024,1024,1240,1024,0,0,33,0,43.7,-31.5,-13.3,68,3.777,3.792,3.787,3.742,0,0,18.404,121.91,1708.0043026876,15.091864,6,P-GPS,
328700,2025-09-03 13:53:22,48.1487716613905,11.5721910842169,15.419948,,,1708.3323866876,16.4042,0,4.0786746712,10.0492785368,8,2,14.979,1708.3323866876,15.419948,1.11847,7.1372705696,0,0,-2.013246,168.5, 1, 1.5,0,0,1024,1024,1241,1024,0,0,33,0,44,-31.7,-12.9,68,3.777,3.792,3.787,3.742,0,0,18.404,121.91,1708.3323866876,15.419948,6,P-GPS,
328800,2025-09-03 13:53:22,48.14877161,11.5721912237813,15.748032,,,1708.6604706876,16.732284,0,4.0991799212,10.0880580656,7,2,14.979,1708.6604706876,15.748032,1.11847,7.1372705696,0,0,-2.013246,168.6, 0.8, 2,0,0,1024,1024,1244,1024,0,0,33,0,43.2,-31.9,-12.6,68,3.777,3.792,3.787,3.742,0,0,18.404,121.91,1708.6604706876,15.748032,6,P-GPS,
328900,2025-09-03 13:53:22,48.1487715636301,11.5721913327146,16.076116,,,1708.9885546876,17.060368,0,4.1176510504,10.1195213212,7,2,14.979,1708.9885546876,16.076116,1.11847,7.1372705696,0,0,-2.013246,168.6, 0.7, 1.8,0,0,1024,1024,1247,1024,0,0,34,0,43,-32,-13.7,68,3.777,3.792,3.787,3.742,0,0,18.404,121.91,1708.9885546876,16.076116,6,P-GPS,
329000,2025-09-03 13:53:23,48.1487715499186,11.5721913635773,16.4042,,,1709.3166386876,17.388452,0,4.1231300532,10.1285436312,7,2,14.95,1709.3166386876,16.4042,1.11847,7.1372705696,0,0,-2.23694,168.6, 0.7, 1.2,0,0,1024,1024,1247,1024,0,0,34,0,43,-32,-13.7,68,3.777,3.792,3.787,3.742,0,0,18.404,121.91,1709.3166386876,16.4042,6,P-GPS,
329100,2025-09-03 13:53:23,48.1487715128291,11.5721914075404,16.732284,,,1709.6447226876,18.04462,0,4.1373360904,10.1458008496,7,2,14.95,1709.6447226876,16.732284,1.11847,7.1372705696,0,0,-2.23694,168.5, 0.7, 0.6,0,0,1024,1024,1248,1024,0,0,34,0,43.3,-32,-14.1,68,3.777,3.792,3.787,3.742,0,0,18.404,121.91,1709.6447226876,16.732284,6,P-GPS,
329200,2025-09-03 13:53:23,48.148771479236,11.5721914402553,17.060368,,,1709.9728066876,18.372704,0,4.150098558,10.160433396,7,2,14.95,1709.9728066876,17.060368,1.11847,7.1372705696,0,0,-2.23694,168.5, 0.7, 0.4,0,0,1024,1024,1250,1024,0,0,34,0,42.4,-32.2,-14.6,68,3.777,3.792,3.787,3.742,0,0,18.404,121.91,1709.9728066876,17.060368,6,P-GPS,
329300,2025-09-03 13:53:23,48.1487714492238,11.5721914700951,17.388452,,,1710.3008906876,18.700788,0,4.1615158812,10.173556756,7,2,14.95,1710.3008906876,17.388452,1.11847,7.1372705696,0,0,-2.23694,168.4, 0.6, 0.2,0,0,1024,1024,1253,1024,0,0,35,0,42,-32.3,-14.6,68,3.777,3.792,3.787,3.742,0,0,18.404,121.91,1710.3008906876,17.388452,6,P-GPS,
329400,2025-09-03 13:53:23,48.1487714180537,11.5721915480619,17.716536,,,1710.6289746876,19.028872,0,4.1742455404,10.195702426,8,2,14.95,1710.6289746876,17.716536,1.11847,7.1372705696,0,0,-2.23694,168.3, 0.6, 0.3,0,0,1024,1024,1256,1024,0,0,35,0,42,-32.2,-14.3,68,3.777,3.792,3.787,3.742,0,0,18.404,121.91,1710.6289746876,17.716536,6,P-GPS,
329500,2025-09-03 13:53:23,48.1487713911241,11.5721915790871,18.04462,,,1710.9570586876,19.356956,0,4.1846129948,10.2080711928,8,2,14.95,1710.9570586876,18.04462,1.11847,7.1372705696,0,0,-2.23694,168.3, 0.7, 0.5,0,0,1024,1024,1253,1024,0,0,35,0,42.6,-31.9,-14.1,68,3.777,3.792,3.787,3.742,0,0,18.404,121.91,1710.9570586876,18.04462,6,P-GPS,
329600,2025-09-03 13:53:23,48.1487713680247,11.572191599328,18.372704,,,1711.2851426876,19.68504,0,4.193405646,10.217848096,8,2,14.95,1711.2851426876,18.372704,1.11847,7.1372705696,0,0,-2.23694,168.3, 0.7, 0.6,0,0,1024,1024,1259,1024,0,0,36,0,42.2,-32.1,-14.4,68,3.777,3.792,3.787,3.742,0,0,18.404,121.91,1711.2851426876,18.372704,6,P-GPS,
329700,2025-09-03 13:53:23,48.1487713474509,11.5721916067806,18.700788,,,1711.6132266876,20.341208,0,4.2010171948,10.22555807,8,2,14.95,1711.6132266876,18.700788,1.11847,7.1372705696,0,0,-2.23694,168.3, 0.7, 0.3,0,0,1024,1024,1264,1024,0,0,36,0,42.4,-32,-14.7,68,3.777,3.792,3.787,3.742,0,0,18.404,121.91,1711.6132266876,18.700788,6,P-GPS,
329800,2025-09-03 13:53:23,48.1487713435768,11.5721915820141,19.356956,,,1712.2693946876,20.669292,0,4.2019686384,10.2317588576,8,2,14.95,1712.2693946876,19.356956,1.11847,7.1372705696,0,0,-2.23694,168.3, 0.7, 0,0,0,1024,1024,1270,1024,0,0,37,0,42.5,-32.1,-15.1,68,3.777,3.792,3.787,3.742,0,0,18.404,121.91,1712.2693946876,19.356956,6,P-GPS,
329900,2025-09-03 13:53:23,48.148771336226,11.5721915724384,19.68504,,,1712.5974786876,20.997376,0,4.2044620768,10.2353021648,8,2,14.95,1712.5974786876,19.68504,1.11847,7.1372705696,0,0,-2.460634,168.3, 0.6, -0.2,0,0,1024,1024,1276,1024,0,0,38,0,41.8,-32.2,-15.2,68,3.777,3.792,3.787,3.742,0,0,18.404,121.91,1712.5974786876,19.68504,6,P-GPS,
330000,2025-09-03 13:53:24,48.1487713323829,11.572191567794,20.013124,,,1712.9255626876,21.32546,0,4.2057744128,10.2371066268,9,2,14.934,1712.9255626876,20.013124,1.11847,7.1372705696,0,0,-2.460634,168.3, 0.6, -0.1,0,0,1024,1024,1279,1024,0,0,39,0,41.8,-32.1,-14.8,68,3.765,3.782,3.78,3.733,0,0,18.924,121.91,1712.9255626876,20.013124,6,P-GPS,
330100,2025-09-03 13:53:24,48.1487713305688,11.5721915674111,20.341208,,,1713.2536466876,21.981628,0,4.2064305808,10.2377627948,9,2,14.934,1713.2536466876,20.341208,1.11847,7.1372705696,0,0,-2.460634,168.3, 0.6, 0.1,0,0,1024,1024,1277,1024,0,0,38,0,42.1,-32,-14.8,68,3.765,3.782,3.78,3.733,0,0,18.924,121.91,1713.2536466876,20.341208,6,P-GPS,
330200,2025-09-03 13:53:24,48.1487712985536,11.5721916234232,20.669292,,,1713.5817306876,22.309712,0,4.2191274316,10.255741798,10,2,14.934,1713.5817306876,20.669292,1.11847,7.1372705696,0,0,-2.684328,168.3, 0.6, 0,0,0,1024,1024,1273,1024,0,0,38,0,42.2,-31.8,-15,68,3.765,3.782,3.78,3.733,0,0,18.924,121.91,1713.5817306876,20.669292,6,P-GPS,
330300,2025-09-03 13:53:24,48.1487712953244,11.5721916334324,20.997376,,,1713.9098146876,22.637796,0,4.220472576,10.2584320868,10,2,14.934,1713.9098146876,20.997376,1.11847,7.1372705696,0,0,-2.684328,168.4, 0.9, -0.1,0,0,1024,1024,1270,1024,0,0,37,0,42.2,-31.8,-15,68,3.765,3.782,3.78,3.733,0,0,18.924,121.91,1713.9098146876,20.997376,6,P-GPS,
