time(millisecond),datetime(utc),latitude,longitude,height_above_takeoff(feet),height_above_ground_at_drone_location(feet),ground_elevation_at_drone_location(feet),altitude_above_seaLevel(feet),height_sonar(feet),speed(mph),distance(feet),mileage(feet),satellites,gpslevel,voltage(v),max_altitude(feet),max_ascent(feet),max_speed(mph),max_distance(feet), xSpeed(mph), ySpeed(mph), zSpeed(mph), compass_heading(degrees), pitch(degrees), roll(degrees),isPhoto,isVideo,rc_elevator,rc_aileron,rc_throttle,rc_rudder,rc_elevator(percent),rc_aileron(percent),rc_throttle(percent),rc_rudder(percent),gimbal_heading(degrees),gimbal_pitch(degrees),gimbal_roll(degrees),battery_percent,voltageCell1,voltageCell2,voltageCell3,voltageCell4,voltageCell5,voltageCell6,current(A),battery_temperature(f),altitude(feet),ascent(feet),flycStateRaw,flycState,message
332200,2025-09-03 09:45:09,48.1487362565755,11.5721381770657,0,Available with any HD 360 subscription,Available with any HD 360 subscription,1692.9388714313,0.656168,0,0,0,6,0,0,1692.9388714313,0,0,0,0,0,0,271.4, 5.8, -4.4,0,0,364,364,364,1684,-100,-100,-100,100,312.6,60.6,-48.1,72,4.018,4.023,4.024,4.016,0,0,0,116.51,1692.9388714313,0,41,Motors_Started,
332300,2025-09-03 09:45:09,48.1487362082336,11.5721381149111,0,,,1692.9388714313,0.656168,0,0.0232379600612,0.0232379600612,6,0,0,1692.9388714313,0,0,0.0232379600612,0,0,0,270.9, 5.8, -4.5,0,0,364,364,364,1684,-100,-100,-100,100,312.6,60.8,-48.1,72,4.018,4.023,4.024,4.016,0,0,0,116.51,1692.9388714313,0,41,Motors_Started,
332400,2025-09-03 09:45:09,48.1487361611145,11.5721380560048,0,,,1692.9388714313,0.656168,0,0.04562336104,0.045624673376,6,0,0,1692.9388714313,0,0,0.04562336104,0,0,0,271.6, 5.8, -4.4,0,0,364,364,364,1684,-100,-100,-100,100,311.8,60.2,-48.1,72,4.018,4.023,4.024,4.016,0,0,0,116.51,1692.9388714313,0,41,Motors_Started,
332500,2025-09-03 09:45:09,48.1487361110594,11.5721379968867,0,,,1692.9388714313,0.656168,0,0.068865487768,0.068875986456,6,0,16.017,1692.9388714313,0,0,0.068865487768,0,0,0,271.4, 5.8, -4.4,0,0,364,364,364,1684,-100,-100,-100,100,312.1,60.3,-48.1,72,4.018,4.023,4.024,4.016,0,0,1.466,116.51,1692.9388714313,0,41,Motors_Started,"Setting new Return-To-Home altitude to 100m (328 ft). Data Recorder File Index is 237. Setting new Maximum Flight Altitude to 150m (492 ft)"
332600,2025-09-03 09:45:09,48.1487360618739,11.572137936581,0,,,1692.9388714313,0.656168,0,16.9641081544,0.092060698484,6,0,16.017,1692.9388714313,0,0,16.9641081544,0,0,0,271.4, 5.8, -4.4,0,0,370,364,364,1676,-99,-100,-100,99,311.9,60.2,-48.1,72,4.018,4.023,4.024,4.016,0,0,1.466,116.51,1692.9388714313,0,41,Motors_Started,
332700,2025-09-03 09:45:09,48.1487360122633,11.5721378809038,0,,,1692.9388714313,0.656168,0,16.985892932,0.114672903932,6,0,16.017,1692.9388714313,0,0,16.985892932,0,0,0,271.3, 5.8, -4.4,0,0,1024,1024,1024,1024,0,0,0,0,311.9,60.3,-48.3,72,4.018,4.023,4.024,4.016,0,0,1.466,116.51,1692.9388714313,0,41,Motors_Started,
332800,2025-09-03 09:45:09,48.1487359612051,11.5721378263885,0,,,1692.9388714313,0.656168,0,17.0077433264,0.137544951908,6,0,16.017,1692.9388714313,0,0,17.0077433264,0,0,0,271.3, 5.8, -4.5,0,0,1024,1024,1024,1024,0,0,0,0,311.9,60.3,-48.3,72,4.018,4.023,4.024,4.016,0,0,1.466,116.51,1692.9388714313,0,41,Motors_Started,
332900,2025-09-03 09:45:09,48.1487359113715,11.5721377756704,0,,,1692.9388714313,0.656168,0,17.0285766604,0.159522314816,6,0,16.017,1692.9388714313,0,0,17.0285766604,0,0,0,271.3, 5.8, -4.5,0,0,1024,1024,1024,1024,0,0,0,0,312,60.3,-48.3,72,4.018,4.023,4.024,4.016,0,0,1.466,116.51,1692.9388714313,0,41,Motors_Started,
333000,2025-09-03 09:45:10,48.1487358590431,11.572137721932,0,,,1692.9388714313,0.656168,0,17.0505910968,0.182666016344,6,0,16.017,1692.9388714313,0,0,17.0505910968,0,0,0,271.3, 5.8, -4.5,0,0,1024,1024,1024,1024,0,0,0,0,311.9,60.3,-48.4,72,4.018,4.023,4.024,4.016,0,0,1.466,116.51,1692.9388714313,0,41,Motors_Started,
333100,2025-09-03 09:45:10,48.1487358079881,11.5721376727257,0,,,1692.9388714313,0.328084,0,17.0714244308,0.204812342512,6,0,16.017,1692.9388714313,0,0,17.0714244308,0,0,0,271.3, 5.8, -4.5,0,0,1024,1024,1024,1024,0,0,0,0,311.9,60.3,-48.4,72,4.018,4.023,4.024,4.016,0,0,1.466,116.51,1692.9388714313,0,41,Motors_Started,
333200,2025-09-03 09:45:10,48.1487357566107,11.5721376254325,0,,,1692.9388714313,0.328084,0,17.0919624892,0.226810374712,6,0,16.017,1692.9388714313,0,0,17.0919624892,0,0,0,271.3, 5.8, -4.5,0,0,1024,1024,1024,1024,0,0,0,0,312.1,60.5,-48.5,72,4.018,4.023,4.024,4.016,0,0,1.466,116.51,1692.9388714313,0,41,Motors_Started,
333300,2025-09-03 09:45:10,48.1487357047854,11.572137579237,0,,,1692.9388714313,0.328084,0,17.1124021224,0.248810047332,6,0,16.017,1692.9388714313,0,0,17.1124021224,0,0,0,271.3, 5.9, -4.5,0,0,1024,1024,1024,1024,0,0,0,0,312.2,60.5,-48.7,72,4.018,4.023,4.024,4.016,0,0,1.466,116.51,1692.9388714313,0,41,Motors_Started,
333400,2025-09-03 09:45:10,48.1487356509588,11.5721375310002,0,,,1692.9388714313,0.328084,0,17.133694774,0.27169128166,6,0,16.017,1692.9388714313,0,0,17.133694774,0,0,0,271.3, 5.8, -4.5,0,0,1024,1024,1024,1024,0,0,0,0,312.4,60.7,-49.1,72,4.018,4.023,4.024,4.016,0,0,1.466,116.51,1692.9388714313,0,41,Motors_Started,
333500,2025-09-03 09:45:10,48.1487355978813,11.5721374868012,0,,,1692.9388714313,0.328084,0,17.154035982,0.293844497592,6,0,16.074,1692.9388714313,0,0,17.154035982,0,0,0,271.3, 5.8, -4.5,0,0,1024,1024,1024,1024,0,0,0,0,312.6,60.8,-49.2,72,4.018,4.023,4.024,4.017,0,0,1.472,116.51,1692.9388714313,0,41,Motors_Started,
333600,2025-09-03 09:45:10,48.1487355445058,11.5721374444158,0,,,1692.9388714313,0.328084,0,17.1740819144,0.315883212208,6,0,16.074,1692.9388714313,0,0,17.1740819144,0,0,0,271.3, 5.9, -4.5,0,0,1024,1024,1024,1024,0,0,0,0,312.6,60.9,-49.4,72,4.018,4.023,4.024,4.017,0,0,1.472,116.51,1692.9388714313,0,41,Motors_Started,
333700,2025-09-03 09:45:10,48.1487354910228,11.5721374045147,0,,,1692.9388714313,0.328084,0,17.1937013376,0.337680457,6,0,16.074,1692.9388714313,0,0,17.1937013376,0,0,0,271.3, 5.9, -4.5,0,0,1024,1024,1024,1024,0,0,0,0,312.5,60.8,-49.5,72,4.018,4.023,4.024,4.017,0,0,1.472,116.51,1692.9388714313,0,10,Assisted_Takeoff,
333800,2025-09-03 09:45:10,48.1487354378134,11.57213736419,0,,,1692.9388714313,0.328084,0,17.2133535692,0.35943570704,6,0,16.074,1692.9388714313,0,0,17.2133535692,0,0,0,271.3, 5.8, -4.5,0,0,1024,1024,1024,1024,0,0,0,0,312.6,60.9,-49.5,72,4.018,4.023,4.024,4.017,0,0,1.472,116.51,1692.9388714313,0,10,Assisted_Takeoff,
333900,2025-09-03 09:45:11,48.148735384363,11.5721373265904,0,,,1692.9388714313,0.328084,0,17.2325136748,0.38097770248,6,0,16.074,1692.9388714313,0,0,17.2325136748,0,0,0,271.3, 5.8, -4.5,0,0,1024,1024,1024,1024,0,0,0,0,312.6,61,-49.6,72,4.018,4.023,4.024,4.017,0,0,1.472,116.51,1692.9388714313,0,10,Assisted_Takeoff,
334000,2025-09-03 09:45:11,48.1487353308882,11.5721372903068,0,,,1692.9388714313,0.328084,0,17.2514441216,0.40239174516,6,0,16.074,1692.9388714313,0,0,17.2514441216,0,0,0,271.3, 5.8, -4.5,0,0,1024,1024,1024,1024,0,0,0,0,312.6,61,-49.6,72,4.018,4.023,4.024,4.017,0,0,1.472,116.51,1692.9388714313,0,10,Assisted_Takeoff,
334100,2025-09-03 09:45:11,48.1487352770079,11.5721372552044,0,,,1692.9388714313,0.328084,0,17.2702433348,0.42382875372,6,0,16.074,1692.9388714313,0,0,17.2702433348,0,0,0,271.3, 5.8, -4.5,0,0,1024,1024,1024,1024,0,0,0,0,312.6,61,-49.7,72,4.018,4.023,4.024,4.017,0,0,1.472,116.51,1692.9388714313,0,10,Assisted_Takeoff,
334200,2025-09-03 09:45:11,48.1487352228328,11.5721372215304,0,,,1692.9388714313,0.328084,0,17.2888456976,0.4452263922,6,0,16.074,1692.9388714313,0,0,17.2888456976,0,0,0,271.3, 5.8, -4.5,0,0,1024,1024,1024,1024,0,0,0,0,312.7,61,-49.7,72,4.018,4.023,4.024,4.017,0,0,1.472,116.51,1692.9388714313,0,10,Assisted_Takeoff,
334300,2025-09-03 09:45:11,48.1487351662737,11.5721371883988,0,,,1692.9388714313,0.328084,0,17.3078745696,0.46738190472,6,0,16.074,1692.9388714313,0,0,17.3078745696,0,0,0,271.3, 5.8, -4.5,0,0,1024,1024,1024,1024,0,0,0,0,312.7,61,-49.8,72,4.018,4.023,4.024,4.017,0,0,1.472,116.51,1692.9388714313,0,10,Assisted_Takeoff,
334400,2025-09-03 09:45:11,48.1487351105353,11.5721371570776,0,,,1692.9388714313,0.328084,0,17.3263785072,0.48910106552,6,0,16.074,1692.9388714313,0,0,17.3263785072,0,0,0,271.3, 5.8, -4.5,0,0,1024,1024,1024,1024,0,0,0,0,312.7,61,-49.9,72,4.018,4.023,4.024,4.017,0,0,1.472,116.51,1692.9388714313,0,10,Assisted_Takeoff,
334500,2025-09-03 09:45:11,48.1487350542302,11.5721371272297,0,,,1692.9388714313,0.328084,0,17.3447512112,0.51088912396,6,0,16.008,1692.9388714313,0,0,17.3447512112,0,0,0,271.3, 5.8, -4.5,0,0,1024,1024,1024,1024,0,0,0,0,312.7,61.1,-49.9,72,4.001,4.009,4.009,3.996,0,0,4.77,116.51,1692.9388714313,0,10,Assisted_Takeoff,
334600,2025-09-03 09:45:11,48.1487349972347,11.5721370992691,0,,,1692.9388714313,0.328084,0,17.3628942564,0.53276904592,6,0,16.008,1692.9388714313,0,0,17.3628942564,0,0,0,271.3, 5.8, -4.5,0,0,1024,1024,1024,1024,0,0,0,0,312.7,61.1,-50,72,4.001,4.009,4.009,3.996,0,0,4.77,116.51,1692.9388714313,0,10,Assisted_Takeoff,
334700,2025-09-03 09:45:11,48.1487349387686,11.5721370730418,0,,,1692.9388714313,0.328084,0,17.38107011,0.555036107,6,0,16.008,1692.9388714313,0,0,17.38107011,0,0,0,271.3, 5.8, -4.5,0,0,1024,1024,1024,1024,0,0,0,0,312.7,61.1,-50.1,72,4.001,4.009,4.009,3.996,0,0,4.77,116.51,1692.9388714313,0,10,Assisted_Takeoff,
334800,2025-09-03 09:45:11,48.1487348804313,11.5721370479283,0,,,1692.9388714313,0.328084,0,17.3990163048,0.577181777,6,0,16.008,1692.9388714313,0,0,17.3990163048,0,0,0,271.3, 5.8, -4.5,0,0,1024,1024,1024,1024,0,0,0,0,312.8,61.1,-50.2,72,4.001,4.009,4.009,3.996,0,0,4.77,116.51,1692.9388714313,0,10,Assisted_Takeoff,
334900,2025-09-03 09:45:12,48.14873482148,11.5721370249269,0,,,1692.9388714313,0.328084,0,17.416667224,0.59940618716,6,0,16.008,1692.9388714313,0,0,17.416667224,0,0,0,271.3, 5.8, -4.5,0,0,1024,1024,1024,1024,0,0,0,0,312.7,61.1,-50.3,72,4.001,4.009,4.009,3.996,0,0,4.77,116.51,1692.9388714313,0,10,Assisted_Takeoff,
335000,2025-09-03 09:45:12,48.148734762159,11.5721370035175,0,,,1692.9388714313,0.328084,0,17.4341541012,0.6216699674,6,0,16.008,1692.9388714313,0,0,17.4341541012,0,0,0,271.3, 5.8, -4.5,0,0,1024,1024,1024,1024,0,0,0,0,312.7,61.1,-50.3,72,4.001,4.009,4.009,3.996,0,0,4.77,116.51,1692.9388714313,0,10,Assisted_Takeoff,
335100,2025-09-03 09:45:12,48.1487347011624,11.5721369841079,0,,,1692.9388714313,0.328084,0,17.45160817,0.64441931196,6,0,16.008,1692.9388714313,0,0,17.45160817,0,0,0,271.3, 5.8, -4.5,0,0,1024,1024,1024,1024,0,0,0,0,312.7,61.1,-50.4,72,4.001,4.009,4.009,3.996,0,0,4.77,116.51,1692.9388714313,0,10,Assisted_Takeoff,
335200,2025-09-03 09:45:12,48.1487346408871,11.5721369670285,0,,,1692.9388714313,0.328084,0,17.468504496,0.66680120244,6,0,16.008,1692.9388714313,0,0,17.468504496,0,0,0,271.3, 5.8, -4.5,0,0,1024,1024,1024,1024,0,0,0,0,312.7,61.1,-50.4,72,4.001,4.009,4.009,3.996,0,0,4.77,116.51,1692.9388714313,0,10,Assisted_Takeoff,
335300,2025-09-03 09:45:12,48.1487345796756,11.5721369527481,0,,,1692.9388714313,0.328084,0,17.485072738,0.6894029092,6,0,16.008,1692.9388714313,0,0,17.485072738,0,0,0,271.3, 5.8, -4.5,0,0,1024,1024,1024,1024,0,0,0,0,312.8,61.2,-50.5,72,4.001,4.009,4.009,3.996,0,0,4.77,116.51,1692.9388714313,0,10,Assisted_Takeoff,
335400,2025-09-03 09:45:12,48.148734518039,11.5721369402235,0,,,1692.9388714313,0.328084,0,17.5014113212,0.71209647948,6,0,16.008,1692.9388714313,0,0,17.5014113212,0,0,0,271.3, 5.8, -4.5,0,0,1024,1024,1024,1024,0,0,0,0,312.8,61.2,-50.6,72,4.001,4.009,4.009,3.996,0,0,4.77,116.51,1692.9388714313,0,10,Assisted_Takeoff,
335500,2025-09-03 09:45:12,48.1487344563323,11.5721369286746,0,,,1692.9388714313,0.328084,0,17.5175858624,0.73478348808,6,0,16.032,1692.9388714313,0,0,17.5175858624,0,0,0,271.3, 5.8, -4.5,0,0,1024,1024,1024,1024,0,0,0,0,312.8,61.2,-50.6,72,4.012,4.018,4.018,4.011,0,0,2.114,116.51,1692.9388714313,0,10,Assisted_Takeoff,
335600,2025-09-03 09:45:12,48.1487343938164,11.5721369175687,0,,,1692.9388714313,0.328084,0,17.5338916372,0.75775264892,6,0,16.032,1692.9388714313,0,0,17.5338916372,0,0,0,271.3, 5.8, -4.5,0,0,1024,1024,1024,1024,0,0,0,0,312.8,61.2,-50.7,72,4.012,4.018,4.018,4.011,0,0,2.114,116.51,1692.9388714313,0,10,Assisted_Takeoff,
335700,2025-09-03 09:45:12,48.148734331302,11.5721369094928,0,,,1692.9388714313,0.328084,0,17.5496396692,0.78064635044,6,0,16.032,1692.9388714313,0,0,17.5496396692,0,0,0,271.3, 5.8, -4.5,0,0,1024,1024,1024,1024,0,0,0,0,312.8,61.2,-50.8,72,4.012,4.018,4.018,4.011,0,0,2.114,116.51,1692.9388714313,0,10,Assisted_Takeoff,
335800,2025-09-03 09:45:12,48.1487342689131,11.5721369029512,0,,,1692.9388714313,0.328084,0,17.5650596172,0.80346459264,6,0,16.032,1692.9388714313,0,0,17.5650596172,0,0,0,271.3, 5.8, -4.4,0,0,1024,1024,1024,1024,0,0,0,0,312.8,61.3,-50.9,72,4.012,4.018,4.018,4.011,0,0,2.114,116.51,1692.9388714313,0,10,Assisted_Takeoff,
335900,2025-09-03 09:45:12,48.1487342061773,11.5721368980916,0,,,1692.9388714313,0.328084,0,17.5802827148,0.82638454088,6,0,16.032,1692.9388714313,0,0,17.5802827148,0,0,0,271.3, 5.8, -4.5,0,0,1024,1024,1024,1024,0,0,0,0,312.8,61.3,-50.9,72,4.012,4.018,4.018,4.011,0,0,2.114,116.51,1692.9388714313,0,10,Assisted_Takeoff,
336000,2025-09-03 09:45:13,48.1487341427233,11.5721368932576,0,,,1692.9388714313,0.328084,0,17.5956698544,0.84956367548,6,0,16.032,1692.9388714313,0,0,17.5956698544,0,0,0,271.3, 5.8, -4.5,0,0,1024,1024,1024,1024,0,0,0,0,312.8,61.3,-51,72,4.012,4.018,4.018,4.011,0,0,2.114,116.51,1692.9388714313,0,10,Assisted_Takeoff,
336100,2025-09-03 09:45:13,48.1487340799191,11.572136890937,0,,,1692.9388714313,0.328084,0,17.6104336344,0.87248690456,6,0,16.032,1692.9388714313,0,0,17.6104336344,0,0,0,271.3, 5.8, -4.5,0,0,1024,1024,1024,1024,0,0,0,0,312.8,61.3,-51.1,72,4.012,4.018,4.018,4.011,0,0,2.114,116.51,1692.9388714313,0,10,Assisted_Takeoff,
336200,2025-09-03 09:45:13,48.1487340165319,11.5721368902886,0,,,1692.9388714313,0.328084,0,17.6250333724,0.89561354572,6,0,16.032,1692.9388714313,0,0,17.6250333724,0,0,0,271.3, 5.8, -4.5,0,0,1024,1024,1024,1024,0,0,0,0,312.8,61.3,-51.1,72,4.012,4.018,4.018,4.011,0,0,2.114,116.51,1692.9388714313,0,10,Assisted_Takeoff,
336300,2025-09-03 09:45:13,48.148733952622,11.5721368918132,0,,,1692.9388714313,0.328084,0,17.6393706432,0.91893375644,6,0,16.032,1692.9388714313,0,0,17.6393706432,0,0,0,271.3, 5.8, -4.5,0,0,1024,1024,1024,1024,0,0,0,0,312.8,61.3,-51.2,72,4.012,4.018,4.018,4.011,0,0,2.114,116.51,1692.9388714313,0,10,Assisted_Takeoff,
336400,2025-09-03 09:45:13,48.1487338857614,11.5721368936589,0,,,1692.9388714313,0.328084,0,17.6543312736,0.94333336352,6,0,16.032,1692.9388714313,0,0,17.6543312736,0,0,0,271.3, 5.8, -4.5,0,0,1024,1024,1024,1024,0,0,0,0,312.8,61.3,-51.2,72,4.012,4.018,4.018,4.011,0,0,2.114,116.51,1692.9388714313,0,10,Assisted_Takeoff,
336500,2025-09-03 09:45:13,48.1487338210991,11.5721368976743,0,,,1692.9388714313,0.328084,0,17.6684060772,0.96694228816,6,0,16.032,1692.9388714313,0,0,17.6684060772,0,0,0,271.3, 5.8, -4.5,0,0,1024,1024,1024,1024,0,0,0,0,312.8,61.4,-51.3,72,4.012,4.018,4.018,4.011,0,0,2.114,116.51,1692.9388714313,0,10,Assisted_Takeoff,
336600,2025-09-03 09:45:13,48.1487337560672,11.5721369034712,0,,,1692.9388714313,0.328084,0,17.682251222,0.99071197396,6,0,16.032,1692.9388714313,0,0,17.682251222,0,0,0,271.3, 5.8, -4.5,0,0,1024,1024,1024,1024,0,0,0,0,312.9,61.4,-51.4,72,4.012,4.018,4.018,4.011,0,0,2.114,116.51,1692.9388714313,0,10,Assisted_Takeoff,
336700,2025-09-03 09:45:13,48.1487336910467,11.572136911255,0,,,1692.9388714313,0.328084,0,17.6957354744,1.01451118732,6,0,16.032,1692.9388714313,0,0,17.6957354744,0,0,0,271.3, 5.8, -4.5,0,0,1024,1024,1024,1024,0,0,0,0,312.9,61.4,-51.4,72,4.012,4.018,4.018,4.011,0,0,2.114,116.51,1692.9388714313,0,10,Assisted_Takeoff,
336800,2025-09-03 09:45:13,48.1487336245508,11.5721369190837,0,,,1692.9388714313,0.328084,0,17.7095806192,1.0388451776,6,0,16.032,1692.9388714313,0,0,17.7095806192,0,0,0,271.3, 5.8, -4.5,0,0,1024,1024,1024,1024,0,0,0,0,312.9,61.4,-51.5,72,4.012,4.018,4.018,4.011,0,0,2.114,116.51,1692.9388714313,0,10,Assisted_Takeoff,
336900,2025-09-03 09:45:13,48.1487335589571,11.5721369293615,0,,,1692.9388714313,0.328084,0,17.722769596,1.062910139,7,0,16.032,1692.9388714313,0,0,17.722769596,0,0,0,271.3, 5.8, -4.5,0,0,1024,1024,1024,1024,0,0,0,0,312.7,61.3,-51.5,72,4.012,4.018,4.018,4.011,0,0,2.114,116.51,1692.9388714313,0,10,Assisted_Takeoff,
337000,2025-09-03 09:45:14,48.1487334930279,11.5721369419118,0,,,1692.9388714313,0.328084,0,17.7356632972,1.0871555466,7,0,16.032,1692.9388714313,0,0,17.7356632972,0,0,0,271.3, 5.8, -4.5,0,0,1024,1024,1024,1024,0,0,0,0,312.9,61.4,-51.7,72,4.012,4.018,4.018,4.011,0,0,2.114,116.51,1692.9388714313,0,10,Assisted_Takeoff,
337100,2025-09-03 09:45:14,48.1487334268007,11.5721369563142,0,,,1692.9388714313,0.328084,0,17.7482617228,1.11157155788,7,0,16.032,1692.9388714313,0,0,17.7482617228,0,0,0,271.3, 5.8, -4.5,0,0,1024,1024,1024,1024,0,0,0,0,312.9,61.5,-51.8,72,4.012,4.018,4.018,4.011,0,0,2.114,116.51,1692.9388714313,0,10,Assisted_Takeoff,
337200,2025-09-03 09:45:14,48.1487333601925,11.5721369725526,0,,,1692.9388714313,0.328084,0,17.7606304896,1.13619426208,7,0,16.032,1692.9388714313,0,0,17.7606304896,0,0,0,271.3, 5.8, -4.5,0,0,1024,1024,1024,1024,0,0,0,0,312.9,61.5,-51.8,72,4.012,4.018,4.018,4.011,0,0,2.114,116.51,1692.9388714313,0,10,Assisted_Takeoff,
337300,2025-09-03 09:45:14,48.1487332922522,11.5721369899786,0,,,1692.9388714313,0.328084,0,17.77313049,1.16134190068,7,0,16.032,1692.9388714313,0,0,17.77313049,0,0,0,271.3, 5.8, -4.5,0,0,1024,1024,1024,1024,0,0,0,0,312.9,61.5,-51.9,72,4.012,4.018,4.018,4.011,0,0,2.114,116.51,1692.9388714313,0,10,Assisted_Takeoff,
337400,2025-09-03 09:45:14,48.1487332248427,11.5721370090962,0,,,1692.9388714313,0.328084,0,17.7852039812,1.18637142904,7,0,16.032,1692.9388714313,0,0,17.7852039812,0,0,0,271.3, 5.8, -4.5,0,0,1024,1024,1044,1024,0,0,3,0,312.9,61.5,-52,72,4.012,4.018,4.018,4.011,0,0,2.114,116.51,1692.9388714313,0,10,Assisted_Takeoff,
337500,2025-09-03 09:45:14,48.148733157049,11.5721370301781,0,,,1692.9388714313,0.328084,0,17.7970150052,1.21163389704,7,0,16.035,1692.9388714313,0,0,17.7970150052,0,0,0,271.3, 5.8, -4.5,0,0,1024,1024,1103,1024,0,0,12,0,312.9,61.5,-52.1,72,4.014,4.02,4.02,4.011,0,0,2.012,116.51,1692.9388714313,0,10,Assisted_Takeoff,
337600,2025-09-03 09:45:14,48.1487330887227,11.5721370532373,0,,,1692.9388714313,0.328084,0,17.8086291788,1.2371883598,7,0,16.035,1692.9388714313,0,0,17.8086291788,0,0,0,271.3, 5.8, -4.5,0,0,1024,1024,1137,1024,0,0,17,0,312.9,61.5,-52.1,72,4.014,4.02,4.02,4.011,0,0,2.012,116.51,1692.9388714313,0,10,Assisted_Takeoff,
337700,2025-09-03 09:45:14,48.1487330191051,11.5721370779624,0,,,1692.9388714313,0.328084,0,17.8202433524,1.26329072284,7,0,16.035,1692.9388714313,0,0,17.8202433524,0,0,0,271.3, 5.8, -4.5,0,0,1024,1024,1148,1024,0,0,19,0,313,61.6,-52.1,72,4.014,4.02,4.02,4.011,0,0,2.012,116.51,1692.9388714313,0,10,Assisted_Takeoff,
337800,2025-09-03 09:45:14,48.1487329499337,11.5721371040998,0,,,1692.9388714313,0.328084,0,17.831529442,1.28931762656,7,0,16.035,1692.9388714313,0,0,17.831529442,0,0,0,271.3, 5.8, -4.4,0,0,1024,1024,1144,1024,0,0,18,0,313,61.6,-52.2,72,4.014,4.02,4.02,4.011,0,0,2.012,116.51,1692.9388714313,0,10,Assisted_Takeoff,
337900,2025-09-03 09:45:15,48.1487328806646,11.5721371323236,0,,,1692.9388714313,0.328084,0,17.8424874476,1.31550857228,7,0,16.035,1692.9388714313,0,0,17.8424874476,0,0,0,271.3, 5.8, -4.4,0,0,1024,1024,1158,1024,0,0,20,0,312.9,61.6,-52.3,72,4.014,4.02,4.02,4.011,0,0,2.012,116.51,1692.9388714313,0,10,Assisted_Takeoff,
338000,2025-09-03 09:45:15,48.1487328105487,11.5721371638792,0,,,1692.9388714313,0.328084,0,17.8530517524,1.34221789072,7,0,16.035,1692.9388714313,0,0,17.8530517524,0,0,0,271.3, 5.8, -4.5,0,0,1024,1024,1157,1024,0,0,20,0,312.8,61.5,-52.3,72,4.014,4.02,4.02,4.011,0,0,2.012,116.51,1692.9388714313,0,10,Assisted_Takeoff,
338100,2025-09-03 09:45:15,48.1487327379087,11.5721371968149,0,,,1692.9388714313,0.328084,0,17.8639769496,1.36990489948,7,0,16.035,1692.9388714313,0,0,17.8639769496,0,0,0,271.3, 5.8, -4.5,0,0,1024,1024,1160,1024,0,0,21,0,312.1,61,-52,72,4.014,4.02,4.02,4.011,0,0,2.012,116.51,1692.9388714313,0,10,Assisted_Takeoff,
338200,2025-09-03 09:45:15,48.1487326664639,11.5721372324245,0,,,1692.9388714313,0.328084,0,17.874180362,1.3973753728,7,0,16.035,1692.9388714313,0,0,17.874180362,0,0,0,271.3, 5.9, -4.5,0,0,1024,1024,1163,1024,0,0,21,0,312,61,-52,72,4.014,4.02,4.02,4.011,0,0,2.012,116.51,1692.9388714313,0,10,Assisted_Takeoff,
338300,2025-09-03 09:45:15,48.1487325944085,11.5721372713754,0,,,1692.9388714313,0.656168,0,17.8839244568,1.42532156792,7,0,16.035,1692.9388714313,0,0,17.8839244568,0,0,0,271.3, 5.9, -4.5,0,0,1024,1024,1166,1024,0,0,22,0,312.3,61.3,-52.3,72,4.014,4.02,4.02,4.011,0,0,2.012,116.51,1692.9388714313,0,10,Assisted_Takeoff,
338400,2025-09-03 09:45:15,48.1487325215503,11.5721373136774,0,,,1692.9388714313,0.656168,0,17.8932748508,1.45382878668,7,0,16.035,1692.9388714313,0,0,17.8932748508,0,0,0,271.3, 6, -4.5,0,0,1024,1024,1168,1024,0,0,22,0,312.3,61.4,-52.2,72,4.014,4.02,4.02,4.011,0,0,2.012,116.51,1692.9388714313,0,10,Assisted_Takeoff,
338500,2025-09-03 09:45:15,48.1487324463032,11.5721373623059,0,,,1692.9388714313,0.656168,0,17.902067502,1.4837270816,7,0,15.97,1692.9388714313,0,0,17.902067502,0,0,0,271.2, 6.2, -4.6,0,0,1024,1024,1167,1024,0,0,22,0,312.9,62.2,-52.7,72,4.014,4.02,4.02,4.012,0,0,2.016,116.51,1692.9388714313,0,10,Assisted_Takeoff,
338600,2025-09-03 09:45:15,48.1487323664524,11.5721374208911,0,,,1692.9388714313,0.656168,0,17.9101711768,1.51616474668,7,0,15.97,1692.9388714313,0,0,17.9101711768,0,0,0,271.2, 6.8, -4.8,0,0,1024,1024,1169,1024,0,0,22,0,313.5,63.6,-53.2,72,4.014,4.02,4.02,4.012,0,0,2.016,116.51,1692.9388714313,0,10,Assisted_Takeoff,
338700,2025-09-03 09:45:15,48.1487322813662,11.572137506519,0,,,1692.9388714313,0.656168,0,17.9145675024,1.55355648016,7,0,15.97,1692.9388714313,0,0,17.9145675024,0,0,0,271.1, 8, -5.4,0,0,1024,1024,1168,1024,0,0,22,0,315.5,66.5,-53.7,72,4.014,4.02,4.02,4.012,0,0,2.016,116.51,1692.9388714313,0,10,Assisted_Takeoff,
338800,2025-09-03 09:45:15,48.1487321705946,11.5721376412793,0,,,1692.9388714313,0.656168,0,17.9161094972,1.6056102876,7,0,15.97,1692.9388714313,0,0,17.9161094972,0,0.223694,0,271.4, 9.3, -6.8,0,0,1024,1024,1165,1024,0,0,21,0,319.3,70.6,-54.2,72,4.014,4.02,4.02,4.012,0,0,2.016,116.51,1692.9388714313,0,10,Assisted_Takeoff,
338900,2025-09-03 09:45:15,48.1487320114745,11.5721378587882,0,,,1692.9388714313,0.656168,0.3131716,17.91420661,1.68418312476,7,0,15.97,1692.9388714313,0,0.3131716,17.9161094972,-0.223694,0.223694,-0.223694,271.8, 10.1, -8.8,0,0,1024,1024,1163,1024,0,0,21,0,319.3,70.6,-54.2,72,4.014,4.02,4.02,4.012,0,0,2.016,116.51,1692.9388714313,0,10,Assisted_Takeoff,
339000,2025-09-03 09:45:16,48.1487317809031,11.5721381973677,0,,,1692.9388714313,0.656168,0.6263432,17.907808972,1.8019521574,7,0,15.97,1692.9388714313,0,0.6263432,17.9161094972,-0.447388,0.447388,-0.447388,272.4, 7.7, -7.8,0,0,1024,1024,1162,1024,0,0,21,0,318.4,69,-53.8,72,4.014,4.02,4.02,4.012,0,0,2.016,116.51,1692.9388714313,0,6,P-GPS,
339100,2025-09-03 09:45:16,48.1487314710102,11.5721386605484,0,,,1692.9388714313,0.656168,0.8052984,17.898950704,1.96162735936,6,0,15.97,1692.9388714313,0,0.8052984,17.9161094972,-0.447388,0.671082,-0.671082,272.9, 0.6, -1.5,0,0,1024,1024,1160,1024,0,0,21,0,307.4,52.7,-49.9,72,4.014,4.02,4.02,4.012,0,0,2.016,116.51,1692.9388714313,0,6,P-GPS,
339200,2025-09-03 09:45:16,48.1487311373322,11.5721391512884,0,,,1692.9388714313,0.656168,0.8052984,17.8924218324,2.13219166928,6,0,15.97,1692.9388714313,0,0.8052984,17.9161094972,-0.447388,0.671082,-0.894776,272.8, -4, 3.6,0,0,1024,1024,1164,1024,0,0,21,0,302.5,45.3,-47.2,72,4.014,4.02,4.02,4.012,0,0,2.016,116.51,1692.9388714313,0,6,P-GPS,
339300,2025-09-03 09:45:16,48.1487308353177,11.5721395616679,0,,,1692.9388714313,0.984252,0.6263432,17.8939310188,2.28092526984,5,0,15.97,1692.9388714313,0,0.8052984,17.9161094972,-0.447388,0.447388,-1.11847,272.7, -4.3, 3.9,0,0,1024,1024,1161,1024,0,0,21,0,304.6,47.7,-47.8,72,4.014,4.02,4.02,4.012,0,0,2.016,116.51,1692.9388714313,0,6,P-GPS,
339400,2025-09-03 09:45:16,48.1487306023835,11.5721398468587,0.328084,,,1693.2669554313,0.984252,0.3131716,17.9014769508,2.39065952532,5,0,15.97,1693.2669554313,0.328084,0.8052984,17.9161094972,-0.223694,0.223694,-1.11847,272.9, -2.5, 2.8,0,0,1024,1024,1158,1024,0,0,20,0,305.9,50.7,-47.9,72,4.014,4.02,4.02,4.012,0,0,2.016,116.51,1693.2669554313,0.328084,6,P-GPS,
339500,2025-09-03 09:45:16,48.1487304280439,11.5721400544269,0.328084,,,1693.2669554313,1.312336,0,17.9085963736,2.47189640456,7,0,15.854,1693.2669554313,0.328084,0.8052984,17.9161094972,0,0,-1.11847,272.8, -1.7, 1.6,0,0,1024,1024,1155,1024,0,0,20,0,307.1,52,-49.7,72,3.956,3.97,3.966,3.944,0,0,11.962,116.51,1693.2669554313,0.328084,6,P-GPS,
339600,2025-09-03 09:45:16,48.148730298055,11.5721402016476,0.656168,,,1693.5950394313,1.312336,0,17.9154861376,2.53133866368,7,0,15.854,1693.5950394313,0.656168,0.8052984,17.9161094972,0,0,-1.11847,272.7, -0.6, 1.4,0,0,1024,1024,1155,1024,0,0,20,0,306.4,51.6,-50,72,3.956,3.97,3.966,3.944,0,0,11.962,116.51,1693.5950394313,0.656168,6,P-GPS,
339700,2025-09-03 09:45:16,48.1487302100864,11.5721403129058,0.656168,,,1693.5950394313,1.64042,0,17.9182092348,2.57333341568,6,0,15.854,1693.5950394313,0.656168,0.8052984,17.9182092348,0,0,-0.894776,272.7, -0.9, 0.8,0,0,1024,1024,1158,1024,0,0,20,0,307.9,52.5,-50.5,72,3.956,3.97,3.966,3.944,0,0,11.962,116.51,1693.5950394313,0.656168,6,P-GPS,
339800,2025-09-03 09:45:16,48.1487301477431,11.5721403966751,0.984252,,,1693.9231234313,1.64042,0,17.9193247204,2.60388131692,6,0,15.854,1693.9231234313,0.984252,0.8052984,17.9193247204,0,0,-0.894776,272.7, -0.6, -0.2,0,0,1024,1024,1158,1024,0,0,20,0,308.7,53.6,-50.5,72,3.956,3.97,3.966,3.944,0,0,11.962,116.51,1693.9231234313,0.984252,6,P-GPS,
339900,2025-09-03 09:45:16,48.1487301124287,11.5721404461863,0.984252,,,1693.9231234313,1.968504,0,17.9196528044,2.62152567444,5,0,15.854,1693.9231234313,0.984252,0.8052984,17.9196528044,0,0,-0.894776,272.6, -0.1, -0.6,0,0,1024,1024,1160,1024,0,0,21,0,308.9,53.9,-51.1,72,3.956,3.97,3.966,3.944,0,0,11.962,116.51,1693.9231234313,0.984252,6,P-GPS,
340000,2025-09-03 09:45:17,48.148730086341,11.5721404700512,1.312336,,,1694.2512074313,1.968504,0,17.9221134344,2.6326772496,5,0,15.854,1694.2512074313,1.312336,0.8052984,17.9221134344,0,0,-0.671082,272.7, -0.1, -0.9,0,0,1024,1024,1158,1024,0,0,20,0,309.2,54.4,-50.9,72,3.956,3.97,3.966,3.944,0,0,11.962,116.51,1694.2512074313,1.312336,6,P-GPS,
340100,2025-09-03 09:45:17,48.1487300678272,11.5721404754918,1.312336,,,1694.2512074313,2.296588,0,17.925853592,2.63956045192,6,0,15.854,1694.2512074313,1.312336,0.8052984,17.925853592,0,0,-0.671082,272.6, 0.2, -0.9,0,0,1024,1024,1158,1024,0,0,20,0,309.2,54.4,-50.9,72,3.956,3.97,3.966,3.944,0,0,11.962,116.51,1694.2512074313,1.312336,6,P-GPS,
340200,2025-09-03 09:45:17,48.1487300379225,11.5721404880004,1.64042,,,1694.5792914313,2.296588,0,17.931266978,2.6508859116,6,0,15.854,1694.5792914313,1.64042,0.8052984,17.931266978,0,0,-0.671082,272.5, 0.5, -1.2,0,0,1024,1024,1159,1024,0,0,20,0,310.1,55.4,-51.5,72,3.956,3.97,3.966,3.944,0,0,11.962,116.51,1694.5792914313,1.64042,6,P-GPS,
340300,2025-09-03 09:45:17,48.1487300087326,11.5721404821618,1.64042,,,1694.5792914313,2.296588,0,17.9396987368,2.6616306626,6,0,15.854,1694.5792914313,1.64042,0.8052984,17.9396987368,0,0,-0.894776,272.4, 0.6, -1,0,0,1024,1024,1163,1024,0,0,21,0,309.2,54.9,-51.5,72,3.956,3.97,3.966,3.944,0,0,11.962,116.51,1694.5792914313,1.64042,6,P-GPS,
340400,2025-09-03 09:45:17,48.1487299747681,11.5721404720637,1.64042,,,1694.5792914313,2.624672,0,17.950131808,2.67426517744,6,0,15.854,1694.5792914313,1.64042,0.8052984,17.950131808,0,0,-0.894776,272.4, 0.6, -0.6,0,0,1024,1024,1163,1024,0,0,21,0,307.5,53.6,-50.9,72,3.956,3.97,3.966,3.944,0,0,11.962,116.51,1694.5792914313,1.64042,6,P-GPS,
340500,2025-09-03 09:45:17,48.1487299427464,11.5721404594653,1.968504,,,1694.9073754313,2.624672,0,17.960466454,2.68634523032,7,0,15.664,1694.9073754313,1.968504,0.8052984,17.960466454,0,0,-0.894776,272.3, 0.3, -0.3,0,0,1024,1024,1169,1024,0,0,22,0,306.8,52.6,-50.9,72,3.956,3.97,3.966,3.944,0,0,11.962,116.51,1694.9073754313,1.968504,6,P-GPS,
340600,2025-09-03 09:45:17,48.1487299215376,11.572140441163,1.968504,,,1694.9073754313,2.624672,0,17.9690622548,2.69527239596,7,0,15.664,1694.9073754313,1.968504,0.8052984,17.9690622548,0,0,-0.894776,272.4, 0.2, -0.2,0,0,1024,1024,1167,1024,0,0,22,0,307.1,52.9,-51.4,72,3.956,3.97,3.966,3.944,0,0,11.962,116.51,1694.9073754313,1.968504,6,P-GPS,
340700,2025-09-03 09:45:17,48.148729914532,11.5721404062371,2.296588,,,1695.2354594313,2.952756,0,17.9769362708,2.704150349,7,0,15.664,1695.2354594313,2.296588,0.8052984,17.9769362708,0,0,-0.894776,272.4, 0.6, -0.9,0,0,1024,1024,1175,1024,0,0,23,0,307.5,53.6,-51.8,72,3.956,3.97,3.966,3.944,0,0,11.962,116.51,1695.2354594313,2.296588,6,P-GPS,
340800,2025-09-03 09:45:17,48.1487299092216,11.5721403760618,2.296588,,,1695.2354594313,2.952756,0,17.9835307592,2.71174877444,7,0,15.664,1695.2354594313,2.296588,0.8052984,17.9835307592,0,0,-0.894776,272.5, 0.6, -1.2,0,0,1024,1024,1178,1024,0,0,23,0,308.2,53.8,-51.7,72,3.956,3.97,3.966,3.944,0,0,11.962,116.51,1695.2354594313,2.296588,6,P-GPS,
340900,2025-09-03 09:45:17,48.148729901169,11.5721403412611,2.624672,,,1695.5635434313,3.28084,0,17.9916672424,2.72071531016,7,0,15.664,1695.5635434313,2.624672,0.8052984,17.9916672424,0,0,-0.894776,272.6, 0.6, -1.1,0,0,1024,1024,1180,1024,0,0,24,0,307.7,53.9,-51.9,72,3.956,3.97,3.966,3.944,0,0,11.962,116.51,1695.5635434313,2.624672,6,P-GPS,
341000,2025-09-03 09:45:18,48.1487298943735,11.5721403085115,2.624672,,,1695.5635434313,3.28084,0,17.9991147492,2.72906176712,7,0,15.664,1695.5635434313,2.624672,0.8052984,17.9991147492,0,0,-0.894776,272.5, 1.1, -1.3,0,0,1024,1024,1181,1024,0,0,24,0,308.5,55.1,-52.5,72,3.956,3.97,3.966,3.944,0,0,11.962,116.51,1695.5635434313,2.624672,6,P-GPS,
341100,2025-09-03 09:45:18,48.1487298864739,11.5721402895769,2.952756,,,1695.8916274313,3.608924,0,18.00442971,2.734498119,8,0,15.664,1695.8916274313,2.952756,0.8052984,18.00442971,0,0,-1.11847,272.7, 1.2, -1,0,0,1024,1024,1180,1024,0,0,24,0,307.5,53.5,-51.4,72,3.956,3.97,3.966,3.944,0,0,11.962,116.51,1695.8916274313,2.952756,6,P-GPS,
341200,2025-09-03 09:45:18,48.1487298838961,11.5721402753928,2.952756,,,1695.8916274313,3.608924,0,18.007546508,2.73807751544,8,0,15.664,1695.8916274313,2.952756,0.8052984,18.007546508,0,0,-1.11847,272.8, 1.2, -0.8,0,0,1024,1024,1180,1024,0,0,24,0,309.9,55.9,-52.5,72,3.956,3.97,3.966,3.944,0,0,11.962,116.51,1695.8916274313,2.952756,6,P-GPS,
341300,2025-09-03 09:45:18,48.1487298906053,11.5721402782078,3.28084,,,1696.2197114313,3.937008,0,18.0053483452,2.74062016644,9,0,15.664,1696.2197114313,3.28084,0.8052984,18.007546508,0,0,-1.11847,272.6, 1.7, -2,0,0,1024,1024,1175,1024,0,0,23,0,310.5,55.7,-52.9,72,3.956,3.97,3.966,3.944,0,0,11.962,116.51,1696.2197114313,3.28084,6,P-GPS,
341400,2025-09-03 09:45:18,48.1487298905922,11.5721403045507,3.28084,,,1696.2197114313,3.937008,0,18.0007551692,2.7470309278,9,0,15.664,1696.2197114313,3.28084,0.8052984,18.007546508,0,0,-1.11847,272.7, 1.3, -2.5,0,0,1024,1024,1176,1024,0,0,23,0,310.5,55.7,-52.9,72,3.956,3.97,3.966,3.944,0,0,11.962,116.51,1696.2197114313,3.28084,6,P-GPS,
341500,2025-09-03 09:45:18,48.1487298915156,11.5721403234018,3.608924,,,1696.5477954313,4.265092,0,17.9972446704,2.75163394632,8,0,15.577,1696.5477954313,3.608924,0.8052984,18.007546508,0,0,-1.11847,272.7, 0.9, -1.9,0,0,1024,1024,1174,1024,0,0,23,0,309.1,54.6,-52.4,72,3.906,3.929,3.926,3.9,0,0,17.83,116.51,1696.5477954313,3.608924,6,P-GPS,
341600,2025-09-03 09:45:18,48.1487298707464,11.5721403762223,3.608924,,,1696.5477954313,4.265092,0,17.9933076624,2.76655848748,8,0,15.577,1696.5477954313,3.608924,0.8052984,18.007546508,0,0,-1.11847,272.6, 0.2, -2,0,0,1024,1024,1175,1024,0,0,23,0,309.4,53.8,-52.7,72,3.906,3.929,3.926,3.9,0,0,17.83,116.51,1696.5477954313,3.608924,6,P-GPS,
341700,2025-09-03 09:45:18,48.1487298376238,11.572140429826,3.937008,,,1696.8758794313,4.593176,0,17.9924218356,2.78434392112,8,0,15.577,1696.8758794313,3.937008,0.8052984,18.007546508,0,0,-1.11847,272.7, 0, -2.2,0,0,1024,1024,1182,1024,0,0,24,0,308.8,53.3,-53,72,3.906,3.929,3.926,3.9,0,0,17.83,116.51,1696.8758794313,3.937008,6,P-GPS,
341800,2025-09-03 09:45:18,48.1487297945417,11.572140480406,3.937008,,,1696.8758794313,4.593176,0,17.99458719,2.80431111336,8,0,15.577,1696.8758794313,3.937008,0.8052984,18.007546508,0,0,-1.11847,272.6, 0.1, -1.9,0,0,1024,1024,1184,1024,0,0,24,0,309.8,53.1,-53.2,72,3.906,3.929,3.926,3.9,0,0,17.83,116.51,1696.8758794313,3.937008,6,P-GPS,
341900,2025-09-03 09:45:18,48.1487297511307,11.5721405526972,4.265092,,,1697.2039634313,4.92126,0,17.993110812,2.8279856548,7,0,15.577,1697.2039634313,4.265092,0.8052984,18.007546508,0,0,-1.11847,272.7, 0.5, -1.9,0,0,1024,1024,1184,1024,0,0,24,0,310.1,53.9,-52.1,72,3.906,3.929,3.926,3.9,0,0,17.83,116.51,1697.2039634313,4.265092,6,P-GPS,
342000,2025-09-03 09:45:19,48.1487296981313,11.5721406027572,4.593176,,,1697.5320474313,5.249344,0,17.9979664552,2.85083998624,7,0,15.577,1697.5320474313,4.593176,0.8052984,18.007546508,0,0,-1.11847,272.7, 0.7, -1.6,0,0,1024,1024,1184,1024,0,0,24,0,308.4,52.4,-53.2,72,3.906,3.929,3.926,3.9,0,0,17.83,116.51,1697.5320474313,4.593176,6,P-GPS,
342100,2025-09-03 09:45:19,48.1487296409371,11.5721406617084,4.593176,,,1697.5320474313,5.249344,0,18.0023955892,2.87616807104,7,0,15.577,1697.5320474313,4.593176,0.8052984,18.007546508,0,0,-1.11847,272.6, 0.5, -1.9,0,0,1024,1024,1184,1024,0,0,24,0,308.8,52.5,-54.1,72,3.906,3.929,3.926,3.9,0,0,17.83,116.51,1697.5320474313,4.593176,6,P-GPS,
342200,2025-09-03 09:45:19,48.14872957435,11.5721407293903,4.92126,,,1697.8601314313,5.577428,0,18.0077433584,2.90552174652,7,0,15.577,1697.8601314313,4.92126,0.8052984,18.0077433584,0,0,-1.11847,272.6, 0.4, -2.5,0,0,1024,1024,1181,1024,0,0,24,0,309.8,53.2,-53.4,72,3.906,3.929,3.926,3.9,0,0,17.83,116.51,1697.8601314313,4.92126,6,P-GPS,
342300,2025-09-03 09:45:19,48.1487294939245,11.5721408072697,4.92126,,,1697.8601314313,5.577428,0,18.0149612064,2.94045613084,8,2,15.577,1697.8601314313,4.92126,0.8052984,18.0149612064,0,0,-1.11847,272.6, 0.4, -2.2,0,0,1024,1024,1182,1024,0,0,24,0,309.5,52.7,-52.5,72,3.906,3.929,3.926,3.9,0,0,17.83,116.51,1697.8601314313,4.92126,6,P-GPS,
342400,2025-09-03 09:45:19,48.1487293619879,11.5721409113025,5.249344,,,1698.1882154313,5.905512,0,18.0309717056,2.9948491772,8,2,15.577,1698.1882154313,5.249344,0.8052984,18.0309717056,0,0,-1.11847,272.7, 0.4, -1.6,0,0,1024,1024,1181,1024,0,0,24,0,309.1,52.3,-52.9,72,3.906,3.929,3.926,3.9,0,0,17.83,116.51,1698.1882154313,5.249344,6,P-GPS,
342500,2025-09-03 09:45:19,48.1487292613338,11.5721410112333,5.249344,,,1698.1882154313,6.233596,0,18.0397971652,3.03889773504,7,2,15.524,1698.1882154313,5.249344,0.8052984,18.0397971652,0,0,-1.11847,272.7, 0.2, -1.5,0,0,1024,1024,1184,1024,0,0,24,0,308.7,51.9,-53.2,72,3.894,3.919,3.918,3.892,0,0,18.374,116.51,1698.1882154313,5.249344,6,P-GPS,
342600,2025-09-03 09:45:19,48.1487291603344,11.5721411210341,5.577428,,,1698.5162994313,6.233596,0,18.04708063,3.08441939004,7,2,15.524,1698.5162994313,5.577428,0.8052984,18.04708063,0,0,-1.11847,272.7, 0.1, -1.7,0,0,1024,1024,1185,1024,0,0,24,0,308.7,51.9,-53.2,72,3.894,3.919,3.918,3.892,0,0,18.374,116.51,1698.5162994313,5.577428,6,P-GPS,
342700,2025-09-03 09:45:19,48.1487290562866,11.5721412373541,5.905512,,,1698.8443834313,6.56168,0,18.0541672444,3.13177831544,7,2,15.524,1698.8443834313,5.905512,0.8052984,18.0541672444,0,0,-1.11847,272.8, -0.1, -1.7,0,0,1024,1024,1180,1024,0,0,24,0,310.2,52.8,-53.3,72,3.894,3.919,3.918,3.892,0,0,18.374,116.51,1698.8443834313,5.905512,6,P-GPS,
342800,2025-09-03 09:45:19,48.1487289055644,11.572141387454,5.905512,,,1698.8443834313,6.56168,0,18.0678155388,3.1978019396,7,2,15.524,1698.8443834313,5.905512,0.8052984,18.0678155388,0,0,-1.11847,272.8, -0.6, -1.3,0,0,1024,1024,1186,1024,0,0,25,0,309,51.5,-52.2,72,3.894,3.919,3.918,3.892,0,0,18.374,116.51,1698.8443834313,5.905512,6,P-GPS,
342900,2025-09-03 09:45:20,48.1487287975008,11.5721414817291,6.233596,,,1699.1724674313,6.889764,0,18.0799874552,3.2434220198,8,2,15.524,1699.1724674313,6.233596,0.8052984,18.0799874552,0,0,-1.11847,272.7, -0.8, -0.9,0,0,1024,1024,1181,1024,0,0,24,0,307.9,50.6,-52.6,72,3.894,3.919,3.918,3.892,0,0,18.374,116.51,1699.1724674313,6.233596,6,P-GPS,
343000,2025-09-03 09:45:20,48.1487286966285,11.5721415625776,6.233596,,,1699.1724674313,6.889764,0,18.0926514976,3.2851707088,8,2,15.524,1699.1724674313,6.233596,0.8052984,18.0926514976,0,0,-1.11847,272.8, -0.4, -0.9,0,0,1024,1024,1179,1024,0,0,23,0,307.9,50.4,-53.3,72,3.894,3.919,3.918,3.892,0,0,18.374,116.51,1699.1724674313,6.233596,6,P-GPS,
343100,2025-09-03 09:45:20,48.1487286028464,11.5721416332445,6.56168,,,1699.5005514313,7.217848,0,18.1052827316,3.3234581116,8,2,15.524,1699.5005514313,6.56168,0.8052984,18.1052827316,0,0,-1.11847,272.8, -0.3, -1,0,0,1024,1024,1182,1024,0,0,24,0,308.1,50.8,-53.1,72,3.894,3.919,3.918,3.892,0,0,18.374,116.51,1699.5005514313,6.56168,6,P-GPS,
343200,2025-09-03 09:45:20,48.1487285608163,11.5721417877226,6.56168,,,1699.5005514313,7.217848,0,18.090223676,3.3640749108,8,2,15.524,1699.5005514313,6.56168,0.8052984,18.1052827316,0,0,-1.11847,272.7, -0.3, -1,0,0,1024,1024,1189,1024,0,0,25,0,308,50.7,-53.6,72,3.894,3.919,3.918,3.892,0,0,18.374,116.51,1699.5005514313,6.56168,6,P-GPS,
343300,2025-09-03 09:45:20,48.1487285010882,11.5721418649184,6.889764,,,1699.8286354313,7.545932,0,18.0929139648,3.3928478776,9,2,15.524,1699.8286354313,6.889764,0.8052984,18.1052827316,0,0,-1.11847,272.6, -0.5, -1.4,0,0,1024,1024,1188,1024,0,0,25,0,308.1,50.7,-54.1,72,3.894,3.919,3.918,3.892,0,0,18.374,116.51,1699.8286354313,6.889764,6,P-GPS,
343400,2025-09-03 09:45:20,48.1487284482224,11.5721419259559,6.889764,,,1699.8286354313,7.545932,0,18.0965556972,3.4171917104,9,2,15.524,1699.8286354313,6.889764,0.8052984,18.1052827316,0,0,-1.11847,272.5, -0.7, -1.6,0,0,1024,1024,1187,1024,0,0,25,0,308.2,50.5,-53.7,72,3.894,3.919,3.918,3.892,0,0,18.374,116.51,1699.8286354313,6.889764,6,P-GPS,
343500,2025-09-03 09:45:20,48.1487283994375,11.5721419696188,7.217848,,,1700.1567194313,7.874016,0,18.1021003168,3.4379266192,8,2,15.514,1700.1567194313,7.217848,0.8052984,18.1052827316,0,0,-1.11847,272.5, -0.8, -1.5,0,0,1024,1024,1190,1024,0,0,25,0,309.1,51,-53.7,72,3.887,3.911,3.907,3.88,0,0,18.404,116.51,1700.1567194313,7.217848,6,P-GPS,
343600,2025-09-03 09:45:20,48.1487283202039,11.5721418997158,7.545932,,,1700.4848034313,8.2021,0,18.1347446748,3.471456804,8,2,15.514,1700.4848034313,7.545932,0.8052984,18.1347446748,0,0,-1.342164,272.7, -0.5, -2,0,0,1024,1024,1197,1024,0,0,26,0,309,52.4,-53.5,72,3.887,3.911,3.907,3.88,0,0,18.404,116.51,1700.4848034313,7.545932,6,P-GPS,
343700,2025-09-03 09:45:20,48.148728268097,11.5721418931839,7.545932,,,1700.4848034313,8.2021,0,18.14960688,3.4905512928,7,2,15.514,1700.4848034313,7.545932,0.8052984,18.14960688,0,0,-1.342164,273, 0.2, -1.8,0,0,1024,1024,1198,1024,0,0,26,0,308.9,52.7,-54.5,72,3.887,3.911,3.907,3.88,0,0,18.404,116.51,1700.4848034313,7.545932,6,P-GPS,
343800,2025-09-03 09:45:20,48.148728222963,11.5721418818982,7.874016,,,1700.8128874313,8.530184,0,18.1634192164,3.5072507684,7,2,15.514,1700.8128874313,7.874016,0.8052984,18.1634192164,0,0,-1.342164,273, 0.3, -1.8,0,0,1024,1024,1194,1024,0,0,26,0,308.9,52.7,-54.5,72,3.887,3.911,3.907,3.88,0,0,18.404,116.51,1700.8128874313,7.874016,6,P-GPS,
343900,2025-09-03 09:45:20,48.1487281818936,11.5721418756391,7.874016,,,1700.8128874313,8.530184,0,18.1753286656,3.522309824,7,2,15.514,1700.8128874313,7.874016,0.8052984,18.1753286656,0,0,-1.342164,272.9, 0.6, -2.3,0,0,1024,1024,1192,1024,0,0,25,0,309.5,53.3,-55,72,3.887,3.911,3.907,3.88,0,0,18.404,116.51,1700.8128874313,7.874016,6,P-GPS,
344000,2025-09-03 09:45:21,48.1487281381862,11.5721418802323,8.2021,,,1701.1409714313,8.858268,0,18.1861226292,3.5382875148,7,2,15.514,1701.1409714313,8.2021,0.8052984,18.1861226292,0,0,-1.342164,272.9, 0.5, -3,0,0,1024,1024,1191,1024,0,0,25,0,310.7,54,-54.7,72,3.887,3.911,3.907,3.88,0,0,18.404,116.51,1701.1409714313,8.2021,6,P-GPS,
344100,2025-09-03 09:45:21,48.1487281213253,11.5721418221349,8.530184,,,1701.4690554313,8.858268,0,18.2003286664,3.5537074628,8,2,15.514,1701.4690554313,8.530184,0.8052984,18.2003286664,0,0,-1.342164,272.9, 0.7, -3.2,0,0,1024,1024,1191,1024,0,0,25,0,311,54.9,-54.6,72,3.887,3.911,3.907,3.88,0,0,18.404,116.51,1701.4690554313,8.530184,6,P-GPS,
344200,2025-09-03 09:45:21,48.14872805154,11.5721418418238,8.530184,,,1701.4690554313,9.186352,0,18.2155189556,3.5796260988,8,2,15.514,1701.4690554313,8.530184,0.8052984,18.2155189556,0,0,-1.342164,272.9, 1.2, -2.7,0,0,1024,1024,1189,1024,0,0,25,0,309.4,53.5,-54.7,72,3.887,3.911,3.907,3.88,0,0,18.404,116.51,1701.4690554313,8.530184,6,P-GPS,
344300,2025-09-03 09:45:21,48.1487279689844,11.5721418820908,8.858268,,,1701.7971394313,9.514436,0,18.230643628,3.6112862048,10,2,15.514,1701.7971394313,8.858268,0.8052984,18.230643628,0,0,-1.342164,272.7, 1.1, -2.6,0,0,1024,1024,1189,1024,0,0,25,0,309.2,53.3,-55,72,3.887,3.911,3.907,3.88,0,0,18.404,116.51,1701.7971394313,8.858268,6,P-GPS,
344400,2025-09-03 09:45:21,48.1487278756061,11.5721419443192,9.186352,,,1702.1252234313,9.514436,0,18.2450465156,3.6485565472,10,2,15.514,1702.1252234313,9.186352,0.8052984,18.2450465156,0,0,-1.342164,272.7, 1, -2.4,0,0,1024,1024,1189,1024,0,0,25,0,309.8,53.7,-54.4,72,3.887,3.911,3.907,3.88,0,0,18.404,116.51,1702.1252234313,9.186352,6,P-GPS,
344500,2025-09-03 09:45:21,48.1487277987631,11.5721420855761,9.186352,,,1702.1252234313,9.84252,0,18.241962526,3.6929463124,10,2,15.473,1702.1252234313,9.186352,0.8052984,18.2450465156,0,0,-1.342164,272.7, 0.6, -2.3,0,0,1024,1024,1189,1024,0,0,25,0,310,52.9,-54.4,72,3.887,3.911,3.907,3.88,0,0,18.404,116.51,1702.1252234313,9.186352,6,P-GPS,
344600,2025-09-03 09:45:21,48.1487276910122,11.5721421975211,9.514436,,,1702.4533074313,10.170604,0,18.2521003216,3.7407809596,10,2,15.473,1702.4533074313,9.514436,0.8052984,18.2521003216,0,0,-1.342164,272.7, 0.4, -2.2,0,0,1024,1024,1190,1024,0,0,25,0,309.8,53.1,-54.4,72,3.887,3.911,3.907,3.88,0,0,18.404,116.51,1702.4533074313,9.514436,6,P-GPS,
344700,2025-09-03 09:45:21,48.1487275691525,11.5721423294311,9.84252,,,1702.7813914313,10.170604,0,18.26279586,3.795603796,8,2,15.473,1702.7813914313,9.84252,0.8052984,18.26279586,0,0,-1.342164,272.7, 0.7, -2.1,0,0,1024,1024,1191,1024,0,0,25,0,310.4,53.3,-54.1,72,3.887,3.911,3.907,3.88,0,0,18.404,116.51,1702.7813914313,9.84252,6,P-GPS,
344800,2025-09-03 09:45:21,48.1487274299075,11.5721424786098,9.84252,,,1702.7813914313,10.498688,0,18.2754927108,3.8580709896,8,2,15.473,1702.7813914313,9.84252,0.8052984,18.2754927108,0,0,-1.342164,272.7, 0.5, -2,0,0,1024,1024,1197,1024,0,0,26,0,309.3,51.9,-54.2,72,3.887,3.911,3.907,3.88,0,0,18.404,116.51,1702.7813914313,9.84252,6,P-GPS,
344900,2025-09-03 09:45:21,48.1487272923235,11.5721426421684,10.170604,,,1703.1094754313,10.498688,0,18.285597698,3.9221457948,8,2,15.473,1703.1094754313,10.170604,0.8052984,18.285597698,0,0,-1.342164,272.7, 0, -1.8,0,0,1024,1024,1192,1024,0,0,25,0,309.6,51.7,-54.4,72,3.887,3.911,3.907,3.88,0,0,18.404,116.51,1703.1094754313,10.170604,6,P-GPS,
345000,2025-09-03 09:45:22,48.1487271236037,11.5721428172438,10.170604,,,1703.1094754313,10.826772,0,18.3024612156,3.9970145636,8,2,15.473,1703.1094754313,10.170604,0.8052984,18.3024612156,0,0,-1.342164,272.7, -0.2, -1.9,0,0,1024,1024,1185,1024,0,0,24,0,309.6,51.7,-54.4,72,3.887,3.911,3.907,3.88,0,0,18.404,116.51,1703.1094754313,10.170604,6,P-GPS,
345100,2025-09-03 09:45:22,48.1487269374758,11.5721430000292,10.498688,,,1703.4375594313,10.826772,0.223694,18.3230648908,4.0781825452,8,2,15.473,1703.4375594313,10.498688,0.8052984,18.3230648908,-0.223694,0,-1.342164,272.8, -0.1, -1.2,0,0,1024,1024,1190,1024,0,0,25,0,309,51.5,-53.9,72,3.887,3.911,3.907,3.88,0,0,18.404,116.51,1703.4375594313,10.498688,6,P-GPS,
345200,2025-09-03 09:45:22,48.1487267416457,11.5721431957821,10.826772,,,1703.7656434313,11.154856,0.3131716,18.3445215844,4.1640749364,8,2,15.473,1703.7656434313,10.826772,0.8052984,18.3445215844,-0.223694,0.223694,-1.342164,272.7, 0.2, -0.6,0,0,1024,1024,1191,1024,0,0,25,0,307.9,51.1,-53.7,72,3.887,3.911,3.907,3.88,0,0,18.404,116.51,1703.7656434313,10.826772,6,P-GPS,
345300,2025-09-03 09:45:22,48.1487264796421,11.5721434248174,10.826772,,,1703.7656434313,11.154856,0.3131716,18.3791672548,4.2747376696,8,2,15.473,1703.7656434313,10.826772,0.8052984,18.3791672548,-0.223694,0.223694,-1.342164,272.6, 0, -0.2,0,0,1024,1024,1193,1024,0,0,26,0,306.7,49.9,-53.6,72,3.887,3.911,3.907,3.88,0,0,18.404,116.51,1703.7656434313,10.826772,6,P-GPS,
345400,2025-09-03 09:45:22,48.1487262805811,11.5721436513941,11.154856,,,1704.0937274313,11.48294,0.3131716,18.3974415336,4.3659450216,8,2,15.473,1704.0937274313,11.154856,0.8052984,18.3974415336,-0.223694,0.223694,-1.342164,272.5, -1.1, 0.1,0,0,1024,1024,1193,1024,0,0,26,0,306.3,48.2,-53.3,72,3.887,3.911,3.907,3.88,0,0,18.404,116.51,1704.0937274313,11.154856,6,P-GPS,
345500,2025-09-03 09:45:22,48.1487260955768,11.572143871458,11.154856,,,1704.0937274313,11.48294,0,18.4133207992,4.45209988,7,2,15.466,1704.0937274313,11.154856,0.8052984,18.4133207992,0,0,-1.342164,272.5, -1.6, 0.1,0,0,1024,1024,1193,1024,0,0,26,0,306.7,48.2,-53.8,71,3.887,3.911,3.907,3.88,0,0,18.246,116.51,1704.0937274313,11.154856,6,P-GPS,
345600,2025-09-03 09:45:22,48.148725923193,11.5721440760925,11.48294,,,1704.4218114313,11.811024,0,18.4285438968,4.5323492264,7,2,15.466,1704.4218114313,11.48294,0.8052984,18.4285438968,0,0,-1.342164,272.5, -1.6, -0.2,0,0,1024,1024,1194,1024,0,0,26,0,307.6,49.3,-54.2,71,3.887,3.911,3.907,3.88,0,0,18.246,116.51,1704.4218114313,11.48294,6,P-GPS,
345700,2025-09-03 09:45:22,48.1487257599512,11.5721442646972,11.811024,,,1704.7498954313,11.811024,0,18.44406227,4.6075460792,7,2,15.466,1704.7498954313,11.811024,0.8052984,18.44406227,0,0,-1.342164,272.5, -1.3, -0.4,0,0,1024,1024,1194,1024,0,0,26,0,308.3,50.2,-54.2,71,3.887,3.911,3.907,3.88,0,0,18.246,116.51,1704.7498954313,11.811024,6,P-GPS,
345800,2025-09-03 09:45:22,48.148711454657,11.5721617652349,11.811024,,,1704.7498954313,12.139108,0,20.7510833412,11.3447182108,7,2,15.466,1704.7498954313,11.811024,0.8052984,20.7510833412,0,0,-1.342164,272.5, -1.1, -0.7,0,0,1024,1024,1195,1024,0,0,26,0,307.8,49.6,-54.7,71,3.887,3.911,3.907,3.88,0,0,18.246,116.51,1704.7498954313,11.811024,6,P-GPS,
345900,2025-09-03 09:45:22,48.1486910192188,11.5721867323507,12.139108,,,1705.0779794313,12.467192,0,26.7818906208,20.9638458152,7,2,15.466,1705.0779794313,12.139108,0.8052984,26.7818906208,0,0,-1.342164,272.5, -1.4, -0.5,0,0,1024,1024,1192,1024,0,0,25,0,307.3,49.1,-54.3,71,3.887,3.911,3.907,3.88,0,0,18.246,116.51,1705.0779794313,12.139108,6,P-GPS,
346000,2025-09-03 09:45:23,48.1486853629163,11.5721937674063,12.139108,,,1705.0779794313,12.467192,0,28.797901184,23.6455716228,7,2,15.466,1705.0779794313,12.139108,0.8052984,28.797901184,0,0,-1.342164,272.5, -1.4, -0.3,0,0,1024,1024,1196,1024,0,0,26,0,306.7,48.9,-54.2,71,3.887,3.911,3.907,3.88,0,0,18.246,116.51,1705.0779794313,12.139108,6,P-GPS,
346100,2025-09-03 09:45:23,48.1486860235239,11.5721931300602,12.467192,,,1705.4060634313,12.795276,0,28.5566938272,23.9322186136,7,2,15.466,1705.4060634313,12.467192,0.8052984,28.797901184,0,0,-1.342164,272.5, -1.2, -0.1,0,0,1024,1024,1193,1024,0,0,26,0,306.9,49.1,-54,71,3.887,3.911,3.907,3.88,0,0,18.246,116.51,1705.4060634313,12.467192,6,P-GPS,
346200,2025-09-03 09:45:23,48.1486866554774,11.5721929735166,12.795276,,,1705.7341474313,12.795276,0,28.3262148172,24.1659128468,7,2,15.466,1705.7341474313,12.795276,0.8052984,28.797901184,0,0,-1.342164,272.5, -1.2, 0.1,0,0,1024,1024,1189,1024,0,0,25,0,306.9,49.1,-54,71,3.887,3.911,3.907,3.88,0,0,18.246,116.51,1705.7341474313,12.795276,6,P-GPS,
346300,2025-09-03 09:45:23,48.1486872959249,11.5721930092481,12.795276,,,1705.7341474313,13.12336,0,28.092520584,24.3997383136,7,2,15.466,1705.7341474313,12.795276,0.8052984,28.797901184,0,0,-1.342164,272.5, -1.5, 0.3,0,0,1024,1024,1190,1024,0,0,25,0,307,48.9,-53.8,71,3.887,3.911,3.907,3.88,0,0,18.246,116.51,1705.7341474313,12.795276,6,P-GPS,
346400,2025-09-03 09:45:23,48.1486877215676,11.5721930050063,13.12336,,,1706.0622314313,13.451444,0,27.9372384268,24.5550204708,7,2,15.466,1706.0622314313,13.12336,0.8052984,28.797901184,0,0,-1.342164,272.5, -1.6, 0.4,0,0,1024,1024,1203,1024,0,0,27,0,305.7,47.7,-54.4,71,3.887,3.911,3.907,3.88,0,0,18.246,116.51,1706.0622314313,13.12336,6,P-GPS,
346500,2025-09-03 09:45:23,48.1486880639251,11.5721929837527,13.451444,,,1706.3903154313,13.451444,0,27.812336848,24.6800532832,7,2,15.444,1706.3903154313,13.451444,0.8052984,28.797901184,0,0,-1.342164,272.6, -1.5, -0.3,0,0,989,1024,1212,1024,-5,0,28,0,307.2,49,-54.8,71,3.882,3.907,3.905,3.877,0,0,18.246,116.51,1706.3903154313,13.451444,6,P-GPS,
346600,2025-09-03 09:45:23,48.1486897221175,11.5721916202132,13.451444,,,1706.3903154313,13.779528,0,27.2103355164,25.3701123604,7,2,15.444,1706.3903154313,13.451444,0.8052984,28.797901184,0,0,-1.342164,272.8, -1.4, -0.8,0,0,923,1024,1225,1024,-15,0,30,0,307.9,49.7,-54.6,71,3.882,3.907,3.905,3.877,0,0,18.246,116.51,1706.3903154313,13.451444,6,P-GPS,
346700,2025-09-03 09:45:23,48.1486904889844,11.5721909976313,13.779528,,,1706.7183994313,14.107612,0,26.9333341952,25.688321032,7,2,15.444,1706.7183994313,13.779528,0.8052984,28.797901184,0,0,-1.342164,272.9, -1.6, -0.8,0,0,908,1024,1222,1024,-18,0,30,0,307.7,49.3,-54.7,71,3.882,3.907,3.905,3.877,0,0,18.246,116.51,1706.7183994313,13.779528,6,P-GPS,
346800,2025-09-03 09:45:23,48.1486911906353,11.5721901372466,14.107612,,,1707.0464834313,14.107612,0,26.6826124024,26.0190625124,7,3,15.444,1707.0464834313,14.107612,0.8052984,28.797901184,0,0,-1.565858,273, -1.1, -0.7,0,0,901,1024,1217,1024,-19,0,29,0,307.2,49.7,-54.6,71,3.882,3.907,3.905,3.877,0,0,18.246,116.51,1707.0464834313,14.107612,6,P-GPS,
346900,2025-09-03 09:45:24,48.1486918985525,11.5721891674309,14.107612,,,1707.0464834313,14.435696,0,26.432415544,26.3689969068,8,3,15.444,1707.0464834313,14.107612,0.8052984,28.797901184,0,0,-1.565858,272.9, -0.1, -0.4,0,0,892,1024,1219,1024,-20,0,30,0,306.6,50.1,-54.8,71,3.882,3.907,3.905,3.877,0,0,18.246,116.51,1707.0464834313,14.107612,6,P-GPS,
347000,2025-09-03 09:45:24,48.1486927141749,11.5721866078939,14.435696,,,1707.3745674313,14.76378,0,26.1664706536,27.0594496848,8,3,15.444,1707.3745674313,14.435696,0.8052984,28.797901184,0,0,-1.789552,272.8, 0.3, -0.3,0,0,904,1024,1217,1024,-18,0,29,0,308,51.3,-55.4,71,3.882,3.907,3.905,3.877,0,0,18.246,116.51,1707.3745674313,14.435696,6,P-GPS,
347100,2025-09-03 09:45:24,48.148693191283,11.5721857680374,14.76378,,,1707.7026514313,14.76378,0,26.00639847,27.3279864388,9,3,15.444,1707.7026514313,14.76378,0.8052984,28.797901184,0,0.223694,-1.789552,272.8, 0.3, -0.8,0,0,917,1024,1219,1024,-16,0,30,0,308.7,51.7,-55.8,71,3.882,3.907,3.905,3.877,0,0,18.246,116.51,1707.7026514313,14.76378,6,P-GPS,
347200,2025-09-03 09:45:24,48.1486934195908,11.5721852227986,15.091864,,,1708.0307354313,15.091864,0.223694,25.9330388876,27.4846793572,9,3,15.444,1708.0307354313,15.091864,0.8052984,28.797901184,0,0.223694,-1.789552,272.9, 0, -1.3,0,0,917,1024,1223,1024,-16,0,30,0,309.4,52.2,-55.9,71,3.882,3.907,3.905,3.877,0,0,18.246,116.51,1708.0307354313,15.091864,6,P-GPS,
347300,2025-09-03 09:45:24,48.1486935430985,11.5721847854058,15.419948,,,1708.3588194313,15.419948,0.223694,25.8964247132,27.6002961588,10,3,15.444,1708.3588194313,15.419948,0.8052984,28.797901184,0,0.223694,-1.789552,273, 0, -1.2,0,0,909,1024,1219,1024,-17,0,30,0,307.8,50.8,-55.4,71,3.882,3.907,3.905,3.877,0,0,18.246,116.51,1708.3588194313,15.419948,6,P-GPS,
347400,2025-09-03 09:45:24,48.148693484455,11.572184385536,15.419948,,,1708.3588194313,15.748032,0.223694,25.9257226144,27.699968078,10,3,15.444,1708.3588194313,15.419948,0.8052984,28.797901184,0,0.223694,-1.789552,273.1, 0, -0.5,0,0,879,1024,1218,1024,-22,0,29,0,306.8,50.2,-56.2,71,3.882,3.907,3.905,3.877,0,0,18.246,116.51,1708.3588194313,15.419948,6,P-GPS,
347500,2025-09-03 09:45:24,48.1486920172661,11.5721840347662,15.748032,,,1708.6869034313,16.076116,0.447388,26.4663066212,28.2420284628,8,3,15.42,1708.6869034313,15.748032,0.8052984,28.797901184,0,0.447388,-1.789552,273.2, 0.3, -0.7,0,0,895,1024,1216,1024,-20,0,29,0,306.8,50.2,-56.2,71,3.875,3.9,3.897,3.869,0,0,18.596,116.51,1708.6869034313,15.748032,6,P-GPS,
347600,2025-09-03 09:45:24,48.1486918409056,11.5721840720998,16.076116,,,1709.0149874313,16.4042,0.447388,26.5296596416,28.3070219032,8,3,15.42,1709.0149874313,16.076116,0.8052984,28.797901184,0,0.447388,-1.789552,273.2, 0.7, -1.1,0,0,900,1024,1217,1024,-19,0,29,0,308.6,52.5,-55.8,71,3.875,3.9,3.897,3.869,0,0,18.596,116.51,1709.0149874313,16.076116,6,P-GPS,
347700,2025-09-03 09:45:24,48.148691650065,11.5721843417158,16.4042,,,1709.3430714313,16.4042,0.447388,26.5935704048,28.4026911976,8,3,15.42,1709.3430714313,16.4042,0.8052984,28.797901184,0,0.447388,-1.789552,273.4, 0.4, -1,0,0,919,1024,1209,1024,-16,0,28,0,308.8,52.4,-55.5,71,3.875,3.9,3.897,3.869,0,0,18.596,116.51,1709.3430714313,16.4042,6,P-GPS,
347800,2025-09-03 09:45:24,48.1486917991002,11.5721844310438,16.732284,,,1709.6711554313,16.732284,0.447388,26.5375992744,28.4612541916,8,3,15.42,1709.6711554313,16.732284,0.8052984,28.797901184,0,0.447388,-1.789552,273.3, 0.4, -0.8,0,0,942,1024,1207,1024,-12,0,28,0,306.8,50.6,-56.8,71,3.875,3.9,3.897,3.869,0,0,18.596,116.51,1709.6711554313,16.732284,6,P-GPS,
347900,2025-09-03 09:45:24,48.1486920020108,11.5721853873587,17.060368,,,1709.9992394313,17.060368,0.4921268,26.4458341796,28.705545538,7,3,15.42,1709.9992394313,17.060368,0.8052984,28.797901184,-0.223694,0.447388,-1.789552,273.2, 0.6, -0.8,0,0,953,1024,1209,1024,-11,0,28,0,307.9,51.8,-55.6,71,3.875,3.9,3.897,3.869,0,0,18.596,116.51,1709.9992394313,17.060368,6,P-GPS,
348000,2025-09-03 09:45:25,48.1486924862123,11.5721854689241,17.060368,,,1709.9992394313,17.060368,0.4921268,26.2681766936,28.8833014492,7,3,15.42,1709.9992394313,17.060368,0.8052984,28.797901184,-0.223694,0.447388,-1.565858,273.2, 0.8, -0.5,0,0,867,1024,1222,1024,-24,0,30,0,307.4,51.5,-55.2,71,3.875,3.9,3.897,3.869,0,0,18.596,116.51,1709.9992394313,17.060368,6,P-GPS,
348100,2025-09-03 09:45:25,48.1486930491394,11.5721856164201,17.388452,,,1710.3273234313,17.388452,0.7158208,26.0607291804,29.0917988312,9,3,15.42,1710.3273234313,17.388452,0.8052984,28.797901184,-0.223694,0.671082,-1.565858,273.1, 0.8, 0,0,0,850,1024,1222,1024,-26,0,30,0,305.7,49.7,-55.7,71,3.875,3.9,3.897,3.869,0,0,18.596,116.51,1710.3273234313,17.388452,6,P-GPS,
348200,2025-09-03 09:45:25,48.1486933166015,11.5721864253252,17.716536,,,1710.6554074313,17.716536,0.7158208,25.949968022,29.3115823028,9,3,15.42,1710.6554074313,17.716536,0.8052984,28.797901184,-0.223694,0.671082,-1.565858,273.1, 0.2, 0.6,0,0,871,1024,1212,1024,-23,0,28,0,306.1,49.8,-55,71,3.875,3.9,3.897,3.869,0,0,18.596,116.51,1710.6554074313,17.716536,6,P-GPS,
348300,2025-09-03 09:45:25,48.148694038126,11.5721890258546,18.04462,,,1710.9834914313,18.04462,0.894776,25.6537409784,29.9971794376,10,3,15.42,1710.9834914313,18.04462,0.894776,28.797901184,0,0.894776,-1.565858,273.1, 0, 0.6,0,0,902,1024,1209,1024,-18,0,28,0,306.2,49.6,-54.6,71,3.875,3.9,3.897,3.869,0,0,18.596,116.51,1710.9834914313,18.04462,6,P-GPS,
348400,2025-09-03 09:45:25,48.148694162044,11.5721901628046,18.372704,,,1711.3115754313,18.372704,0.894776,25.5987869084,30.2775928324,10,3,15.42,1711.3115754313,18.372704,0.894776,28.797901184,0,0.894776,-1.789552,273, -0.2, 0.5,0,0,953,1024,1204,1024,-11,0,27,0,305.9,49.1,-55.6,71,3.875,3.9,3.897,3.869,0,0,18.596,116.51,1711.3115754313,18.372704,6,P-GPS,
348500,2025-09-03 09:45:25,48.148694280243,11.5721914248719,18.372704,,,1711.3115754313,18.372704,0.894776,25.5483275892,30.5878290628,10,3,15.412,1711.3115754313,18.372704,0.894776,28.797901184,0,0.894776,-1.565858,272.9, -0.2, 0.3,0,0,998,1024,1202,1024,-4,0,27,0,305.8,49.4,-55.8,71,3.872,3.896,3.891,3.86,0,0,18.986,116.51,1711.3115754313,18.372704,6,P-GPS,
348600,2025-09-03 09:45:25,48.1486945047664,11.5721926076218,18.700788,,,1711.6396594313,18.700788,1.11847,25.4628617072,30.8871729044,10,3,15.412,1711.6396594313,18.700788,1.11847,28.797901184,0,1.11847,-1.565858,272.9, -0.1, 0.2,0,0,993,1024,1205,1024,-5,0,27,0,306.9,49.9,-55.7,71,3.872,3.896,3.891,3.86,0,0,18.986,116.51,1711.6396594313,18.700788,6,P-GPS,
348700,2025-09-03 09:45:25,48.148694670542,11.5721955017773,19.028872,,,1711.9677434313,19.028872,1.11847,25.4074155112,31.5942923496,9,3,15.412,1711.9677434313,19.028872,1.11847,28.797901184,0,1.11847,-1.565858,272.7, -0.5, -0.1,0,0,1005,1024,1207,1024,-3,0,28,0,306.9,49.9,-55.7,71,3.872,3.896,3.891,3.86,0,0,18.986,116.51,1711.9677434313,19.028872,6,P-GPS,
348800,2025-09-03 09:45:25,48.1486949651861,11.572196465366,19.028872,,,1711.9677434313,19.356956,1.11847,25.3059719384,31.8522976072,9,3,15.412,1711.9677434313,19.028872,1.11847,28.797901184,0,1.11847,-1.565858,272.7, -1.1, -0.6,0,0,1024,1024,1201,1024,0,0,27,0,307.8,50.1,-56.2,71,3.872,3.896,3.891,3.86,0,0,18.986,116.51,1711.9677434313,19.028872,6,P-GPS,
348900,2025-09-03 09:45:25,48.1486952731574,11.5721973484721,19.356956,,,1712.2958274313,19.68504,0.894776,25.2011491004,32.0948829168,9,3,15.412,1712.2958274313,19.356956,1.11847,28.797901184,0,0.894776,-1.565858,272.7, -1.5, -0.9,0,0,1024,1024,1201,1024,0,0,27,0,307.8,49.8,-56.3,71,3.872,3.896,3.891,3.86,0,0,18.986,116.51,1712.2958274313,19.356956,6,P-GPS,
349000,2025-09-03 09:45:26,48.1486954059603,11.5721980213009,19.68504,,,1712.6239114313,20.013124,0.894776,25.1596464744,32.2656834472,9,3,15.412,1712.6239114313,19.68504,1.11847,28.797901184,0,0.894776,-1.342164,272.8, -3.1, -0.8,0,0,1024,1024,1208,1024,0,0,28,0,306.6,46.8,-56,71,3.872,3.896,3.891,3.86,0,0,18.986,116.51,1712.6239114313,19.68504,6,P-GPS,
349100,2025-09-03 09:45:26,48.148695470577,11.5721986359008,19.68504,,,1712.6239114313,20.013124,0.9171454,25.143373508,32.4171270216,9,3,15.412,1712.6239114313,19.68504,1.11847,28.797901184,-0.223694,0.894776,-1.342164,272.9, -4.9, -0.6,0,0,1024,1024,1207,1024,0,0,28,0,303.7,42.9,-57.2,71,3.872,3.896,3.891,3.86,0,0,18.986,116.51,1712.6239114313,19.68504,6,P-GPS,
349200,2025-09-03 09:45:26,48.1486954039215,11.5721983732508,20.013124,,,1712.9519954313,20.341208,0.7158208,25.1644693092,32.4855325356,9,3,15.412,1712.9519954313,20.013124,1.11847,28.797901184,-0.223694,0.671082,-1.342164,273, -5.4, -0.4,0,0,1024,1024,1210,1024,0,0,28,0,304.1,42.8,-57.4,71,3.872,3.896,3.891,3.86,0,0,18.986,116.51,1712.9519954313,20.013124,6,P-GPS,
349300,2025-09-03 09:45:26,48.1486955400203,11.5721986124628,20.341208,,,1713.2800794313,20.669292,0.7158208,25.117782956,32.5620745328,10,3,15.412,1713.2800794313,20.341208,1.11847,28.797901184,-0.223694,0.671082,-1.342164,273.2, -5.1, 0,0,0,1024,1024,1211,1024,0,0,28,0,307.1,45.9,-54.4,71,3.872,3.896,3.891,3.86,0,0,18.986,116.51,1713.2800794313,20.341208,6,P-GPS,
349400,2025-09-03 09:45:26,48.148695700624,11.5721987265937,20.341208,,,1713.2800794313,20.997376,0.4921268,25.06069634,32.6269039312,10,3,15.412,1713.2800794313,20.341208,1.11847,28.797901184,-0.223694,0.447388,-1.342164,273.2, -4.3, 0.8,0,0,1024,1024,1211,1024,0,0,28,0,306.6,46.8,-53.4,71,3.872,3.896,3.891,3.86,0,0,18.986,116.51,1713.2800794313,20.341208,6,P-GPS,
349500,2025-09-03 09:45:26,48.1486958902921,11.5721987794768,20.669292,,,1713.6081634313,20.997376,0.3131716,24.992290826,32.6973107576,10,3,15.335,1713.6081634313,20.669292,1.11847,28.797901184,-0.223694,0.223694,-1.565858,273.3, -3.6, 1.6,0,0,1024,1024,1216,1024,0,0,29,0,304.4,45.1,-54.8,71,3.869,3.892,3.888,3.859,0,0,18.316,116.51,1713.6081634313,20.669292,6,P-GPS,
