time(millisecond),datetime(utc),latitude,longitude,height_above_takeoff(feet),height_above_ground_at_drone_location(feet),ground_elevation_at_drone_location(feet),altitude_above_seaLevel(feet),height_sonar(feet),speed(mph),distance(feet),mileage(feet),satellites,gpslevel,voltage(v),max_altitude(feet),max_ascent(feet),max_speed(mph),max_distance(feet), xSpeed(mph), ySpeed(mph), zSpeed(mph), compass_heading(degrees), pitch(degrees), roll(degrees),isPhoto,isVideo,rc_elevator,rc_aileron,rc_throttle,rc_rudder,rc_elevator(percent),rc_aileron(percent),rc_throttle(percent),rc_rudder(percent),gimbal_heading(degrees),gimbal_pitch(degrees),gimbal_roll(degrees),battery_percent,voltageCell1,voltageCell2,voltageCell3,voltageCell4,voltageCell5,voltageCell6,current(A),battery_temperature(f),altitude(feet),ascent(feet),flycStateRaw,flycState,message
299600,,48.1487839128996,11.5721519549847,0,Available with any HD 360 subscription,Available with any HD 360 subscription,1692.861376022,0.328084,0,0,0,8,4,0,1692.861376022,0,0,0,0,0,0,115.1, -3.7, -1.2,0,0,1024,1024,1024,1024,0,0,0,0,8.1,-31.2,-33.6,72,4.015,4.02,4.021,4.014,0,0,0,118.31,1692.861376022,0,41,Motors_Started,
299700,,48.1487839007156,11.5721517950996,0,,,1692.861376022,0.328084,0,0.039173557684,0.039173557684,8,4,0,1692.861376022,0,0,0.039173557684,0,0,0,115.2, -3.7, -1.2,0,0,1024,1024,1024,1024,0,0,0,0,8,-31.1,-33.6,72,4.015,4.02,4.021,4.014,0,0,0,118.31,1692.861376022,0,41,Motors_Started,
299800,,48.1487838951268,11.5721516506808,0,,,1692.861376022,0.328084,0,0.074358926264,0.074387797656,8,4,0,1692.861376022,0,0,0.074358926264,0,0,0,115.2, -3.7, -1.1,0,0,1024,1024,1024,1024,0,0,0,0,7.9,-31.2,-33.7,72,4.015,4.02,4.021,4.014,0,0,0,118.31,1692.861376022,0,41,Motors_Started,
299900,2025-09-03 12:01:05,48.1487838869031,11.5721516094374,0,,,1692.861376022,0.328084,0,0.084648624756,0.084866472532,8,4,0,1692.861376022,0,0,0.084648624756,0,0,0,115.2, -3.7, -1.1,0,0,398,364,388,1654,-95,-100,-96,95,7.8,-31.2,-33.6,72,4.015,4.02,4.021,4.014,0,0,0,118.31,1692.861376022,0,41,Motors_Started,
300000,2025-09-03 12:01:05,48.1487839572714,11.5721515128509,0,,,1692.861376022,0.328084,0,0.108837929992,0.119679465772,8,4,0,1692.861376022,0,0,0.108837929992,0,0,0,115.2, -3.7, -1.1,0,0,1024,1024,1024,1024,0,0,0,0,7.7,-31.2,-33.6,72,4.015,4.02,4.021,4.014,0,0,0,118.31,1692.861376022,0,41,Motors_Started,
300100,2025-09-03 12:01:05,48.1487840154688,11.5721513790918,0,,,1692.861376022,0.328084,0,0.14509678942,0.15855151426,8,4,0,1692.861376022,0,0,0.14509678942,0,0,0,115.2, -3.7, -1.1,0,0,1024,1024,1024,1024,0,0,0,0,7.7,-31.2,-33.6,72,4.015,4.02,4.021,4.014,0,0,0,118.31,1692.861376022,0,41,Motors_Started,
300200,2025-09-03 12:01:05,48.1487840651493,11.5721512675605,0,,,1692.861376022,0.328084,0,0.176316278608,0.19119587226,8,4,16.006,1692.861376022,0,0,0.176316278608,0,0,0,115.1, -3.7, -1.1,0,0,1024,1024,1024,1024,0,0,0,0,7.5,-31.4,-33.7,72,4.015,4.02,4.021,4.014,0,0,1.474,118.31,1692.861376022,0,41,Motors_Started,"Setting new Return-To-Home altitude to 100m (328 ft). Data Recorder File Index is 239. Setting new Maximum Flight Altitude to 150m (492 ft)"
300300,2025-09-03 12:01:05,48.1487839719633,11.5721514735093,0,,,1692.861376022,0.328084,0,10.7243113668,0.251770677348,8,4,16.006,1692.861376022,0,0,10.7243113668,0,0,0,115.3, -3.7, -1.1,0,0,1024,1024,1024,1024,0,0,0,0,7.5,-31.3,-33.5,72,4.015,4.02,4.021,4.014,0,0,1.474,118.31,1692.861376022,0,41,Motors_Started,
300400,2025-09-03 12:01:05,48.1487839725267,11.5721514699914,0,,,1692.861376022,0.328084,0,10.7247050676,0.252651254804,8,4,16.006,1692.861376022,0,0,10.7247050676,0,0,0,115.1, -3.7, -1.1,0,0,1024,1024,1024,1024,0,0,0,0,7.6,-31.3,-33.2,72,4.015,4.02,4.021,4.014,0,0,1.474,118.31,1692.861376022,0,41,Motors_Started,
300500,2025-09-03 12:01:05,48.1487840045745,11.5721513607993,0,,,1692.861376022,0.328084,0,10.7422247532,0.281689969644,8,4,16.006,1692.861376022,0,0,10.7422247532,0,0,0,115.2, -3.7, -1.2,0,0,1024,1024,1021,1024,0,0,-0,0,7.4,-31.4,-33.1,72,4.015,4.02,4.021,4.014,0,0,1.474,118.31,1692.861376022,0,41,Motors_Started,
300600,2025-09-03 12:01:05,48.1487840364399,11.5721512590498,0,,,1692.861376022,0.328084,0,10.7592851212,0.309051190992,8,4,16.006,1692.861376022,0,0,10.7592851212,0,0,0,115.2, -3.7, -1.2,0,0,1024,1024,1024,1024,0,0,0,0,7.4,-31.4,-33.1,72,4.015,4.02,4.021,4.014,0,0,1.474,118.31,1692.861376022,0,41,Motors_Started,
300700,2025-09-03 12:01:05,48.1487840853258,11.5721511555767,0,,,1692.861376022,0.328084,0,10.7825462768,0.33991470904,8,4,16.006,1692.861376022,0,0,10.7825462768,0,0,0,115.2, -3.7, -1.2,0,0,1024,1024,1024,1024,0,0,0,0,7.4,-31.4,-33.1,72,4.015,4.02,4.021,4.014,0,0,1.474,118.31,1692.861376022,0,41,Motors_Started,
300800,2025-09-03 12:01:05,48.1487841413247,11.5721510245026,0,,,1692.861376022,0.328084,0,10.8099412908,0.37780184936,8,4,16.006,1692.861376022,0,0,10.8099412908,0,0,0,115.2, -3.7, -1.2,0,0,1024,1024,1024,1024,0,0,0,0,7.2,-31.4,-33.1,72,4.015,4.02,4.021,4.014,0,0,1.474,118.31,1692.861376022,0,41,Motors_Started,
300900,2025-09-03 12:01:06,48.1487841969426,11.572151032454,0,,,1692.861376022,0.328084,0,10.8291998216,0.39818570828,8,4,16.006,1692.861376022,0,0,10.8291998216,0,0,0,115.2, -3.7, -1.2,0,0,1024,1024,1024,1024,0,0,0,0,7.1,-31.5,-33.1,72,4.015,4.02,4.021,4.014,0,0,1.474,118.31,1692.861376022,0,41,Motors_Started,
301000,2025-09-03 12:01:06,48.1487842501601,11.5721510423627,0,,,1692.861376022,0.328084,0,10.8474741004,0.41775263804,8,4,16.006,1692.861376022,0,0,10.8474741004,0,0,0,115.2, -3.7, -1.2,0,0,1024,1024,1024,1024,0,0,0,0,7,-31.6,-33,72,4.015,4.02,4.021,4.014,0,0,1.474,118.31,1692.861376022,0,41,Motors_Started,
301100,2025-09-03 12:01:06,48.1487843071003,11.5721510325231,0,,,1692.861376022,0.328084,0,10.8682418176,0.4386647122,8,4,16.006,1692.861376022,0,0,10.8682418176,0,0,0,115.2, -3.7, -1.2,0,0,1024,1024,1024,1024,0,0,0,0,6.9,-31.5,-33,72,4.015,4.02,4.021,4.014,0,0,1.474,118.31,1692.861376022,0,10,Assisted_Takeoff,
301200,2025-09-03 12:01:06,48.1487844171701,11.5721511776793,0,,,1692.861376022,0.328084,0,10.8989832884,0.49215552756,8,4,16.023,1692.861376022,0,0,10.8989832884,0,0,0,115.2, -3.7, -1.1,0,0,1024,1024,1024,1024,0,0,0,0,6.8,-31.6,-33.1,72,4.015,4.02,4.021,4.014,0,0,4.536,118.31,1692.861376022,0,10,Assisted_Takeoff,
301300,2025-09-03 12:01:06,48.1487845275786,11.5721510897303,0,,,1692.861376022,0.328084,0,10.9431433948,0.53777560776,8,4,16.023,1692.861376022,0,0,10.9431433948,0,0,0,115.2, -3.7, -1.1,0,0,1024,1024,1024,1024,0,0,0,0,6.7,-31.6,-33.1,72,4.015,4.02,4.021,4.014,0,0,4.536,118.31,1692.861376022,0,10,Assisted_Takeoff,
301400,2025-09-03 12:01:06,48.1487846146645,11.5721510234642,0,,,1692.861376022,0.328084,0,10.9778218736,0.573408811,8,4,16.023,1692.861376022,0,0,10.9778218736,0,0,0,115.2, -3.7, -1.2,0,0,1024,1024,1024,1024,0,0,0,0,6.6,-31.7,-33,72,4.015,4.02,4.021,4.014,0,0,4.536,118.31,1692.861376022,0,10,Assisted_Takeoff,
301500,2025-09-03 12:01:06,48.1487845852483,11.5721510632287,0,,,1692.861376022,0.656168,0,10.9651250228,0.5878609112,8,4,16.023,1692.861376022,0,0,10.9778218736,0,0,0,115.2, -3.7, -1.2,0,0,1024,1024,1024,1024,0,0,0,0,6.5,-31.7,-33.1,72,4.015,4.02,4.021,4.014,0,0,4.536,118.31,1692.861376022,0,10,Assisted_Takeoff,
301600,2025-09-03 12:01:06,48.1487844801843,11.5721511839031,0,,,1692.861376022,0.656168,0,10.9209977248,0.636154876,8,4,16.023,1692.861376022,0,0,10.9778218736,0,0,0,115.2, -3.7, -1.1,0,0,1024,1024,1024,1024,0,0,0,0,6.5,-31.7,-32.9,72,4.015,4.02,4.021,4.014,0,0,4.536,118.31,1692.861376022,0,10,Assisted_Takeoff,
301700,2025-09-03 12:01:06,48.1487845503866,11.5721511183143,0,,,1692.861376022,0.656168,0,10.9496066496,0.66633532316,8,4,16.023,1692.861376022,0,0,10.9778218736,0,0,0,115.2, -3.7, -1.1,0,0,1024,1024,1024,1024,0,0,0,0,6.3,-31.8,-33.1,72,4.015,4.02,4.021,4.014,0,0,4.536,118.31,1692.861376022,0,10,Assisted_Takeoff,
301800,2025-09-03 12:01:06,48.1487846123684,11.5721510554746,0,,,1692.861376022,0.656168,0,10.9751643932,0.69363847364,8,4,16.023,1692.861376022,0,0,10.9778218736,0,0,0,115.2, -3.7, -1.2,0,0,1024,1024,1024,1024,0,0,0,0,6.3,-31.8,-33,72,4.015,4.02,4.021,4.014,0,0,4.536,118.31,1692.861376022,0,10,Assisted_Takeoff,
301900,2025-09-03 12:01:07,48.1487846250182,11.5721509939992,0,,,1692.861376022,0.656168,0,10.9831696428,0.70929792296,8,4,16.023,1692.861376022,0,0,10.9831696428,0,0,0,115.2, -3.7, -1.2,0,0,1024,1024,1024,1024,0,0,0,0,6.2,-31.8,-33,72,4.015,4.02,4.021,4.014,0,0,4.536,118.31,1692.861376022,0,10,Assisted_Takeoff,
302000,2025-09-03 12:01:07,48.1487846272035,11.5721508504767,0,,,1692.861376022,0.656168,0,10.9922247612,0.74424543064,8,4,16.023,1692.861376022,0,0,10.9922247612,0,0,0,115.2, -3.7, -1.1,0,0,1024,1024,1024,1024,0,0,0,0,6.2,-31.8,-33,72,4.015,4.02,4.021,4.014,0,0,4.536,118.31,1692.861376022,0,10,Assisted_Takeoff,
302100,2025-09-03 12:01:07,48.1487846675368,11.5721508000301,0,,,1692.861376022,0.656168,0,11.0094163628,0.76341209792,8,4,16.023,1692.861376022,0,0,11.0094163628,0,0,0,115.2, -3.7, -1.1,0,0,1024,1024,1024,1024,0,0,0,0,6.1,-31.9,-33,72,4.015,4.02,4.021,4.014,0,0,4.536,118.31,1692.861376022,0,10,Assisted_Takeoff,
302200,2025-09-03 12:01:07,48.1487847080037,11.5721507413119,0,,,1692.861376022,0.656168,0,11.0271657072,0.78395999884,8,4,16.004,1692.861376022,0,0,11.0271657072,0,0,0,115.2, -3.7, -1.1,0,0,1024,1024,1024,1024,0,0,0,0,6,-31.9,-33,72,4.005,4.011,4.009,3.997,0,0,4.536,118.31,1692.861376022,0,10,Assisted_Takeoff,
302300,2025-09-03 12:01:07,48.1487847637551,11.5721505879025,0,,,1692.861376022,0.656168,0,11.055938674,0.82648624692,8,4,16.004,1692.861376022,0,0,11.055938674,0,0,0,115.2, -3.7, -1.1,0,0,1024,1024,1024,1024,0,0,0,0,5.8,-32,-33.1,72,4.005,4.011,4.009,3.997,0,0,4.536,118.31,1692.861376022,0,10,Assisted_Takeoff,
302400,2025-09-03 12:01:07,48.1487848126442,11.572150440501,0,,,1692.861376022,0.656168,0,11.0819557352,0.86655514584,8,4,16.004,1692.861376022,0,0,11.0819557352,0,0,0,115.2, -3.7, -1.2,0,0,1024,1024,1024,1024,0,0,0,0,5.8,-32,-32.9,72,4.005,4.011,4.009,3.997,0,0,4.536,118.31,1692.861376022,0,10,Assisted_Takeoff,
302500,2025-09-03 12:01:07,48.1487848040949,11.5721499975238,0,,,1692.861376022,0.656168,0,11.1058730588,0.97443244588,8,4,16.004,1692.861376022,0,0,11.1058730588,0,0,0,115.2, -3.7, -1.2,0,0,1024,1024,1024,1024,0,0,0,0,5.6,-32.1,-33,72,4.005,4.011,4.009,3.997,0,0,4.536,118.31,1692.861376022,0,10,Assisted_Takeoff,
302600,2025-09-03 12:01:07,48.1487848144322,11.5721498695223,0,,,1692.861376022,0.984252,0,11.1174872324,1.00582024216,8,4,16.004,1692.861376022,0,0,11.1174872324,0,0,0,115.2, -3.7, -1.2,0,0,1024,1024,1024,1024,0,0,0,0,5.6,-32.1,-32.9,72,4.005,4.011,4.009,3.997,0,0,4.536,118.31,1692.861376022,0,10,Assisted_Takeoff,
302700,2025-09-03 12:01:07,48.1487848568923,11.5721497561053,0,,,1692.861376022,0.984252,0,11.1395672856,1.03747706732,8,4,16.004,1692.861376022,0,0,11.1395672856,0,0,0,115.2, -3.7, -1.2,0,0,1024,1024,1024,1024,0,0,0,0,5.4,-32.2,-32.9,72,4.005,4.011,4.009,3.997,0,0,4.536,118.31,1692.861376022,0,10,Assisted_Takeoff,
302800,2025-09-03 12:01:07,48.1487849000689,11.5721496576667,0,,,1692.861376022,0.984252,0,11.1609911708,1.06615488976,8,4,16.004,1692.861376022,0,0,11.1609911708,0,0,0,115.2, -3.7, -1.2,0,0,1024,1024,1024,1024,0,0,0,0,5.4,-32.2,-33,72,4.005,4.011,4.009,3.997,0,0,4.536,118.31,1692.861376022,0,10,Assisted_Takeoff,
302900,2025-09-03 12:01:08,48.1487850048234,11.5721496503677,0,,,1692.861376022,0.984252,0,11.1983599384,1.10441604584,8,4,16.004,1692.861376022,0,0,11.1983599384,0,0,0,115.2, -3.7, -1.2,0,0,1024,1024,1024,1024,0,0,0,0,5.2,-32.3,-33,72,4.005,4.011,4.009,3.997,0,0,4.536,118.31,1692.861376022,0,10,Assisted_Takeoff,
303000,2025-09-03 12:01:08,48.1487850621479,11.5721495954153,0,,,1692.861376022,0.984252,0,11.2220147948,1.12924216212,8,4,16.004,1692.861376022,0,0,11.2220147948,0,0,0,115.2, -3.6, -1.2,0,0,1024,1024,1024,1024,0,0,0,0,5.2,-32.3,-33.2,72,4.005,4.011,4.009,3.997,0,0,4.536,118.31,1692.861376022,0,10,Assisted_Takeoff,
303100,2025-09-03 12:01:08,48.1487851251589,11.5721495108631,0,,,1692.861376022,0.984252,0,11.2496066592,1.16009846232,8,4,16.004,1692.861376022,0,0,11.2496066592,0,0,0,115.2, -3.6, -1.2,0,0,1024,1024,1024,1024,0,0,0,0,5.1,-32.3,-33,72,4.005,4.011,4.009,3.997,0,0,4.536,118.31,1692.861376022,0,10,Assisted_Takeoff,
303200,2025-09-03 12:01:08,48.1487851937131,11.57214942012,0,,,1692.861376022,0.984252,0,11.27952792,1.19346788596,8,4,16.008,1692.861376022,0,0,11.27952792,0,0,0,115.2, -3.7, -1.2,0,0,1024,1024,1024,1024,0,0,0,0,5,-32.4,-33,72,4.009,4.014,4.016,4.008,0,0,2.122,118.31,1692.861376022,0,10,Assisted_Takeoff,
303300,2025-09-03 12:01:08,48.1487854146865,11.5721491726357,0,,,1692.861376022,0.984252,0,11.373195902,1.29411421464,8,4,16.008,1692.861376022,0,0,11.373195902,0,0,0,115.2, -3.7, -1.2,0,0,1024,1024,1024,1024,0,0,0,0,4.9,-32.4,-33.1,72,4.009,4.014,4.016,4.008,0,0,2.122,118.31,1692.861376022,0,10,Assisted_Takeoff,
303400,2025-09-03 12:01:08,48.1487855158715,11.5721490401967,0,,,1692.861376022,0.984252,0,11.4173888168,1.3431266834,8,4,16.008,1692.861376022,0,0,11.4173888168,0,0,0,115.1, -3.7, -1.1,0,0,1024,1024,1024,1024,0,0,0,0,4.9,-32.4,-33.1,72,4.009,4.014,4.016,4.008,0,0,2.122,118.31,1692.861376022,0,10,Assisted_Takeoff,
303500,2025-09-03 12:01:08,48.1487855867869,11.5721489730511,0,,,1692.861376022,0.984252,0,11.446686718,1.37373035892,8,4,16.008,1692.861376022,0,0,11.446686718,0,0,0,115.1, -3.7, -1.1,0,0,1024,1024,1024,1024,0,0,0,0,4.8,-32.5,-33,72,4.009,4.014,4.016,4.008,0,0,2.122,118.31,1692.861376022,0,10,Assisted_Takeoff,
303600,2025-09-03 12:01:08,48.1487856430139,11.5721489244878,0,,,1692.861376022,0.984252,0,11.4696197896,1.3974081812,8,4,16.008,1692.861376022,0,0,11.4696197896,0,0,0,115.1, -3.7, -1.1,0,0,1024,1024,1024,1024,0,0,0,0,4.6,-32.5,-33.1,72,4.009,4.014,4.016,4.008,0,0,2.122,118.31,1692.861376022,0,10,Assisted_Takeoff,
303700,2025-09-03 12:01:08,48.1487855229715,11.5721491785409,0,,,1692.861376022,0.984252,0,11.410925562,1.47318902352,8,4,16.008,1692.861376022,0,0,11.4696197896,0,0,0,115.1, -3.7, -1.2,0,0,1024,1024,1024,1024,0,0,0,0,4.6,-32.6,-33.1,72,4.009,4.014,4.016,4.008,0,0,2.122,118.31,1692.861376022,0,10,Assisted_Takeoff,
303800,2025-09-03 12:01:08,48.148785523206,11.5721491910663,0,,,1692.861376022,0.984252,0,11.4101709688,1.47624020472,8,4,16.008,1692.861376022,0,0,11.4696197896,0,0,0,115.1, -3.7, -1.1,0,0,1024,1024,1024,1024,0,0,0,0,4.5,-32.6,-33,72,4.009,4.014,4.016,4.008,0,0,2.122,118.31,1692.861376022,0,10,Assisted_Takeoff,
303900,2025-09-03 12:01:09,48.1487855509579,11.5721491305674,0,,,1692.861376022,0.984252,0,11.4238520716,1.4941109402,8,4,16.008,1692.861376022,0,0,11.4696197896,0,0,0,115.1, -3.7, -1.2,0,0,1024,1024,1024,1024,0,0,0,0,4.4,-32.6,-33.1,72,4.009,4.014,4.016,4.008,0,0,2.122,118.31,1692.861376022,0,10,Assisted_Takeoff,
304000,2025-09-03 12:01:09,48.1487855790909,11.5721490670289,0,,,1692.861376022,0.984252,0,11.4378612584,1.51267393292,8,4,16.008,1692.861376022,0,0,11.4696197896,0,0,0,115.1, -3.7, -1.1,0,0,1024,1024,1024,1024,0,0,0,0,4.3,-32.6,-33,72,4.009,4.014,4.016,4.008,0,0,2.122,118.31,1692.861376022,0,10,Assisted_Takeoff,
304100,2025-09-03 12:01:09,48.1487856239024,11.572148965866,0,,,1692.861376022,0.984252,0,11.4602037788,1.54223102048,8,4,16.008,1692.861376022,0,0,11.4696197896,0,0,0,115.1, -3.7, -1.1,0,0,1024,1024,1024,1024,0,0,0,0,4.2,-32.7,-33,72,4.009,4.014,4.016,4.008,0,0,2.122,118.31,1692.861376022,0,10,Assisted_Takeoff,
304200,2025-09-03 12:01:09,48.148785651244,11.5721487424439,0,,,1692.861376022,0.984252,0,11.4845148032,1.59752629784,8,4,16.006,1692.861376022,0,0,11.4845148032,0,0,0,115.1, -3.7, -1.2,0,0,1024,1024,1024,1024,0,0,0,0,4.1,-32.8,-33.1,72,4.009,4.014,4.016,4.008,0,0,2.122,118.31,1692.861376022,0,10,Assisted_Takeoff,
304300,2025-09-03 12:01:09,48.1487857034324,11.5721485241487,0,,,1692.861376022,0.984252,0,11.51738882,1.65397315004,8,4,16.006,1692.861376022,0,0,11.51738882,0,0,0,115.1, -3.7, -1.2,0,0,1024,1024,1024,1024,0,0,0,0,4,-32.8,-32.9,72,4.009,4.014,4.016,4.008,0,0,2.122,118.31,1692.861376022,0,10,Assisted_Takeoff,
304400,2025-09-03 12:01:09,48.1487857539988,11.5721483153079,0,,,1692.861376022,0.984252,0,11.5492457764,1.7080545166,8,4,16.006,1692.861376022,0,0,11.5492457764,0,0,0,115.1, -3.7, -1.1,0,0,1024,1024,1024,1024,0,0,0,0,3.9,-32.8,-33.1,72,4.009,4.014,4.016,4.008,0,0,2.122,118.31,1692.861376022,0,10,Assisted_Takeoff,
304500,2025-09-03 12:01:09,48.1487858086299,11.5721481180247,0,,,1692.861376022,0.984252,0,11.5819229428,1.76005254976,8,4,16.006,1692.861376022,0,0,11.5819229428,0,0,0,115.1, -3.7, -1.1,0,0,1024,1024,1024,1024,0,0,0,0,3.8,-32.9,-33,72,4.009,4.014,4.016,4.008,0,0,2.122,118.31,1692.861376022,0,10,Assisted_Takeoff,
304600,2025-09-03 12:01:09,48.1487858923873,11.5721475971725,0,,,1692.861376022,0.984252,0,11.6476709764,1.89047250144,7,3,16.006,1692.861376022,0,0,11.6476709764,0,0,0,115, -3.7, -1.2,0,0,1024,1024,1024,1024,0,0,0,0,3.7,-33,-33.2,72,4.009,4.014,4.016,4.008,0,0,2.122,118.31,1692.861376022,0,10,Assisted_Takeoff,
304700,2025-09-03 12:01:09,48.1487859441392,11.5721474288127,0,,,1692.861376022,0.984252,0,11.6777890876,1.9355971748,7,3,16.006,1692.861376022,0,0,11.6777890876,0,0,0,115, -3.7, -1.2,0,0,1024,1024,1024,1024,0,0,0,0,3.7,-33,-33.2,72,4.009,4.014,4.016,4.008,0,0,2.122,118.31,1692.861376022,0,10,Assisted_Takeoff,
304800,2025-09-03 12:01:09,48.1487859939435,11.5721472686315,0,,,1692.861376022,0.984252,0,11.706693288,1.97861554888,7,3,16.006,1692.861376022,0,0,11.706693288,0,0,0,115, -3.7, -1.1,0,0,1024,1024,1024,1024,0,0,0,0,3.6,-33,-33.2,72,4.009,4.014,4.016,4.008,0,0,2.122,118.31,1692.861376022,0,10,Assisted_Takeoff,
304900,2025-09-03 12:01:09,48.1487860467703,11.5721471089205,0,,,1692.861376022,0.984252,0,11.736712974,2.02200793872,7,3,16.006,1692.861376022,0,0,11.736712974,0,0,0,115, -3.7, -1.1,0,0,1024,1024,1024,1024,0,0,0,0,3.4,-33.1,-33.2,72,4.009,4.014,4.016,4.008,0,0,2.122,118.31,1692.861376022,0,10,Assisted_Takeoff,
305000,2025-09-03 12:01:10,48.1487861172298,11.5721469003404,0,,,1692.861376022,0.984252,0,11.77657518,2.07891738936,7,3,16.006,1692.861376022,0,0,11.77657518,0,0,0,115, -3.7, -1.2,0,0,1024,1024,1024,1024,0,0,0,0,3.4,-33.1,-33.3,72,4.009,4.014,4.016,4.008,0,0,2.122,118.31,1692.861376022,0,10,Assisted_Takeoff,
305100,2025-09-03 12:01:10,48.1487861694637,11.5721466460185,0,,,1692.861376022,0.984252,0,11.813648672,2.14369429432,7,3,16.006,1692.861376022,0,0,11.813648672,0,0,0,115, -3.7, -1.2,0,0,1024,1024,1024,1024,0,0,0,0,3.4,-33.1,-33.2,72,4.009,4.014,4.016,4.008,0,0,2.122,118.31,1692.861376022,0,10,Assisted_Takeoff,
305200,2025-09-03 12:01:10,48.1487862191378,11.5721464043304,0,,,1692.861376022,0.984252,0,11.8491145524,2.20525597608,7,3,16.004,1692.861376022,0,0,11.8491145524,0,0,0,115, -3.7, -1.2,0,0,1024,1024,1024,1024,0,0,0,0,3.2,-33.1,-33.1,72,4.01,4.016,4.017,4.009,0,0,2.176,118.31,1692.861376022,0,10,Assisted_Takeoff,
305300,2025-09-03 12:01:10,48.1487862708442,11.5721461682384,0,,,1692.861376022,0.984252,0,11.8850725588,2.26574482316,7,3,16.004,1692.861376022,0,0,11.8850725588,0,0,0,115, -3.7, -1.1,0,0,1024,1024,1024,1024,0,0,0,0,3.1,-33.2,-33.2,72,4.01,4.016,4.017,4.009,0,0,2.176,118.31,1692.861376022,0,10,Assisted_Takeoff,
305400,2025-09-03 12:01:10,48.1487863241562,11.5721457180689,0,,,1692.861376022,0.984252,0,11.9385502508,2.37704075848,7,3,16.004,1692.861376022,0,0,11.9385502508,0,0,0,115, -3.7, -1.1,0,0,1024,1024,1024,1024,0,0,0,0,3.1,-33.2,-33,72,4.01,4.016,4.017,4.009,0,0,2.176,118.31,1692.861376022,0,10,Assisted_Takeoff,
305500,2025-09-03 12:01:10,48.1487863733319,11.5721455036335,0,,,1692.861376022,0.984252,0,11.9725069448,2.43223761064,7,3,16.004,1692.861376022,0,0,11.9725069448,0,0,0,115, -3.7, -1.1,0,0,1024,1024,1024,1024,0,0,0,0,2.9,-33.3,-33.2,72,4.01,4.016,4.017,4.009,0,0,2.176,118.31,1692.861376022,0,10,Assisted_Takeoff,
305600,2025-09-03 12:01:10,48.1487863992111,11.5721453219579,0,,,1692.861376022,0.984252,0,11.9959649508,2.47745742836,7,3,16.004,1692.861376022,0,0,11.9959649508,0,0,0,115, -3.7, -1.1,0,0,1024,1024,1024,1024,0,0,0,0,2.9,-33.3,-33.1,72,4.01,4.016,4.017,4.009,0,0,2.176,118.31,1692.861376022,0,10,Assisted_Takeoff,
305700,2025-09-03 12:01:10,48.148786345238,11.5721452183893,0,,,1692.861376022,0.984252,0,11.98572873,2.5094488992,7,3,16.004,1692.861376022,0,0,11.9959649508,0,0,0,115, -3.7, -1.1,0,0,1024,1024,1024,1024,0,0,0,0,2.7,-33.3,-33.1,72,4.01,4.016,4.017,4.009,0,0,2.176,118.31,1692.861376022,0,10,Assisted_Takeoff,
305800,2025-09-03 12:01:10,48.1487862964726,11.5721451118231,0,,,1692.861376022,0.984252,0,11.9776250552,2.54090559312,7,3,16.004,1692.861376022,0,0,11.9959649508,0,0,0,115, -3.7, -1.1,0,0,1024,1024,1024,1024,0,0,0,0,2.7,-33.4,-33.1,72,4.01,4.016,4.017,4.009,0,0,2.176,118.31,1692.861376022,0,10,Assisted_Takeoff,
305900,2025-09-03 12:01:11,48.1487860434124,11.5721450662734,0,,,1692.861376022,0.984252,0,11.8944229528,2.63389772208,7,3,16.004,1692.861376022,0,0,11.9959649508,0,0,0,115, -3.7, -1.2,0,0,1024,1024,1024,1024,0,0,0,0,2.5,-33.4,-33.1,72,4.01,4.016,4.017,4.009,0,0,2.176,118.31,1692.861376022,0,10,Assisted_Takeoff,
306000,2025-09-03 12:01:11,48.1487860135435,11.5721449000052,0,,,1692.861376022,0.984252,0,11.8979334516,2.67581373392,7,3,16.004,1692.861376022,0,0,11.9959649508,0,0,0,115, -3.8, -1.1,0,0,1024,1024,1024,1024,0,0,0,0,2.5,-33.4,-33,72,4.01,4.016,4.017,4.009,0,0,2.176,118.31,1692.861376022,0,10,Assisted_Takeoff,
306100,2025-09-03 12:01:11,48.1487860011185,11.5721446941126,0,,,1692.861376022,0.984252,0,11.9108927696,2.72613853868,7,3,16.004,1692.861376022,0,0,11.9959649508,0,0,0,115, -3.8, -1.1,0,0,1024,1024,1024,1024,0,0,0,0,2.5,-33.4,-33,72,4.01,4.016,4.017,4.009,0,0,2.176,118.31,1692.861376022,0,10,Assisted_Takeoff,
306200,2025-09-03 12:01:11,48.1487859830525,11.5721445304243,0,,,1692.861376022,0.984252,0,11.9185371268,2.76652567908,7,3,16.031,1692.861376022,0,0,11.9959649508,0,0,0,115, -3.7, -1.2,0,0,1024,1024,1024,1024,0,0,0,0,2.4,-33.5,-33,72,4.011,4.016,4.017,4.009,0,0,2.174,118.31,1692.861376022,0,10,Assisted_Takeoff,
306300,2025-09-03 12:01:11,48.1487858318678,11.5721447617368,0,,,1692.861376022,0.984252,0,11.847277282,2.84534786008,7,3,16.031,1692.861376022,0,0,11.9959649508,0,0,0,115, -3.7, -1.2,0,0,1024,1024,1024,1024,0,0,0,0,2.2,-33.6,-33.2,72,4.011,4.016,4.017,4.009,0,0,2.174,118.31,1692.861376022,0,10,Assisted_Takeoff,
306400,2025-09-03 12:01:11,48.1487857934951,11.5721447626067,0,,,1692.861376022,0.984252,0,11.8340554968,2.8593504852,7,3,16.031,1692.861376022,0,0,11.9959649508,0,0,0,115, -3.7, -1.1,0,0,1024,1024,1024,1024,0,0,0,0,2.1,-33.6,-33.1,72,4.011,4.016,4.017,4.009,0,0,2.174,118.31,1692.861376022,0,10,Assisted_Takeoff,
306500,2025-09-03 12:01:11,48.1487858322749,11.572144721651,0,,,1692.861376022,0.984252,0,11.8507877808,2.87666019704,7,3,16.031,1692.861376022,0,0,11.9959649508,0,0,0,115, -3.7, -1.1,0,0,1024,1024,1024,1024,0,0,0,0,2.1,-33.6,-33.1,72,4.011,4.016,4.017,4.009,0,0,2.174,118.31,1692.861376022,0,10,Assisted_Takeoff,
306600,2025-09-03 12:01:11,48.1487858676447,11.5721446730115,0,,,1692.861376022,0.656168,0,11.8669951304,2.89417332096,7,3,16.031,1692.861376022,0,0,11.9959649508,0,0,0,114.9, -3.7, -1.2,0,0,1024,1024,1024,1024,0,0,0,0,1.9,-33.7,-33.1,72,4.011,4.016,4.017,4.009,0,0,2.174,118.31,1692.861376022,0,10,Assisted_Takeoff,
306700,2025-09-03 12:01:11,48.1487860133253,11.5721445872383,0,,,1692.861376022,0.656168,0,11.9240817464,2.95127634116,7,3,16.031,1692.861376022,0,0,11.9959649508,0,0,0,114.9, -3.7, -1.2,0,0,1024,1024,1024,1024,0,0,0,0,1.9,-33.7,-33,72,4.011,4.016,4.017,4.009,0,0,2.174,118.31,1692.861376022,0,10,Assisted_Takeoff,
306800,2025-09-03 12:01:11,48.1487860413671,11.5721444650132,0,,,1692.861376022,0.656168,0,11.9440292536,2.98273959676,7,3,16.031,1692.861376022,0,0,11.9959649508,0,0,0,114.9, -3.7, -1.1,0,0,1024,1024,1024,1024,0,0,0,0,1.8,-33.8,-33.1,72,4.011,4.016,4.017,4.009,0,0,2.174,118.31,1692.861376022,0,10,Assisted_Takeoff,
306900,2025-09-03 12:01:12,48.1487861028408,11.5721443495535,0,,,1692.861376022,0.656168,0,11.9748691496,3.01869760316,7,3,16.031,1692.861376022,0,0,11.9959649508,0,0,0,114.9, -3.7, -1.2,0,0,1024,1024,1024,1024,0,0,0,0,1.7,-33.8,-33,72,4.011,4.016,4.017,4.009,0,0,2.174,118.31,1692.861376022,0,10,Assisted_Takeoff,
307000,2025-09-03 12:01:12,48.1487861565013,11.5721442416112,0,,,1692.861376022,0.656168,0,12.0024282056,3.05146663308,7,3,16.031,1692.861376022,0,0,12.0024282056,0,0,0,114.9, -3.6, -1.2,0,0,1024,1024,1024,1024,0,0,0,0,1.6,-33.8,-33.1,72,4.011,4.016,4.017,4.009,0,0,2.174,118.31,1692.861376022,0,10,Assisted_Takeoff,
307100,2025-09-03 12:01:12,48.1487862360052,11.5721441156226,0,,,1692.861376022,1.312336,0,12.0403875244,3.09368120136,7,3,16.031,1692.861376022,0,0,12.0403875244,0,0,0,114.9, -3.6, -1.2,0,0,1024,1024,1024,1024,0,0,0,0,1.5,-33.9,-33.1,72,4.011,4.016,4.017,4.009,0,0,2.174,118.31,1692.861376022,0,10,Assisted_Takeoff,
307200,2025-09-03 12:01:12,48.1487862613862,11.5721440022092,0,,,1692.861376022,1.312336,0,12.0588258452,3.12279865636,7,3,16.008,1692.861376022,0,0,12.0588258452,0,0,0,114.9, -3.7, -1.1,0,0,1024,1024,1024,1024,0,0,0,0,1.4,-33.9,-33,72,4.011,4.016,4.017,4.009,0,0,2.174,118.31,1692.861376022,0,10,Assisted_Takeoff,
307300,2025-09-03 12:01:12,48.1487863142259,11.5721438441625,0,,,1692.861376022,0.984252,0,12.090551568,3.16583343464,7,3,16.008,1692.861376022,0,0,12.090551568,0,0,0,114.9, -3.7, -1.1,0,0,1024,1024,1024,1024,0,0,0,0,1.4,-33.9,-32.9,72,4.011,4.016,4.017,4.009,0,0,2.174,118.31,1692.861376022,0,10,Assisted_Takeoff,
307400,2025-09-03 12:01:12,48.1487863579171,11.5721437095448,0,,,1692.861376022,0.984252,0,12.1171919888,3.20227372452,7,3,16.008,1692.861376022,0,0,12.1171919888,0,0,0,114.9, -3.7, -1.1,0,0,1024,1024,1024,1024,0,0,0,0,1.4,-33.9,-32.9,72,4.011,4.016,4.017,4.009,0,0,2.174,118.31,1692.861376022,0,10,Assisted_Takeoff,
307500,2025-09-03 12:01:12,48.1487863686811,11.5721436463577,0,,,1692.861376022,0.984252,0,12.1263783408,3.21814970928,7,3,16.008,1692.861376022,0,0,12.1263783408,0,0,0,114.9, -3.7, -1.1,0,0,1024,1024,1024,1024,0,0,0,0,1.2,-34,-33,72,4.011,4.016,4.017,4.009,0,0,2.174,118.31,1692.861376022,0,10,Assisted_Takeoff,
307600,2025-09-03 12:01:12,48.1487863488922,11.5721436362228,0,,,1692.861376022,0.984252,0,12.1205384456,3.22577766228,7,3,16.008,1692.861376022,0,0,12.1263783408,0,0,0,114.9, -3.7, -1.1,0,0,1024,1024,1024,1024,0,0,0,0,1.2,-34,-33,72,4.011,4.016,4.017,4.009,0,0,2.174,118.31,1692.861376022,0,10,Assisted_Takeoff,
307700,2025-09-03 12:01:12,48.1487863388447,11.5721435068447,0,,,1692.861376022,0.984252,0,12.1285108868,3.25748370004,7,3,16.008,1692.861376022,0,0,12.1285108868,0,0,0,114.9, -3.7, -1.1,0,0,1024,1024,1024,1024,0,0,0,0,1,-34.1,-33,72,4.011,4.016,4.017,4.009,0,0,2.174,118.31,1692.861376022,0,10,Assisted_Takeoff,
307800,2025-09-03 12:01:12,48.1487863355716,11.5721433864716,0,,,1692.861376022,0.984252,0,12.1380909396,3.2868111288,7,3,16.008,1692.861376022,0,0,12.1380909396,0,0,0,114.9, -3.7, -1.1,0,0,1024,1024,1024,1024,0,0,0,0,1,-34.1,-33,72,4.011,4.016,4.017,4.009,0,0,2.174,118.31,1692.861376022,0,10,Assisted_Takeoff,
307900,2025-09-03 12:01:12,48.1487863751395,11.5721432773705,0,,,1692.861376022,0.984252,0,12.1612208616,3.3170276652,7,3,16.008,1692.861376022,0,0,12.1612208616,0,0,0,114.9, -3.7, -1.1,0,0,1024,1024,1024,1024,0,0,0,0,0.9,-34.1,-33,72,4.011,4.016,4.017,4.009,0,0,2.174,118.31,1692.861376022,0,10,Assisted_Takeoff,
308000,2025-09-03 12:01:13,48.1487864133525,11.5721430971454,0,,,1692.861376022,0.984252,0,12.1903547208,3.3630578504,7,3,16.008,1692.861376022,0,0,12.1903547208,0,0,0,114.9, -3.7, -1.1,0,0,1024,1024,1024,1024,0,0,0,0,0.8,-34.2,-33,72,4.011,4.016,4.017,4.009,0,0,2.174,118.31,1692.861376022,0,10,Assisted_Takeoff,
308100,2025-09-03 12:01:13,48.1487864208336,11.572142944969,0,,,1692.861376022,0.984252,0,12.2065948788,3.4002297676,7,3,16.008,1692.861376022,0,0,12.2065948788,0,0,0,114.9, -3.7, -1.1,0,0,1024,1024,1029,1024,0,0,1,0,0.7,-34.2,-33,72,4.011,4.016,4.017,4.009,0,0,2.174,118.31,1692.861376022,0,10,Assisted_Takeoff,
308200,2025-09-03 12:01:13,48.1487864241198,11.5721428036119,0,,,1692.861376022,0.984252,0,12.2205712572,3.4346457792,7,3,16.005,1692.861376022,0,0,12.2205712572,0,0,0,114.9, -3.7, -1.1,0,0,1024,1024,1046,1024,0,0,3,0,0.7,-34.2,-32.8,72,4.01,4.016,4.017,4.009,0,0,2.182,118.31,1692.861376022,0,10,Assisted_Takeoff,
308300,2025-09-03 12:01:13,48.1487864183682,11.5721426851455,0,,,1692.861376022,0.984252,0,12.2294295252,3.4635499796,7,3,16.005,1692.861376022,0,0,12.2294295252,0,0,0,114.9, -3.7, -1.2,0,0,1024,1024,1080,1024,0,0,8,0,0.5,-34.3,-33,72,4.01,4.016,4.017,4.009,0,0,2.182,118.31,1692.861376022,0,10,Assisted_Takeoff,
308400,2025-09-03 12:01:13,48.1487863699578,11.5721425277744,0,,,1692.861376022,1.312336,0,12.2275594464,3.505741582,7,3,16.005,1692.861376022,0,0,12.2294295252,0,0,0,114.9, -3.7, -1.1,0,0,1024,1024,1120,1024,0,0,15,0,0.5,-34.3,-32.8,72,4.01,4.016,4.017,4.009,0,0,2.182,118.31,1692.861376022,0,10,Assisted_Takeoff,
308500,2025-09-03 12:01:13,48.148786363229,11.5721425368433,0,,,1692.861376022,1.312336,0,12.2244426484,3.5090552304,7,3,16.005,1692.861376022,0,0,12.2294295252,0,0,0,114.8, -3.7, -1.1,0,0,1024,1024,1136,1024,0,0,17,0,0.4,-34.4,-32.9,72,4.01,4.016,4.017,4.009,0,0,2.182,118.31,1692.861376022,0,10,Assisted_Takeoff,
308600,2025-09-03 12:01:13,48.1487863514293,11.5721425393192,0,,,1692.861376022,1.312336,0,12.2202431732,3.5133859392,7,3,16.005,1692.861376022,0,0,12.2294295252,0,0,0,114.9, -3.7, -1.1,0,0,1024,1024,1164,1024,0,0,21,0,0.3,-34.4,-32.9,72,4.01,4.016,4.017,4.009,0,0,2.182,118.31,1692.861376022,0,10,Assisted_Takeoff,
308700,2025-09-03 12:01:13,48.1487862940788,11.5721424818745,0,,,1692.861376022,1.312336,0,12.206201178,3.538549982,7,3,16.005,1692.861376022,0,0,12.2294295252,0,0,0,114.8, -3.6, -1.2,0,0,1024,1024,1198,1024,0,0,26,0,0.2,-34.5,-32.9,72,4.01,4.016,4.017,4.009,0,0,2.182,118.31,1692.861376022,0,10,Assisted_Takeoff,
308800,2025-09-03 12:01:13,48.1487861299382,11.5721426253768,0,,,1692.861376022,1.312336,0,12.1375331968,3.6079069396,7,3,16.005,1692.861376022,0,0,12.2294295252,0,0,0,114.9, -3.7, -1.2,0,0,1024,1024,1202,1024,0,0,27,0,0.2,-34.5,-32.9,72,4.01,4.016,4.017,4.009,0,0,2.182,118.31,1692.861376022,0,10,Assisted_Takeoff,
308900,2025-09-03 12:01:13,48.1487861631584,11.5721425261603,0,,,1692.861376022,1.312336,0,12.1579400216,3.6349082528,7,3,16.005,1692.861376022,0,0,12.2294295252,0,0,0,114.8, -3.7, -1.2,0,0,1024,1024,1204,1024,0,0,27,0,0.1,-34.6,-33.1,72,4.01,4.016,4.017,4.009,0,0,2.182,118.31,1692.861376022,0,10,Assisted_Takeoff,
309000,2025-09-03 12:01:14,48.1487861942421,11.5721424305588,0,,,1692.861376022,1.312336,0,12.177329786,3.6607940804,7,3,16.005,1692.861376022,0,0,12.2294295252,0,0,0,114.8, -3.7, -1.3,0,0,1024,1024,1207,1024,0,0,28,0,0.1,-34.6,-33,72,4.01,4.016,4.017,4.009,0,0,2.182,118.31,1692.861376022,0,10,Assisted_Takeoff,
309100,2025-09-03 12:01:14,48.1487862123667,11.5721423196706,0,,,1692.861376022,1.312336,0,12.1937996028,3.6885827952,7,3,16.005,1692.861376022,0,0,12.2294295252,0,0,0,114.8, -3.7, -1.3,0,0,1024,1024,1202,1024,0,0,27,0,0,-34.9,-33.2,72,4.01,4.016,4.017,4.009,0,0,2.182,118.31,1692.861376022,0,10,Assisted_Takeoff,
309200,2025-09-03 12:01:14,48.1487862366761,11.5721422062223,0,,,1692.861376022,1.312336,0,12.2126316244,3.7175854208,7,3,15.949,1692.861376022,0,0,12.2294295252,0,0,0,114.9, -3.8, -1.4,0,0,1024,1024,1206,1024,0,0,28,0,359.8,-35.1,-33.1,72,4.01,4.016,4.016,4.009,0,0,2.18,118.31,1692.861376022,0,10,Assisted_Takeoff,
309300,2025-09-03 12:01:14,48.1487864680748,11.5721418716561,0,,,1692.861376022,0.656168,0,12.3220476384,3.8349082592,7,3,15.949,1692.861376022,0,0,12.3220476384,0,0,0,114.9, -4.1, -1.6,0,0,1024,1024,1202,1024,0,0,27,0,0,-35.4,-33.3,72,4.01,4.016,4.016,4.009,0,0,2.18,118.31,1692.861376022,0,10,Assisted_Takeoff,
309400,2025-09-03 12:01:14,48.1487865143258,11.5721417530629,0,,,1692.861376022,0.656168,0,12.3488521012,3.8683400188,7,3,15.949,1692.861376022,0,0,12.3488521012,0,0,0,114.9, -5.1, -1.7,0,0,1024,1024,1207,1024,0,0,28,0,359.6,-37.2,-33.5,72,4.01,4.016,4.016,4.009,0,0,2.18,118.31,1692.861376022,0,10,Assisted_Takeoff,
309500,2025-09-03 12:01:14,48.1487865157133,11.5721417488787,0,,,1692.861376022,0.656168,0,12.3497051196,3.8694883128,7,3,15.949,1692.861376022,0,0,12.3497051196,0,0,0,114.9, -7.2, -2.1,0,0,1024,1024,1217,1024,0,0,29,0,359.6,-40,-33.3,72,4.01,4.016,4.016,4.009,0,0,2.18,118.31,1692.861376022,0,10,Assisted_Takeoff,
309600,2025-09-03 12:01:14,48.148786498442,11.572141818438,0,,,1692.861376022,0.656168,0.223694,12.3373035444,3.8875657412,7,3,15.949,1692.861376022,0,0.223694,12.3497051196,0,0.223694,0,114.8, -9.6, -1.9,0,0,1024,1024,1225,1024,0,0,30,0,0.3,-41.3,-32.9,72,4.01,4.016,4.016,4.009,0,0,2.18,118.31,1692.861376022,0,10,Assisted_Takeoff,
309700,2025-09-03 12:01:14,48.1487863902449,11.5721421779986,0,,,1692.861376022,0.984252,0.4921268,12.2669623348,3.9835631196,7,3,15.949,1692.861376022,0,0.4921268,12.3497051196,-0.223694,0.447388,-0.223694,115, -9.2, -1.3,0,0,1024,1024,1226,1024,0,0,31,0,0.7,-38.4,-32.4,72,4.01,4.016,4.016,4.009,0,0,2.18,118.31,1692.861376022,0,10,Assisted_Takeoff,
309800,2025-09-03 12:01:14,48.1487862865228,11.5721425300457,0,,,1692.861376022,0.656168,0.7158208,12.1992129888,4.07726391,7,3,15.949,1692.861376022,0,0.7158208,12.3497051196,-0.223694,0.671082,-0.671082,115.2, -2.3, 0.1,0,0,1024,1024,1228,1024,0,0,31,0,0.6,-26.8,-31.3,72,4.01,4.016,4.016,4.009,0,0,2.18,118.31,1692.861376022,0,6,P-GPS,"Braking now. Return sticks to midpoints, then continue flying."
309900,2025-09-03 12:01:15,48.1487861449068,11.5721428469794,0,,,1692.861376022,0.984252,0.7158208,12.1221788656,4.170111682,7,3,15.949,1692.861376022,0,0.7158208,12.3497051196,-0.223694,0.671082,-1.11847,115.3, 4.3, 0.8,0,0,1024,1024,1227,1024,0,0,31,0,359.5,-25.3,-32.7,72,4.01,4.016,4.016,4.009,0,0,2.18,118.31,1692.861376022,0,6,P-GPS,
310000,2025-09-03 12:01:15,48.1487860147388,11.5721431201022,0.328084,,,1693.189460022,0.984252,0.7158208,12.0532156088,4.251804598,6,3,15.949,1693.189460022,0.328084,0.7158208,12.3497051196,-0.223694,0.671082,-1.342164,115.2, 6.4, -0.6,0,0,1024,1024,1227,1024,0,0,31,0,0.2,-26.3,-33.4,72,4.01,4.016,4.016,4.009,0,0,2.18,118.31,1693.189460022,0.328084,6,P-GPS,
310100,2025-09-03 12:01:15,48.1487859600003,11.5721433717724,0.656168,,,1693.517544022,1.312336,0.447388,12.0119426416,4.3162402956,6,3,15.949,1693.517544022,0.656168,0.7158208,12.3497051196,0,0.447388,-1.565858,115.4, 4.9, -0.7,0,0,1024,1024,1225,1024,0,0,30,0,0.9,-29.2,-31.4,72,4.01,4.016,4.016,4.009,0,0,2.18,118.31,1693.517544022,0.656168,6,P-GPS,
310200,2025-09-03 12:01:15,48.1487859476371,11.5721435799745,0.656168,,,1693.517544022,1.312336,0.223694,11.9891079952,4.367126124,6,3,15.801,1693.517544022,0.656168,0.7158208,12.3497051196,0,0.223694,-1.565858,115.4, 3, 0.6,0,0,1024,1024,1217,1024,0,0,29,0,0.9,-29.2,-31.4,72,3.978,3.987,3.985,3.969,0,0,7.582,118.31,1693.517544022,0.656168,6,P-GPS,
310300,2025-09-03 12:01:15,48.1487859664033,11.5721439401881,0.984252,,,1693.845628022,1.64042,0.223694,11.9637142936,4.4550854444,6,3,15.801,1693.845628022,0.984252,0.7158208,12.3497051196,0,0.223694,-1.565858,115.1, 2.3, 1.6,0,0,1024,1024,1208,1024,0,0,28,0,0,-30.4,-30.3,72,3.978,3.987,3.985,3.969,0,0,7.582,118.31,1693.845628022,0.984252,6,P-GPS,
310400,2025-09-03 12:01:15,48.1487860023496,11.5721441998675,1.312336,,,1694.173712022,1.968504,0,11.953412456,4.5196523756,6,3,15.801,1694.173712022,1.312336,0.7158208,12.3497051196,0,0,-1.789552,114.7, 1.2, 0.8,0,0,1024,1024,1206,1024,0,0,28,0,359.4,-31.9,-31.3,72,3.978,3.987,3.985,3.969,0,0,7.582,118.31,1694.173712022,1.312336,6,P-GPS,
310500,2025-09-03 12:01:15,48.1487862696554,11.572145034247,1.64042,,,1694.501796022,2.296588,0,11.9747707244,4.7449476584,6,3,15.801,1694.501796022,1.64042,0.7158208,12.3497051196,0,0,-1.789552,114.6, 0.4, 0.2,0,0,1024,1024,1206,1024,0,0,28,0,359.3,-32.6,-31.7,72,3.978,3.987,3.985,3.969,0,0,7.582,118.31,1694.501796022,1.64042,6,P-GPS,
310600,2025-09-03 12:01:15,48.1487863713843,11.5721451336758,1.968504,,,1694.829880022,2.296588,0,12.0016079956,4.7892718068,7,3,15.801,1694.829880022,1.968504,0.7158208,12.3497051196,0,0,-1.565858,114.6, 0.1, 0.6,0,0,1024,1024,1200,1024,0,0,27,0,359.6,-32.6,-30.6,72,3.978,3.987,3.985,3.969,0,0,7.582,118.31,1694.829880022,1.968504,6,P-GPS,
310700,2025-09-03 12:01:15,48.1487864144925,11.5721453151387,1.968504,,,1694.829880022,2.624672,0,12.0017720376,4.8361550104,7,3,15.801,1694.829880022,1.968504,0.7158208,12.3497051196,0,0,-1.565858,114.6, 0.1, 0.5,0,0,1024,1024,1204,1024,0,0,27,0,359.5,-32.6,-31.1,72,3.978,3.987,3.985,3.969,0,0,7.582,118.31,1694.829880022,1.968504,6,P-GPS,
310800,2025-09-03 12:01:15,48.1487864384045,11.5721454413612,2.296588,,,1695.157964022,2.952756,0,11.9999019588,4.8680775836,8,3,15.801,1695.157964022,2.296588,0.7158208,12.3497051196,0,0,-1.565858,114.6, -0.2, 0.1,0,0,1024,1024,1197,1024,0,0,26,0,359.7,-32.9,-31.7,72,3.978,3.987,3.985,3.969,0,0,7.582,118.31,1695.157964022,2.296588,6,P-GPS,
310900,2025-09-03 12:01:16,48.1487863951335,11.572145420102,2.624672,,,1695.486048022,3.28084,0,11.9866801736,4.8847114424,8,3,15.801,1695.486048022,2.624672,0.7158208,12.3497051196,0,0,-1.789552,114.6, -0.5, 0,0,0,1024,1024,1193,1024,0,0,26,0,359.6,-33.1,-31.3,72,3.978,3.987,3.985,3.969,0,0,7.582,118.31,1695.486048022,2.624672,6,P-GPS,
311000,2025-09-03 12:01:16,48.1487862361322,11.5721457583325,2.952756,,,1695.814132022,3.28084,0,11.9049872576,4.9854332304,8,3,15.801,1695.814132022,2.952756,0.7158208,12.3497051196,0,0,-1.565858,114.5, -0.2, 0.2,0,0,1024,1024,1192,1024,0,0,25,0,359.6,-32.1,-31.4,72,3.978,3.987,3.985,3.969,0,0,7.582,118.31,1695.814132022,2.952756,6,P-GPS,
311100,2025-09-03 12:01:16,48.1487862589077,11.5721457790308,3.28084,,,1696.142216022,3.608924,0,11.9112208536,4.9951445168,8,3,15.801,1696.142216022,3.28084,0.7158208,12.3497051196,0,0,-1.565858,114.5, 0.5, 0,0,0,1024,1024,1196,1024,0,0,26,0,359.4,-31.9,-31.9,72,3.978,3.987,3.985,3.969,0,0,7.582,118.31,1696.142216022,3.28084,6,P-GPS,
311200,2025-09-03 12:01:16,48.1487862651055,11.5721457944017,3.28084,,,1696.142216022,3.937008,0,11.9121722972,4.999508034,8,3,15.594,1696.142216022,3.28084,0.7158208,12.3497051196,0,0,-1.565858,114.6, 0.3, 0,0,0,1024,1024,1203,1024,0,0,27,0,359.8,-32.4,-31.6,72,3.978,3.987,3.985,3.969,0,0,19.882,118.31,1696.142216022,3.28084,6,P-GPS,
311300,2025-09-03 12:01:16,48.1487861393766,11.5721458839018,3.608924,,,1696.470300022,4.265092,0,11.861712978,5.0502954372,8,3,15.594,1696.470300022,3.608924,0.7158208,12.3497051196,0,0,-1.342164,114.5, -0.2, 0.2,0,0,1024,1024,1208,1024,0,0,28,0,359.4,-33.1,-32,72,3.978,3.987,3.985,3.969,0,0,19.882,118.31,1696.470300022,3.608924,6,P-GPS,
311400,2025-09-03 12:01:16,48.1487857135971,11.5721463064318,3.937008,,,1696.798384022,4.265092,0,11.681594862,5.2366143408,7,3,15.594,1696.798384022,3.937008,0.7158208,12.3497051196,0,0,-1.342164,114.4, -0.2, -0.5,0,0,1024,1024,1216,1024,0,0,29,0,358.6,-33.5,-33.3,72,3.978,3.987,3.985,3.969,0,0,19.882,118.31,1696.798384022,3.937008,6,P-GPS,
311500,2025-09-03 12:01:16,48.1487855412524,11.5721463818394,3.937008,,,1696.798384022,4.593176,0.223694,11.616142104,5.3020999072,7,3,15.594,1696.798384022,3.937008,0.7158208,12.3497051196,0,-0.223694,-1.342164,114.5, -0.2, -1.5,0,0,1024,1024,1217,1024,0,0,29,0,358.6,-33.5,-33.3,72,3.978,3.987,3.985,3.969,0,0,19.882,118.31,1696.798384022,3.937008,6,P-GPS,
311600,2025-09-03 12:01:16,48.1487854038801,11.572146415161,4.265092,,,1697.126468022,4.593176,0.223694,11.5660436772,5.3528873104,8,3,15.594,1697.126468022,4.265092,0.7158208,12.3497051196,0,-0.223694,-1.342164,114.6, -0.2, -1.3,0,0,1024,1024,1205,1024,0,0,27,0,359.3,-33.1,-33.5,72,3.978,3.987,3.985,3.969,0,0,19.882,118.31,1697.126468022,4.265092,6,P-GPS,
311700,2025-09-03 12:01:16,48.1487853786913,11.5721461063746,4.593176,,,1697.454552022,4.92126,0.223694,11.5815948588,5.4286090976,8,3,15.594,1697.454552022,4.593176,0.7158208,12.3497051196,0,-0.223694,-1.565858,114.7, -1, -1.3,0,0,1024,1024,1214,1024,0,0,29,0,359.6,-33.7,-33.3,72,3.978,3.987,3.985,3.969,0,0,19.882,118.31,1697.454552022,4.593176,6,P-GPS,
311800,2025-09-03 12:01:16,48.1487851893326,11.5721454676927,4.593176,,,1697.454552022,5.249344,0.223694,11.5681434148,5.59875346,8,3,15.594,1697.454552022,4.593176,0.7158208,12.3497051196,0,-0.223694,-1.565858,114.6, -1.7, -1.3,0,0,1024,1024,1219,1024,0,0,30,0,359.6,-34.3,-33,72,3.978,3.987,3.985,3.969,0,0,19.882,118.31,1697.454552022,4.593176,6,P-GPS,
311900,2025-09-03 12:01:16,48.1487852995457,11.5721447190466,4.92126,,,1697.782636022,5.249344,0.223694,11.6688652028,5.7853676392,8,3,15.594,1697.782636022,4.92126,0.7158208,12.3497051196,0,-0.223694,-1.565858,114.7, -2.1, -1.4,0,0,1024,1024,1220,1024,0,0,30,0,358.7,-35.1,-33.2,72,3.978,3.987,3.985,3.969,0,0,19.882,118.31,1697.782636022,4.92126,6,P-GPS,
312000,2025-09-03 12:01:17,48.1487854172073,11.5721440277747,5.249344,,,1698.110720022,5.577428,0.223694,11.7691604816,5.9590225004,8,3,15.594,1698.110720022,5.249344,0.7158208,12.3497051196,0,-0.223694,-1.565858,114.7, -2.2, -1.3,0,0,1024,1024,1220,1024,0,0,30,0,359.9,-34.8,-33,72,3.978,3.987,3.985,3.969,0,0,19.882,118.31,1698.110720022,5.249344,6,P-GPS,
312100,2025-09-03 12:01:17,48.1487854503396,11.5721436490896,5.249344,,,1698.110720022,5.905512,0.3131716,11.8142064148,6.052001506,8,3,15.594,1698.110720022,5.249344,0.7158208,12.3497051196,0.223694,-0.223694,-1.565858,114.7, -2.6, -0.8,0,0,1024,1024,1222,1024,0,0,30,0,359.7,-35.1,-32.7,72,3.978,3.987,3.985,3.969,0,0,19.882,118.31,1698.110720022,5.249344,6,P-GPS,
312200,2025-09-03 12:01:17,48.1487855708543,11.572142255054,5.577428,,,1698.438804022,6.233596,0.3131716,11.9842851604,6.394193118,8,3,15.515,1698.438804022,5.577428,0.7158208,12.3497051196,0.223694,-0.223694,-1.565858,114.6, -3, -0.6,0,0,1024,1024,1224,1024,0,0,30,0,359.4,-35.9,-32.3,72,3.901,3.923,3.922,3.899,0,0,19.882,118.31,1698.438804022,5.577428,6,P-GPS,
312300,2025-09-03 12:01:17,48.1487858437098,11.5721417199034,5.905512,,,1698.766888022,6.233596,0.223694,12.1272641676,6.5581366928,8,3,15.515,1698.766888022,5.905512,0.7158208,12.3497051196,0.223694,0,-1.789552,114.6, -3.5, -0.5,0,0,1024,1024,1227,1024,0,0,31,0,359.8,-35.8,-32.4,72,3.901,3.923,3.922,3.899,0,0,19.882,118.31,1698.766888022,5.905512,6,P-GPS,
312400,2025-09-03 12:01:17,48.1487861067361,11.5721412569495,6.233596,,,1699.094972022,6.56168,0.223694,12.2604006548,6.7061681936,8,3,15.515,1699.094972022,6.233596,0.7158208,12.3497051196,0.223694,0,-1.789552,114.6, -3.6, -0.4,0,0,1024,1036,1228,1024,0,2,31,0,359.8,-35.4,-32.4,72,3.901,3.923,3.922,3.899,0,0,19.882,118.31,1699.094972022,6.233596,6,P-GPS,
312500,2025-09-03 12:01:17,48.1487863101613,11.5721410226607,6.56168,,,1699.423056022,6.889764,0,12.3513455396,6.7997705588,8,3,15.515,1699.423056022,6.56168,0.7158208,12.3513455396,0,0,-1.789552,114.6, -3.3, -0.4,0,0,1024,1024,1227,1024,0,0,31,0,359.9,-35.2,-32.1,72,3.901,3.923,3.922,3.899,0,0,19.882,118.31,1699.423056022,6.56168,6,P-GPS,
312600,2025-09-03 12:01:17,48.1487864941885,11.5721408717467,6.56168,,,1699.423056022,7.217848,0,12.4276250696,6.8762797476,6,3,15.515,1699.423056022,6.56168,0.7158208,12.4276250696,0,0,-1.789552,114.7, -2.8, -0.1,0,0,1024,1024,1230,1024,0,0,31,0,359.9,-34.9,-31.6,72,3.901,3.923,3.922,3.899,0,0,19.882,118.31,1699.423056022,6.56168,6,P-GPS,
312700,2025-09-03 12:01:17,48.1487869052306,11.5721411054032,6.889764,,,1699.751140022,7.545932,0.223694,12.5420935772,7.0366800152,6,3,15.515,1699.751140022,6.889764,0.7158208,12.5420935772,0.223694,0,-1.789552,114.6, -2.6, 0.1,0,0,1024,1024,1227,1024,0,0,31,0,0.2,-34.5,-32.1,72,3.901,3.923,3.922,3.899,0,0,19.882,118.31,1699.751140022,6.889764,6,P-GPS,
312800,2025-09-03 12:01:17,48.1487870209836,11.5721412778561,7.217848,,,1700.079224022,7.874016,0.223694,12.5642720556,7.0962272612,6,3,15.515,1700.079224022,7.217848,0.7158208,12.5642720556,0.223694,0,-1.789552,114.7, -2.3, 0.5,0,0,1024,1024,1226,1024,0,0,31,0,359.4,-34.8,-32,72,3.901,3.923,3.922,3.899,0,0,19.882,118.31,1700.079224022,7.217848,6,P-GPS,
312900,2025-09-03 12:01:18,48.1487871859776,11.5721413707674,7.545932,,,1700.407308022,7.874016,0.223694,12.6107943668,7.1605317252,6,3,15.515,1700.407308022,7.545932,0.7158208,12.6107943668,0.223694,0,-2.013246,114.7, -2.2, 0.5,0,0,1090,1024,1225,1024,10,0,30,0,359.4,-34.8,-32,72,3.901,3.923,3.922,3.899,0,0,19.882,118.31,1700.407308022,7.545932,6,P-GPS,
313000,2025-09-03 12:01:18,48.1487873226985,11.5721414490772,7.874016,,,1700.735392022,8.2021,0,12.6493114284,7.2139438004,7,3,15.515,1700.735392022,7.874016,0.7158208,12.6493114284,0,0,-2.013246,114.7, -2.4, 0.1,0,0,1146,1024,1221,1024,18,0,30,0,359.2,-34.9,-32.1,72,3.901,3.923,3.922,3.899,0,0,19.882,118.31,1700.735392022,7.874016,6,P-GPS,
313100,2025-09-03 12:01:18,48.1487874853637,11.5721413823924,8.2021,,,1701.063476022,8.530184,0,12.7103350524,7.2754595504,7,3,15.515,1701.063476022,8.2021,0.7158208,12.7103350524,0,0,-1.789552,114.7, -2.7, 0,0,0,1174,1024,1225,1024,23,0,30,0,359.5,-35.1,-32.6,72,3.901,3.923,3.922,3.899,0,0,19.882,118.31,1701.063476022,8.2021,6,P-GPS,
313200,2025-09-03 12:01:18,48.1487875628158,11.5721413664041,8.530184,,,1701.391560022,8.858268,0,12.7378941084,7.3040028584,8,3,15.514,1701.391560022,8.530184,0.7158208,12.7378941084,0,0,-1.789552,114.7, -3.7, -0.2,0,0,1175,1024,1222,1024,23,0,30,0,358.5,-36.7,-32.2,72,3.894,3.914,3.911,3.886,0,0,18.752,118.31,1701.391560022,8.530184,6,P-GPS,
313300,2025-09-03 12:01:18,48.1487876203162,11.5721414625518,8.858268,,,1701.719644022,9.186352,0,12.7482287544,7.3354333056,8,3,15.514,1701.719644022,8.858268,0.7158208,12.7482287544,0,0,-1.789552,114.8, -4.9, -0.3,0,0,1173,1024,1225,1024,23,0,30,0,359.2,-37.5,-32.4,72,3.894,3.914,3.911,3.886,0,0,18.752,118.31,1701.719644022,8.858268,6,P-GPS,
313400,2025-09-03 12:01:18,48.148787646583,11.5721416197737,9.186352,,,1702.047728022,9.514436,0.223694,12.7424216676,7.3748690024,7,3,15.514,1702.047728022,9.186352,0.7158208,12.7482287544,0,0.223694,-1.789552,114.8, -6, -0.2,0,0,1160,1024,1225,1024,21,0,30,0,0,-38,-32.7,72,3.894,3.914,3.911,3.886,0,0,18.752,118.31,1702.047728022,9.186352,6,P-GPS,
313500,2025-09-03 12:01:18,48.1487874495347,11.5721420744738,9.514436,,,1702.375812022,9.514436,0.447388,12.6339570972,7.5068571956,7,3,15.514,1702.375812022,9.514436,0.7158208,12.7482287544,0,0.447388,-1.789552,114.8, -6.7, 0,0,0,1124,1024,1224,1024,15,0,30,0,359.2,-39,-32.4,72,3.894,3.914,3.911,3.886,0,0,18.752,118.31,1702.375812022,9.514436,6,P-GPS,
313600,2025-09-03 12:01:18,48.148787339022,11.5721424703501,9.514436,,,1702.375812022,9.84252,0.671082,12.5605647064,7.6113191412,7,3,15.514,1702.375812022,9.514436,0.7158208,12.7482287544,0,0.671082,-1.789552,114.7, -6.6, 0,0,0,1051,1024,1227,1024,4,0,31,0,359.1,-38.6,-32.3,72,3.894,3.914,3.911,3.886,0,0,18.752,118.31,1702.375812022,9.514436,6,P-GPS,
313700,2025-09-03 12:01:18,48.1487871028748,11.5721431547402,9.84252,,,1702.703896022,10.170604,0.7158208,12.4193901612,7.798884764,7,3,15.514,1702.703896022,9.84252,0.7158208,12.7482287544,-0.223694,0.671082,-1.789552,114.7, -6.1, 0,0,0,1054,1024,1227,1024,5,0,31,0,359,-37.9,-32.5,72,3.894,3.914,3.911,3.886,0,0,18.752,118.31,1702.703896022,9.84252,6,P-GPS,
313800,2025-09-03 12:01:18,48.1487868428156,11.5721438902305,10.170604,,,1703.031980022,10.826772,0.9171454,12.2669295264,8.0015094424,7,3,15.514,1703.031980022,10.170604,0.9171454,12.7482287544,-0.223694,0.894776,-1.789552,114.7, -4.8, -0.5,0,0,1053,1024,1228,1024,4,0,31,0,358.5,-36.4,-33,72,3.894,3.914,3.911,3.886,0,0,18.752,118.31,1703.031980022,10.170604,6,P-GPS,
313900,2025-09-03 12:01:19,48.148786256351,11.572145203528,10.498688,,,1703.360064022,11.154856,0.9171454,11.956365212,8.3861879324,7,3,15.514,1703.360064022,10.498688,0.9171454,12.7482287544,-0.223694,0.894776,-1.789552,114.8, -3.2, -0.8,0,0,1053,1024,1228,1024,4,0,31,0,358.4,-35.2,-33,72,3.894,3.914,3.911,3.886,0,0,18.752,118.31,1703.360064022,10.498688,6,P-GPS,
314000,2025-09-03 12:01:19,48.1487859842869,11.5721460342924,10.826772,,,1703.688148022,11.154856,0.9171454,11.7963586452,8.6114832152,8,3,15.514,1703.688148022,10.826772,0.9171454,12.7482287544,-0.223694,0.894776,-1.789552,114.9, -2.1, -0.6,0,0,1091,1024,1228,1024,10,0,31,0,359.3,-34.3,-33,72,3.894,3.914,3.911,3.886,0,0,18.752,118.31,1703.688148022,10.826772,6,P-GPS,
314100,2025-09-03 12:01:19,48.1487856740422,11.5721471213784,11.154856,,,1704.016232022,11.48294,0.9171454,11.6061683504,8.8993113084,8,3,15.514,1704.016232022,11.154856,0.9171454,12.7482287544,-0.223694,0.894776,-1.789552,114.9, -1.8, -0.2,0,0,1148,1024,1227,1024,19,0,31,0,359.4,-34.3,-32.5,72,3.894,3.914,3.911,3.886,0,0,18.752,118.31,1704.016232022,11.154856,6,P-GPS,
314200,2025-09-03 12:01:19,48.1487853810168,11.5721481488515,11.48294,,,1704.344316022,11.48294,0.9171454,11.4302169012,9.1712929444,8,3,15.495,1704.344316022,11.48294,0.9171454,12.7482287544,-0.223694,0.894776,-1.789552,114.9, -1.9, -0.2,0,0,1151,1024,1229,1024,19,0,31,0,359.4,-34.3,-32.5,72,3.886,3.909,3.908,3.883,0,0,18.54,118.31,1704.344316022,11.48294,6,P-GPS,
314300,2025-09-03 12:01:19,48.1487851359457,11.5721490980651,11.811024,,,1704.672400022,11.811024,0.9171454,11.2800856628,9.4190619812,8,3,15.495,1704.672400022,11.811024,0.9171454,12.7482287544,0,0.894776,-1.789552,114.8, -3.2, -0.2,0,0,1090,1024,1232,1024,10,0,32,0,358.9,-36,-32.6,72,3.886,3.909,3.908,3.883,0,0,18.54,118.31,1704.672400022,11.811024,6,P-GPS,
314400,2025-09-03 12:01:19,48.1487849174769,11.5721504973929,11.811024,,,1704.672400022,12.139108,0.894776,11.1156827704,9.7688979504,8,3,15.495,1704.672400022,11.811024,0.9171454,12.7482287544,0,0.894776,-1.789552,114.7, -4.7, 0.2,0,0,1062,1024,1238,1024,6,0,32,0,358.6,-37.6,-32,72,3.886,3.909,3.908,3.883,0,0,18.54,118.31,1704.672400022,11.811024,6,P-GPS,
314500,2025-09-03 12:01:19,48.1487848268605,11.5721513010611,12.139108,,,1705.000484022,12.467192,1.1408394,11.03756597,9.9672903452,8,3,15.495,1705.000484022,12.139108,1.1408394,12.7482287544,-0.223694,1.11847,-1.789552,114.7, -5.1, 0.2,0,0,1043,1024,1240,1024,3,0,33,0,358.6,-37.8,-32,72,3.886,3.909,3.908,3.883,0,0,18.54,118.31,1705.000484022,12.139108,6,P-GPS,
314600,2025-09-03 12:01:19,48.1487847159114,11.5721520963574,12.467192,,,1705.328568022,12.795276,1.1408394,10.9556433952,10.1650921888,7,3,15.495,1705.328568022,12.467192,1.1408394,12.7482287544,-0.223694,1.11847,-1.789552,114.7, -4.3, 0,0,0,1033,1024,1239,1024,1,0,33,0,358.8,-36.7,-32.4,72,3.886,3.909,3.908,3.883,0,0,18.54,118.31,1705.328568022,12.467192,6,P-GPS,
314700,2025-09-03 12:01:19,48.1487845460712,11.5721529102151,12.795276,,,1705.656652022,13.12336,1.2079476,10.8547575652,10.3726709356,7,3,15.495,1705.656652022,12.795276,1.2079476,12.7482287544,-0.447388,1.11847,-2.013246,114.7, -2.7, -0.3,0,0,1024,1024,1235,1024,0,0,32,0,358.9,-34.8,-32.3,72,3.886,3.909,3.908,3.883,0,0,18.54,118.31,1705.656652022,12.795276,6,P-GPS,
314800,2025-09-03 12:01:19,48.1487846967153,11.5721531915209,13.12336,,,1705.984736022,13.12336,1.2079476,10.8956040232,10.460466214,10,3,15.495,1705.984736022,13.12336,1.2079476,12.7482287544,-0.447388,1.11847,-2.013246,114.7, 0.9, -0.5,0,0,1024,1024,1240,1024,0,0,33,0,358.5,-30.9,-32.5,72,3.886,3.909,3.908,3.883,0,0,18.54,118.31,1705.984736022,13.12336,6,P-GPS,
314900,2025-09-03 12:01:19,48.1487845105711,11.5721537334951,13.451444,,,1706.312820022,13.451444,0.9171454,10.8047575636,10.6088586072,10,3,15.495,1706.312820022,13.451444,1.2079476,12.7482287544,-0.223694,0.894776,-2.013246,114.8, 3.5, -0.6,0,0,1024,1024,1241,1024,0,0,33,0,358.8,-29,-32.8,72,3.886,3.909,3.908,3.883,0,0,18.54,118.31,1706.312820022,13.451444,6,P-GPS,
315000,2025-09-03 12:01:20,48.1487843743583,11.5721541506471,13.779528,,,1706.640904022,13.779528,0.7158208,10.7382549368,10.7219163536,9,3,15.495,1706.640904022,13.779528,1.2079476,12.7482287544,-0.223694,0.671082,-2.013246,114.9, 4.3, -0.1,0,0,1024,1024,1240,1024,0,0,33,0,358.5,-29.4,-32.3,72,3.886,3.909,3.908,3.883,0,0,18.54,118.31,1706.640904022,13.779528,6,P-GPS,
315100,2025-09-03 12:01:20,48.1487842998765,11.5721544759286,14.107612,,,1706.968988022,14.107612,0.447388,10.6983599224,10.8056433904,9,3,15.495,1706.968988022,14.107612,1.2079476,12.7482287544,0,0.447388,-2.013246,114.8, 3.5, 0.2,0,0,1024,1024,1242,1024,0,0,33,0,358.5,-30.6,-32.3,72,3.886,3.909,3.908,3.883,0,0,18.54,118.31,1706.968988022,14.107612,6,P-GPS,
315200,2025-09-03 12:01:20,48.1487844192219,11.5721537599197,14.435696,,,1707.297072022,14.435696,0,10.770833678,10.9852693804,8,3,15.483,1707.297072022,14.435696,1.2079476,12.7482287544,0,0,-2.013246,114.8, 2, 0.2,0,0,1024,1024,1239,1024,0,0,33,0,358.3,-31.8,-32.5,72,3.877,3.901,3.9,3.875,0,0,18.524,118.31,1707.297072022,14.435696,6,P-GPS,
315300,2025-09-03 12:01:20,48.148784285569,11.5721540533889,14.76378,,,1707.625156022,14.76378,0,10.7103677968,11.0717851312,8,3,15.483,1707.625156022,14.76378,1.2079476,12.7482287544,0,0,-2.013246,114.8, 1, 0.2,0,0,1060,1024,1238,1024,5,0,32,0,357.7,-33,-32.5,72,3.877,3.901,3.9,3.875,0,0,18.524,118.31,1707.625156022,14.76378,6,P-GPS,
315400,2025-09-03 12:01:20,48.1487841720046,11.5721543016275,15.091864,,,1707.953240022,15.091864,0,10.6593179264,11.1450462884,8,3,15.483,1707.953240022,15.091864,1.2079476,12.7482287544,0,0,-2.013246,114.7, 0.3, 0.4,0,0,1114,1024,1231,1024,14,0,31,0,358.2,-32.9,-32.7,72,3.877,3.901,3.9,3.875,0,0,18.524,118.31,1707.953240022,15.091864,6,P-GPS,
315500,2025-09-03 12:01:20,48.1487840839774,11.5721548211573,15.419948,,,1708.281324022,15.419948,0,10.6072509956,11.2755252952,8,3,15.483,1708.281324022,15.419948,1.2079476,12.7482287544,0,0,-2.013246,114.7, 0, 0.2,0,0,1143,1024,1231,1024,18,0,31,0,358,-33.5,-33,72,3.877,3.901,3.9,3.875,0,0,18.524,118.31,1708.281324022,15.419948,6,P-GPS,
315600,2025-09-03 12:01:20,48.1487837502083,11.5721561852015,15.748032,,,1708.609408022,15.748032,0,10.4398953472,11.6291998472,8,3,15.483,1708.609408022,15.748032,1.2079476,12.7482287544,0,0,-2.013246,114.7, -0.5, -0.2,0,0,1164,1024,1233,1024,21,0,32,0,358,-33.5,-33,72,3.877,3.901,3.9,3.875,0,0,18.524,118.31,1708.609408022,15.748032,6,P-GPS,
315700,2025-09-03 12:01:20,48.1487835804006,11.5721562329278,16.076116,,,1708.937492022,16.076116,0,10.376968836,11.6922247836,8,3,15.483,1708.937492022,16.076116,1.2079476,12.7482287544,0,0,-2.013246,114.7, -2, -0.3,0,0,1175,1024,1233,1024,23,0,32,0,357.6,-35.4,-33.1,72,3.877,3.901,3.9,3.875,0,0,18.524,118.31,1708.937492022,16.076116,6,P-GPS,
315800,2025-09-03 12:01:21,48.1487834119055,11.5721562747128,16.4042,,,1709.265576022,16.076116,0,10.3146984928,11.7545607436,9,3,15.483,1709.265576022,16.4042,1.2079476,12.7482287544,0,0,-2.013246,114.8, -3.5, -0.4,0,0,1136,1024,1239,1024,17,0,33,0,357.6,-36.6,-33,72,3.877,3.901,3.9,3.875,0,0,18.524,118.31,1709.265576022,16.4042,6,P-GPS,
315900,2025-09-03 12:01:21,48.1487832562784,11.5721562942379,16.732284,,,1709.593660022,16.4042,0,10.2577759188,11.811516126,9,3,15.483,1709.593660022,16.732284,1.2079476,12.7482287544,-0.223694,0.223694,-2.013246,114.8, -3.8, -0.7,0,0,1116,1024,1241,1024,14,0,33,0,357.8,-36.7,-33.7,72,3.877,3.901,3.9,3.875,0,0,18.524,118.31,1709.593660022,16.732284,6,P-GPS,
316000,2025-09-03 12:01:21,48.1487830698932,11.572156408187,17.060368,,,1709.921744022,16.732284,0.4921268,10.186844158,11.8849741336,10,3,15.483,1709.921744022,17.060368,1.2079476,12.7482287544,-0.223694,0.447388,-2.013246,114.8, -3.4, -0.8,0,0,1113,1024,1244,1024,13,0,33,0,357.9,-36.4,-33.3,72,3.877,3.901,3.9,3.875,0,0,18.524,118.31,1709.921744022,17.060368,6,P-GPS,
316100,2025-09-03 12:01:21,48.1487824855,11.5721567563992,17.388452,,,1710.249828022,17.060368,0.223694,9.9649281404,12.1144032748,10,3,15.483,1710.249828022,17.388452,1.2079476,12.7482287544,0,0.223694,-2.013246,114.8, -3.5, -0.9,0,0,1115,1024,1244,1024,14,0,33,0,357.6,-36.8,-33.6,72,3.877,3.901,3.9,3.875,0,0,18.524,118.31,1710.249828022,17.388452,6,P-GPS,
316200,2025-09-03 12:01:21,48.1487821921717,11.5721572567361,17.716536,,,1710.577912022,17.388452,0.223694,9.8448493964,12.2765423876,8,3,15.433,1710.577912022,17.716536,1.2079476,12.7482287544,0,0.223694,-2.013246,114.8, -3.5, -0.8,0,0,1120,1024,1246,1024,15,0,34,0,357.3,-36.8,-33.6,72,3.877,3.901,3.9,3.875,0,0,18.524,118.31,1710.577912022,17.716536,6,P-GPS,
316300,2025-09-03 12:01:21,48.1487821361271,11.5721576215557,18.04462,,,1710.905996022,17.716536,0.447388,9.8153874532,12.3676841228,8,3,15.433,1710.905996022,18.04462,1.2079476,12.7482287544,0,0.447388,-2.013246,114.8, -3.6, -0.8,0,0,1118,1024,1247,1024,14,0,34,0,357.9,-36.6,-32.7,72,3.877,3.901,3.9,3.875,0,0,18.524,118.31,1710.905996022,18.04462,6,P-GPS,
316400,2025-09-03 12:01:21,48.1487820742267,11.5721580241915,18.372704,,,1711.234080022,18.04462,0.447388,9.7836945388,12.4682746772,9,3,15.433,1711.234080022,18.372704,1.2079476,12.7482287544,0,0.447388,-2.013246,114.8, -3.7, -0.6,0,0,1098,1024,1248,1024,11,0,34,0,357.4,-36.8,-32.9,72,3.877,3.901,3.9,3.875,0,0,18.524,118.31,1711.234080022,18.372704,6,P-GPS,
316500,2025-09-03 12:01:21,48.1487821667484,11.572158535623,18.372704,,,1711.234080022,18.372704,0.447388,9.807086928,12.5972444976,9,3,15.433,1711.234080022,18.372704,1.2079476,12.7482287544,-0.223694,0.671082,-2.013246,114.8, -3.8, -0.5,0,0,1026,1024,1246,1024,0,0,34,0,357.7,-36.6,-32.9,72,3.877,3.901,3.9,3.875,0,0,18.524,118.31,1711.234080022,18.372704,6,P-GPS,
316600,2025-09-03 12:01:21,48.1487819823532,11.5721591095539,18.700788,,,1711.562164022,18.700788,0.7158208,9.730315272,12.7523298044,9,3,15.433,1711.562164022,18.700788,1.2079476,12.7482287544,-0.223694,0.671082,-2.013246,114.8, -3.7, -0.4,0,0,1024,1024,1249,1024,0,0,34,0,357.3,-36.3,-33.1,72,3.877,3.901,3.9,3.875,0,0,18.524,118.31,1711.562164022,18.700788,6,P-GPS,
316700,2025-09-03 12:01:21,48.1487818078165,11.5721596949581,19.028872,,,1711.890248022,19.028872,0.9171454,9.6588913852,12.9083993632,9,3,15.433,1711.890248022,19.028872,1.2079476,12.7482287544,-0.223694,0.894776,-2.013246,114.7, -2.7, -0.3,0,0,1024,1024,1248,1024,0,0,34,0,356.9,-33.6,-32.4,72,3.877,3.901,3.9,3.875,0,0,18.524,118.31,1711.890248022,19.028872,6,P-GPS,
316800,2025-09-03 12:01:21,48.1487816283001,11.5721602956378,19.356956,,,1712.218332022,19.356956,0.9171454,9.5875331152,13.0686355888,8,3,15.433,1712.218332022,19.356956,1.2079476,12.7482287544,-0.223694,0.894776,-2.013246,114.7, 0.4, 0,0,0,1024,1024,1254,1024,0,0,35,0,356.9,-31.1,-32.5,72,3.877,3.901,3.9,3.875,0,0,18.524,118.31,1712.218332022,19.356956,6,P-GPS,
316900,2025-09-03 12:01:21,48.1487814289981,11.5721614301532,19.68504,,,1712.546416022,19.68504,0.7158208,9.509678782,13.3541999024,8,3,15.433,1712.546416022,19.68504,1.2079476,12.7482287544,-0.223694,0.671082,-2.013246,114.7, 2.6, -0.2,0,0,1024,1024,1255,1024,0,0,35,0,356.8,-30.7,-32.8,72,3.877,3.901,3.9,3.875,0,0,18.524,118.31,1712.546416022,19.68504,6,P-GPS,
317000,2025-09-03 12:01:22,48.1487812148643,11.5721621511807,20.013124,,,1712.874500022,20.013124,0.4921268,9.432415,13.5463258928,9,3,15.433,1712.874500022,20.013124,1.2079476,12.7482287544,-0.223694,0.447388,-2.23694,114.7, 3.3, -0.3,0,0,1024,1024,1259,1024,0,0,36,0,356.8,-30.7,-32.8,72,3.877,3.901,3.9,3.875,0,0,18.524,118.31,1712.874500022,20.013124,6,P-GPS,
317100,2025-09-03 12:01:22,48.148781021252,11.5721625545884,20.341208,,,1713.202584022,20.341208,0.3131716,9.3637142104,13.6672904636,9,3,15.433,1713.202584022,20.341208,1.2079476,12.7482287544,-0.223694,0.223694,-2.23694,114.7, 2.9, -0.6,0,0,1024,1024,1260,1024,0,0,36,0,356.6,-31.2,-33,72,3.877,3.901,3.9,3.875,0,0,18.524,118.31,1713.202584022,20.341208,6,P-GPS,
317200,2025-09-03 12:01:22,48.1487808638955,11.5721628408581,20.669292,,,1713.530668022,20.669292,0.223694,9.3083336312,13.7575791804,8,3,15.436,1713.530668022,20.669292,1.2079476,12.7482287544,0,0.223694,-2.23694,114.6, 1.9, -0.6,0,0,1024,1024,1259,1024,0,0,36,0,356.6,-32,-32.7,72,3.875,3.898,3.895,3.868,0,0,18.256,118.31,1713.530668022,20.669292,6,P-GPS,
