time(millisecond),datetime(utc),latitude,longitude,height_above_takeoff(feet),height_above_ground_at_drone_location(feet),ground_elevation_at_drone_location(feet),altitude_above_seaLevel(feet),height_sonar(feet),speed(mph),distance(feet),mileage(feet),satellites,gpslevel,voltage(v),max_altitude(feet),max_ascent(feet),max_speed(mph),max_distance(feet), xSpeed(mph), ySpeed(mph), zSpeed(mph), compass_heading(degrees), pitch(degrees), roll(degrees),isPhoto,isVideo,rc_elevator,rc_aileron,rc_throttle,rc_rudder,rc_elevator(percent),rc_aileron(percent),rc_throttle(percent),rc_rudder(percent),gimbal_heading(degrees),gimbal_pitch(degrees),gimbal_roll(degrees),battery_percent,voltageCell1,voltageCell2,voltageCell3,voltageCell4,voltageCell5,voltageCell6,current(A),battery_temperature(f),altitude(feet),ascent(feet),flycStateRaw,flycState,message
23400,2025-09-03 09:39:07,0,0,0,Available with any HD 360 subscription,Available with any HD 360 subscription,1692.2566312519,0.328084,0,0,0,7,0,0,1692.2566312519,0,0,0,0,0,0,75, -0.9, -1,0,0,367,364,364,1684,-100,-100,-100,100,317.4,-4.4,-21.5,99,4.304,4.307,4.308,4.305,0,0,0,89.51,1692.2566312519,0,6,P-GPS,
23500,2025-09-03 09:39:08,0,0,0,,,1692.2566312519,0.328084,0,0,0,7,0,0,1692.2566312519,0,0,0,0,0,0,75.1, -0.9, -1,0,0,366,364,364,1684,-100,-100,-100,100,317.3,-4.4,-21.7,99,4.304,4.307,4.308,4.305,0,0,0,89.51,1692.2566312519,0,41,Motors_Started,
23600,2025-09-03 09:39:08,0,0,0,,,1692.2566312519,0.328084,0,0,0,7,0,0,1692.2566312519,0,0,0,0,0,0,74.9, -0.9, -1,0,0,373,364,364,1684,-99,-100,-100,100,317.2,-4.4,-21.6,99,4.304,4.307,4.308,4.305,0,0,0,89.51,1692.2566312519,0,41,Motors_Started,
23700,2025-09-03 09:39:08,0,0,0,,,1692.2566312519,0.328084,0,0,0,7,0,0,1692.2566312519,0,0,0,0,0,0,75.1, -0.9, -1,0,0,1024,1024,1024,1045,0,0,0,3,317.2,-4.5,-21.7,99,4.304,4.307,4.308,4.305,0,0,0,89.51,1692.2566312519,0,41,Motors_Started,
23800,2025-09-03 09:39:08,0,0,0,,,1692.2566312519,0.328084,0,0,0,7,0,0,1692.2566312519,0,0,0,0,0,0,75, -0.9, -1,0,0,1024,1024,1024,1024,0,0,0,0,317.1,-4.5,-21.7,99,4.304,4.307,4.308,4.305,0,0,0,89.51,1692.2566312519,0,41,Motors_Started,
23900,2025-09-03 09:39:08,0,0,0,,,1692.2566312519,0.328084,0,0,0,7,0,0,1692.2566312519,0,0,0,0,0,0,75.1, -0.9, -1,0,0,1024,1024,1024,1024,0,0,0,0,317,-4.5,-21.8,99,4.304,4.307,4.308,4.305,0,0,0,89.51,1692.2566312519,0,41,Motors_Started,
24000,2025-09-03 09:39:08,0,0,0,,,1692.2566312519,0.328084,0,0,0,7,0,17.108,1692.2566312519,0,0,0,0,0,0,75.2, -0.9, -1,0,0,1024,1024,1024,1024,0,0,0,0,316.9,-4.6,-21.9,99,4.304,4.307,4.308,4.305,0,0,1.598,89.51,1692.2566312519,0,41,Motors_Started,"Setting new Return-To-Home altitude to 100m (328 ft). Data Recorder File Index is 237. Setting new Maximum Flight Altitude to 30m (98 ft)"
24100,2025-09-03 09:39:08,0,0,0,,,1692.2566312519,0.328084,0,0,0,7,0,17.108,1692.2566312519,0,0,0,0,0,0,75, -0.9, -1,0,0,1024,1024,1024,1024,0,0,0,0,316.9,-4.6,-21.8,99,4.304,4.307,4.308,4.305,0,0,1.598,89.51,1692.2566312519,0,41,Motors_Started,
24200,2025-09-03 09:39:08,0,0,0,,,1692.2566312519,0.328084,0,0,0,7,0,17.108,1692.2566312519,0,0,0,0,0,0,75.1, -0.9, -1,0,0,1024,1024,1024,1024,0,0,0,0,316.8,-4.6,-21.8,99,4.304,4.307,4.308,4.305,0,0,1.598,89.51,1692.2566312519,0,41,Motors_Started,
24300,2025-09-03 09:39:08,0,0,0,,,1692.2566312519,0.328084,0,0,0,7,0,17.108,1692.2566312519,0,0,0,0,0,0,75, -0.9, -1,0,0,1024,1024,1024,1024,0,0,0,0,316.8,-4.6,-21.8,99,4.304,4.307,4.308,4.305,0,0,1.598,89.51,1692.2566312519,0,41,Motors_Started,
24400,2025-09-03 09:39:08,0,0,0,,,1692.2566312519,0.328084,0,0,0,7,0,17.108,1692.2566312519,0,0,0,0,0,0,75.1, -0.9, -1,0,0,1024,1024,1024,1024,0,0,0,0,316.7,-4.6,-21.8,99,4.304,4.307,4.308,4.305,0,0,1.598,89.51,1692.2566312519,0,41,Motors_Started,
24500,2025-09-03 09:39:09,0,0,0,,,1692.2566312519,0.328084,0,0,0,7,0,17.108,1692.2566312519,0,0,0,0,0,0,75, -0.9, -1,0,0,1024,1024,1024,1024,0,0,0,0,316.7,-4.7,-21.8,99,4.304,4.307,4.308,4.305,0,0,1.598,89.51,1692.2566312519,0,41,Motors_Started,
24600,2025-09-03 09:39:09,0,0,0,,,1692.2566312519,0.328084,0,0,0,7,0,17.108,1692.2566312519,0,0,0,0,0,0,75.1, -0.9, -1,0,0,1024,1024,1024,1024,0,0,0,0,316.6,-4.7,-21.8,99,4.304,4.307,4.308,4.305,0,0,1.598,89.51,1692.2566312519,0,41,Motors_Started,
24700,2025-09-03 09:39:09,0,0,0,,,1692.2566312519,0.328084,0,0,0,7,0,17.108,1692.2566312519,0,0,0,0,0,0,75.1, -0.9, -1,0,0,1024,1024,1024,1024,0,0,0,0,316.5,-4.7,-22,99,4.304,4.307,4.308,4.305,0,0,1.598,89.51,1692.2566312519,0,41,Motors_Started,
24800,2025-09-03 09:39:09,0,0,0,,,1692.2566312519,0.328084,0,0,0,7,0,17.108,1692.2566312519,0,0,0,0,0,0,75.1, -0.9, -1,0,0,1024,1024,1024,1024,0,0,0,0,316.4,-4.7,-21.9,99,4.304,4.307,4.308,4.305,0,0,1.598,89.51,1692.2566312519,0,41,Motors_Started,
24900,2025-09-03 09:39:09,0,0,0,,,1692.2566312519,0.328084,0,0,0,7,0,17.108,1692.2566312519,0,0,0,0,0,0,75.1, -0.9, -1,0,0,1024,1024,1024,1024,0,0,0,0,316.3,-4.7,-22.1,99,4.304,4.307,4.308,4.305,0,0,1.598,89.51,1692.2566312519,0,41,Motors_Started,
25000,2025-09-03 09:39:09,0,0,0,,,1692.2566312519,0.328084,0,0,0,7,0,16.994,1692.2566312519,0,0,0,0,0,0,75.1, -0.9, -1,0,0,1024,1024,1024,1024,0,0,0,0,316.3,-4.7,-22.1,99,4.267,4.273,4.274,4.27,0,0,4.49,89.51,1692.2566312519,0,10,Assisted_Takeoff,
25100,2025-09-03 09:39:09,0,0,0,,,1692.2566312519,0.328084,0,0,0,7,0,16.994,1692.2566312519,0,0,0,0,0,0,75.1, -0.9, -1,0,0,1024,1024,1024,1024,0,0,0,0,316.2,-4.8,-22.1,99,4.267,4.273,4.274,4.27,0,0,4.49,89.51,1692.2566312519,0,10,Assisted_Takeoff,
25200,2025-09-03 09:39:09,0,0,0,,,1692.2566312519,0.328084,0,0,0,7,0,16.994,1692.2566312519,0,0,0,0,0,0,75.1, -0.9, -1,0,0,1024,1024,1024,1024,0,0,0,0,316.1,-4.8,-22.1,99,4.267,4.273,4.274,4.27,0,0,4.49,89.51,1692.2566312519,0,10,Assisted_Takeoff,
25300,2025-09-03 09:39:09,0,0,0,,,1692.2566312519,0.328084,0,0,0,7,0,16.994,1692.2566312519,0,0,0,0,0,0,75.1, -0.9, -1,0,0,1024,1024,1024,1024,0,0,0,0,316,-4.8,-22.2,99,4.267,4.273,4.274,4.27,0,0,4.49,89.51,1692.2566312519,0,10,Assisted_Takeoff,
25400,2025-09-03 09:39:09,0,0,0,,,1692.2566312519,0.328084,0,0,0,7,0,16.994,1692.2566312519,0,0,0,0,0,0,75.1, -0.9, -1,0,0,1024,1024,1024,1024,0,0,0,0,316,-4.8,-22.2,99,4.267,4.273,4.274,4.27,0,0,4.49,89.51,1692.2566312519,0,10,Assisted_Takeoff,
25500,2025-09-03 09:39:10,0,0,0,,,1692.2566312519,0.328084,0,0,0,7,0,16.994,1692.2566312519,0,0,0,0,0,0,75.1, -0.9, -0.9,0,0,1024,1024,1024,1024,0,0,0,0,315.9,-4.9,-22.2,99,4.267,4.273,4.274,4.27,0,0,4.49,89.51,1692.2566312519,0,10,Assisted_Takeoff,
25600,2025-09-03 09:39:10,0,0,0,,,1692.2566312519,0.328084,0,0,0,7,0,16.994,1692.2566312519,0,0,0,0,0,0,75.1, -0.9, -0.9,0,0,1024,1024,1024,1024,0,0,0,0,315.9,-4.9,-22.2,99,4.267,4.273,4.274,4.27,0,0,4.49,89.51,1692.2566312519,0,10,Assisted_Takeoff,
25700,2025-09-03 09:39:10,0,0,0,,,1692.2566312519,0.328084,0,0,0,7,0,16.994,1692.2566312519,0,0,0,0,0,0,75.1, -0.9, -1,0,0,1024,1024,1024,1024,0,0,0,0,315.8,-4.9,-22.3,99,4.267,4.273,4.274,4.27,0,0,4.49,89.51,1692.2566312519,0,10,Assisted_Takeoff,
25800,2025-09-03 09:39:10,0,0,0,,,1692.2566312519,0.328084,0,0,0,6,0,16.994,1692.2566312519,0,0,0,0,0,0,75.1, -0.9, -1,0,0,1024,1024,1024,1024,0,0,0,0,315.7,-4.9,-22.2,99,4.267,4.273,4.274,4.27,0,0,4.49,89.51,1692.2566312519,0,10,Assisted_Takeoff,
25900,2025-09-03 09:39:10,0,0,0,,,1692.2566312519,0.328084,0,0,0,6,0,16.994,1692.2566312519,0,0,0,0,0,0,75.1, -0.9, -1,0,0,1024,1024,1024,1024,0,0,0,0,315.7,-4.9,-22.4,99,4.267,4.273,4.274,4.27,0,0,4.49,89.51,1692.2566312519,0,10,Assisted_Takeoff,
26000,2025-09-03 09:39:10,0,0,0,,,1692.2566312519,0.328084,0,0,0,6,0,17.053,1692.2566312519,0,0,0,0,0,0,75.1, -0.9, -1,0,0,1024,1024,1024,1024,0,0,0,0,315.6,-4.9,-22.2,99,4.267,4.273,4.274,4.27,0,0,4.49,89.51,1692.2566312519,0,10,Assisted_Takeoff,
26100,2025-09-03 09:39:10,0,0,0,,,1692.2566312519,0.328084,0,0,0,6,0,17.053,1692.2566312519,0,0,0,0,0,0,75.1, -0.9, -1,0,0,1024,1024,1024,1024,0,0,0,0,315.5,-5,-22.4,99,4.267,4.273,4.274,4.27,0,0,4.49,89.51,1692.2566312519,0,10,Assisted_Takeoff,
26200,2025-09-03 09:39:10,0,0,0,,,1692.2566312519,0.328084,0,0,0,6,0,17.053,1692.2566312519,0,0,0,0,0,0,75.1, -0.9, -1,0,0,1024,1024,1024,1024,0,0,0,0,315.4,-5,-22.4,99,4.267,4.273,4.274,4.27,0,0,4.49,89.51,1692.2566312519,0,10,Assisted_Takeoff,
26300,2025-09-03 09:39:10,0,0,0,,,1692.2566312519,0.328084,0,0,0,6,0,17.053,1692.2566312519,0,0,0,0,0,0,75.1, -0.9, -1,0,0,1024,1024,1024,1024,0,0,0,0,315.4,-5,-22.5,99,4.267,4.273,4.274,4.27,0,0,4.49,89.51,1692.2566312519,0,10,Assisted_Takeoff,
26400,2025-09-03 09:39:10,0,0,0,,,1692.2566312519,0.328084,0,0,0,6,0,17.053,1692.2566312519,0,0,0,0,0,0,75.1, -0.9, -1,0,0,1024,1024,1024,1024,0,0,0,0,315.3,-5,-22.5,99,4.267,4.273,4.274,4.27,0,0,4.49,89.51,1692.2566312519,0,10,Assisted_Takeoff,
26500,2025-09-03 09:39:11,0,0,0,,,1692.2566312519,0.328084,0,0,0,6,0,17.053,1692.2566312519,0,0,0,0,0,0,75.1, -0.9, -0.9,0,0,1024,1024,1024,1024,0,0,0,0,315.2,-5,-22.6,99,4.267,4.273,4.274,4.27,0,0,4.49,89.51,1692.2566312519,0,10,Assisted_Takeoff,
26600,2025-09-03 09:39:11,0,0,0,,,1692.2566312519,0.328084,0,0,0,6,0,17.053,1692.2566312519,0,0,0,0,0,0,75.1, -0.9, -1,0,0,1024,1024,1024,1024,0,0,0,0,315.1,-5.1,-22.6,99,4.267,4.273,4.274,4.27,0,0,4.49,89.51,1692.2566312519,0,10,Assisted_Takeoff,
26700,2025-09-03 09:39:11,0,0,0,,,1692.2566312519,0.328084,0,0,0,6,0,17.053,1692.2566312519,0,0,0,0,0,0,75.1, -0.9, -1,0,0,1024,1024,1024,1024,0,0,0,0,315.1,-5.1,-22.6,99,4.267,4.273,4.274,4.27,0,0,4.49,89.51,1692.2566312519,0,10,Assisted_Takeoff,
26800,2025-09-03 09:39:11,0,0,0,,,1692.2566312519,0.328084,0,0,0,6,0,17.053,1692.2566312519,0,0,0,0,0,0,75.1, -0.9, -1,0,0,1024,1024,1024,1024,0,0,0,0,315,-5.1,-22.7,99,4.267,4.273,4.274,4.27,0,0,4.49,89.51,1692.2566312519,0,10,Assisted_Takeoff,
26900,2025-09-03 09:39:11,0,0,0,,,1692.2566312519,0.328084,0,0,0,6,0,17.053,1692.2566312519,0,0,0,0,0,0,75.1, -0.9, -1,0,0,1024,1024,1024,1024,0,0,0,0,314.9,-5.1,-22.6,99,4.267,4.273,4.274,4.27,0,0,4.49,89.51,1692.2566312519,0,10,Assisted_Takeoff,
27000,2025-09-03 09:39:11,0,0,0,,,1692.2566312519,0.328084,0,0,0,6,0,17.111,1692.2566312519,0,0,0,0,0,0,75.1, -0.9, -1,0,0,1024,1024,1024,1024,0,0,0,0,314.9,-5.1,-22.6,99,4.291,4.299,4.297,4.295,0,0,2.786,89.51,1692.2566312519,0,10,Assisted_Takeoff,
27100,2025-09-03 09:39:11,0,0,0,,,1692.2566312519,0.328084,0,0,0,6,0,17.111,1692.2566312519,0,0,0,0,0,0,75.1, -0.9, -0.9,0,0,1024,1024,1024,1024,0,0,0,0,314.8,-5.2,-22.7,99,4.291,4.299,4.297,4.295,0,0,2.786,89.51,1692.2566312519,0,10,Assisted_Takeoff,
27200,2025-09-03 09:39:11,0,0,0,,,1692.2566312519,0.328084,0,0,0,6,0,17.111,1692.2566312519,0,0,0,0,0,0,75.1, -0.9, -0.9,0,0,1024,1024,1024,1024,0,0,0,0,314.7,-5.2,-22.6,99,4.291,4.299,4.297,4.295,0,0,2.786,89.51,1692.2566312519,0,10,Assisted_Takeoff,
27300,2025-09-03 09:39:11,0,0,0,,,1692.2566312519,0.328084,0,0,0,6,0,17.111,1692.2566312519,0,0,0,0,0,0,75.1, -0.9, -0.9,0,0,1024,1024,1024,1024,0,0,0,0,314.7,-5.2,-22.7,99,4.291,4.299,4.297,4.295,0,0,2.786,89.51,1692.2566312519,0,10,Assisted_Takeoff,
27400,2025-09-03 09:39:11,0,0,0,,,1692.2566312519,0.328084,0,0,0,6,0,17.111,1692.2566312519,0,0,0,0,0,0,75.1, -0.9, -0.9,0,0,1024,1024,1089,1024,0,0,10,0,314.6,-5.2,-22.7,99,4.291,4.299,4.297,4.295,0,0,2.786,89.51,1692.2566312519,0,10,Assisted_Takeoff,
27500,2025-09-03 09:39:12,0,0,0,,,1692.2566312519,0.328084,0,0,0,6,0,17.111,1692.2566312519,0,0,0,0,0,0,75.1, -0.9, -0.9,0,0,1024,1024,1114,1024,0,0,14,0,314.5,-5.2,-22.8,99,4.291,4.299,4.297,4.295,0,0,2.786,89.51,1692.2566312519,0,10,Assisted_Takeoff,
27600,2025-09-03 09:39:12,0,0,0,,,1692.2566312519,0.328084,0,0,0,6,0,17.111,1692.2566312519,0,0,0,0,0,0,75.1, -0.9, -0.9,0,0,1024,1024,1129,1024,0,0,16,0,314.5,-5.2,-22.8,99,4.291,4.299,4.297,4.295,0,0,2.786,89.51,1692.2566312519,0,10,Assisted_Takeoff,
27700,2025-09-03 09:39:12,0,0,0,,,1692.2566312519,0.328084,0,0,0,6,0,17.111,1692.2566312519,0,0,0,0,0,0,75.1, -0.9, -0.9,0,0,1024,1024,1149,1024,0,0,19,0,314.4,-5.3,-22.8,99,4.291,4.299,4.297,4.295,0,0,2.786,89.51,1692.2566312519,0,10,Assisted_Takeoff,
27800,2025-09-03 09:39:12,0,0,0,,,1692.2566312519,0.328084,0,0,0,6,0,17.111,1692.2566312519,0,0,0,0,0,0,75.1, -0.9, -0.9,0,0,1024,1024,1167,1024,0,0,22,0,314.4,-5.3,-22.8,99,4.291,4.299,4.297,4.295,0,0,2.786,89.51,1692.2566312519,0,10,Assisted_Takeoff,
27900,2025-09-03 09:39:12,0,0,0,,,1692.2566312519,0.328084,0,0,0,6,0,17.111,1692.2566312519,0,0,0,0,0,0,75.1, -0.9, -0.9,0,0,1024,1024,1167,1024,0,0,22,0,314.3,-5.3,-22.8,99,4.291,4.299,4.297,4.295,0,0,2.786,89.51,1692.2566312519,0,10,Assisted_Takeoff,
28000,2025-09-03 09:39:12,0,0,0,,,1692.2566312519,0.328084,0,0,0,6,0,17.048,1692.2566312519,0,0,0,0,0,0,75.1, -0.9, -0.9,0,0,1024,1024,1169,1024,0,0,22,0,314.2,-5.4,-22.8,99,4.295,4.3,4.299,4.296,0,0,2.152,89.51,1692.2566312519,0,10,Assisted_Takeoff,
28100,2025-09-03 09:39:12,0,0,0,,,1692.2566312519,0.328084,0,0,0,6,0,17.048,1692.2566312519,0,0,0,0,0,0,75.1, -0.9, -0.9,0,0,1024,1024,1168,1024,0,0,22,0,314.1,-5.5,-22.7,99,4.295,4.3,4.299,4.296,0,0,2.152,89.51,1692.2566312519,0,10,Assisted_Takeoff,
28200,2025-09-03 09:39:12,0,0,0,,,1692.2566312519,0.328084,0,0,0,6,0,17.048,1692.2566312519,0,0,0,0,0,0,75.1, -1, -0.9,0,0,1024,1024,1168,1024,0,0,22,0,314,-5.5,-22.8,99,4.295,4.3,4.299,4.296,0,0,2.152,89.51,1692.2566312519,0,10,Assisted_Takeoff,
28300,2025-09-03 09:39:12,0,0,0,,,1692.2566312519,0.328084,0,0,0,6,0,17.048,1692.2566312519,0,0,0,0,0,0,75.1, -1.1, -0.8,0,0,1024,1024,1168,1024,0,0,22,0,314,-5.5,-22.8,99,4.295,4.3,4.299,4.296,0,0,2.152,89.51,1692.2566312519,0,10,Assisted_Takeoff,
28400,2025-09-03 09:39:12,0,0,0,,,1692.2566312519,0.328084,0,0,0,6,0,17.048,1692.2566312519,0,0,0,0,0,0,75.1, -1.3, -0.7,0,0,1024,1024,1165,1024,0,0,21,0,313.7,-5.9,-22.8,99,4.295,4.3,4.299,4.296,0,0,2.152,89.51,1692.2566312519,0,10,Assisted_Takeoff,
28500,2025-09-03 09:39:13,0,0,0,,,1692.2566312519,0.328084,0,0,0,6,0,17.048,1692.2566312519,0,0,0,0,0,0,75.2, -1.8, -0.7,0,0,1024,1024,1166,1024,0,0,22,0,313.7,-6.3,-22.6,99,4.295,4.3,4.299,4.296,0,0,2.152,89.51,1692.2566312519,0,10,Assisted_Takeoff,
28600,2025-09-03 09:39:13,0,0,0,,,1692.2566312519,0.328084,0,0,0,6,0,17.048,1692.2566312519,0,0,0,0,0,0,75.4, -2.7, -0.4,0,0,1024,1024,1169,1024,0,0,22,0,314.1,-7.1,-22.4,99,4.295,4.3,4.299,4.296,0,0,2.152,89.51,1692.2566312519,0,10,Assisted_Takeoff,
28700,2025-09-03 09:39:13,0,0,0,,,1692.2566312519,0.328084,0,0,0,6,0,17.048,1692.2566312519,0,0,0,0,0,0,76.2, -4, 0.6,0,0,1024,1024,1170,1024,0,0,22,0,315.3,-8.2,-21.5,99,4.295,4.3,4.299,4.296,0,0,2.152,89.51,1692.2566312519,0,10,Assisted_Takeoff,
28800,2025-09-03 09:39:13,0,0,0,,,1692.2566312519,0.328084,0.223694,0,0,6,0,17.048,1692.2566312519,0,0.223694,0,0,0.223694,-0.223694,76.7, -5.9, 1.5,0,0,1024,1024,1167,1024,0,0,22,0,316.1,-10.7,-20.3,99,4.295,4.3,4.299,4.296,0,0,2.152,89.51,1692.2566312519,0,10,Assisted_Takeoff,
28900,2025-09-03 09:39:13,0,0,0,,,1692.2566312519,0.656168,0.447388,0,0,6,0,17.048,1692.2566312519,0,0.447388,0,0,0.447388,-0.671082,77.1, -3.8, 1.5,0,0,1024,1024,1166,1024,0,0,22,0,315.9,-8.9,-21.8,99,4.295,4.3,4.299,4.296,0,0,2.152,89.51,1692.2566312519,0,6,P-GPS,
29000,2025-09-03 09:39:13,0,0,0,,,1692.2566312519,0.656168,0.447388,0,0,6,0,16.982,1692.2566312519,0,0.447388,0,0,0.447388,-0.894776,77.2, 0.6, -0.4,0,0,1024,1024,1169,1024,0,0,22,0,315.1,-4.9,-23.6,99,4.236,4.246,4.241,4.228,0,0,7.568,89.51,1692.2566312519,0,6,P-GPS,
29100,2025-09-03 09:39:13,0,0,0.328084,,,1692.5847152519,0.984252,0.447388,0,0,6,0,16.982,1692.5847152519,0.328084,0.447388,0,0,0.447388,-1.11847,77.2, 2.6, -1.8,0,0,1024,1024,1171,1024,0,0,22,0,314.6,-4.6,-24.2,99,4.236,4.246,4.241,4.228,0,0,7.568,89.51,1692.5847152519,0.328084,6,P-GPS,
29200,2025-09-03 09:39:13,0,0,0.328084,,,1692.5847152519,0.984252,0.447388,0,0,6,0,16.982,1692.5847152519,0.328084,0.447388,0,0,0.447388,-1.11847,77.1, 4, -1.3,0,0,1024,1024,1169,1024,0,0,22,0,314.9,-4.1,-23.3,99,4.236,4.246,4.241,4.228,0,0,7.568,89.51,1692.5847152519,0.328084,6,P-GPS,
29300,2025-09-03 09:39:13,0,0,0.656168,,,1692.9127992519,1.312336,0.223694,0,0,6,0,16.982,1692.9127992519,0.656168,0.447388,0,0,0.223694,-1.11847,77.1, 3.5, -0.9,0,0,1024,1024,1164,1024,0,0,21,0,315.4,-5.1,-23.5,99,4.236,4.246,4.241,4.228,0,0,7.568,89.51,1692.9127992519,0.656168,6,P-GPS,
29400,2025-09-03 09:39:14,0,0,0.656168,,,1692.9127992519,1.312336,0,0,0,6,0,16.982,1692.9127992519,0.656168,0.447388,0,0,0,-1.11847,77.2, 2.7, -0.7,0,0,1024,1024,1174,1024,0,0,23,0,315.7,-5.9,-22.5,99,4.236,4.246,4.241,4.228,0,0,7.568,89.51,1692.9127992519,0.656168,6,P-GPS,
29500,2025-09-03 09:39:14,0,0,0.984252,,,1693.2408832519,1.64042,0,0,0,6,0,16.982,1693.2408832519,0.984252,0.447388,0,0,0,-1.11847,77.3, 1.8, 0.2,0,0,1024,1024,1174,1024,0,0,23,0,315,-6.2,-21.3,99,4.236,4.246,4.241,4.228,0,0,7.568,89.51,1693.2408832519,0.984252,6,P-GPS,
29600,2025-09-03 09:39:14,0,0,1.312336,,,1693.5689672519,1.64042,0,0,0,6,0,16.982,1693.5689672519,1.312336,0.447388,0,0,0,-1.11847,77.2, 1.5, 0.7,0,0,1024,1024,1165,1024,0,0,21,0,314.7,-7.2,-22.7,99,4.236,4.246,4.241,4.228,0,0,7.568,89.51,1693.5689672519,1.312336,6,P-GPS,
29700,2025-09-03 09:39:14,0,0,1.312336,,,1693.5689672519,1.968504,0,0,0,6,0,16.982,1693.5689672519,1.312336,0.447388,0,0,0,-0.894776,77.1, 0.9, 0,0,0,1024,1024,1164,1024,0,0,21,0,314.7,-7.2,-22.7,99,4.236,4.246,4.241,4.228,0,0,7.568,89.51,1693.5689672519,1.312336,6,P-GPS,
29800,2025-09-03 09:39:14,0,0,1.64042,,,1693.8970512519,1.968504,0,0,0,6,0,16.982,1693.8970512519,1.64042,0.447388,0,0,0,-0.894776,77.1, 0.2, -0.6,0,0,1024,1024,1164,1024,0,0,21,0,315.5,-8,-23.3,99,4.236,4.246,4.241,4.228,0,0,7.568,89.51,1693.8970512519,1.64042,6,P-GPS,
29900,2025-09-03 09:39:14,0,0,1.64042,,,1693.8970512519,2.296588,0,0,0,6,0,16.982,1693.8970512519,1.64042,0.447388,0,0,0,-0.894776,77.1, 0.2, -0.7,0,0,1024,1024,1166,1024,0,0,22,0,315.2,-7.9,-23,99,4.236,4.246,4.241,4.228,0,0,7.568,89.51,1693.8970512519,1.64042,6,P-GPS,
30000,2025-09-03 09:39:14,0,0,1.968504,,,1694.2251352519,2.296588,0,0,0,6,0,16.862,1694.2251352519,1.968504,0.447388,0,0,0,-1.11847,77, 0.5, -0.5,0,0,1024,1024,1168,1024,0,0,22,0,314.3,-8,-22.7,99,4.236,4.246,4.241,4.228,0,0,7.568,89.51,1694.2251352519,1.968504,6,P-GPS,
30100,2025-09-03 09:39:14,0,0,1.968504,,,1694.2251352519,2.624672,0,0,0,6,0,16.862,1694.2251352519,1.968504,0.447388,0,0,0,-1.11847,77, 0.7, -0.3,0,0,1024,1024,1174,1024,0,0,23,0,314.3,-7.7,-22.7,99,4.236,4.246,4.241,4.228,0,0,7.568,89.51,1694.2251352519,1.968504,6,P-GPS,
30200,2025-09-03 09:39:14,0,0,2.296588,,,1694.5532192519,2.624672,0,0,0,5,0,16.862,1694.5532192519,2.296588,0.447388,0,0,0,-0.894776,76.9, 0.6, -0.1,0,0,1024,1024,1180,1024,0,0,24,0,314.8,-7.7,-22.5,99,4.236,4.246,4.241,4.228,0,0,7.568,89.51,1694.5532192519,2.296588,6,P-GPS,
30300,2025-09-03 09:39:14,0,0,2.296588,,,1694.5532192519,2.952756,0,0,0,5,0,16.862,1694.5532192519,2.296588,0.447388,0,0,0,-0.894776,76.8, 0.5, 0,0,0,1024,1024,1184,1024,0,0,24,0,314.6,-7.9,-22.3,99,4.236,4.246,4.241,4.228,0,0,7.568,89.51,1694.5532192519,2.296588,6,P-GPS,
30400,2025-09-03 09:39:14,0,0,2.624672,,,1694.8813032519,2.952756,0,0,0,5,0,16.862,1694.8813032519,2.624672,0.447388,0,0,0,-0.894776,76.7, 0.2, 0.2,0,0,1024,1024,1183,1024,0,0,24,0,314.1,-8.3,-22.1,99,4.236,4.246,4.241,4.228,0,0,7.568,89.51,1694.8813032519,2.624672,6,P-GPS,
30500,2025-09-03 09:39:15,0,0,2.624672,,,1694.8813032519,3.28084,0,0,0,5,0,16.862,1694.8813032519,2.624672,0.447388,0,0,0,-0.894776,76.7, 0.4, 0.3,0,0,1024,1024,1183,1024,0,0,24,0,314.3,-7.9,-21.9,99,4.236,4.246,4.241,4.228,0,0,7.568,89.51,1694.8813032519,2.624672,6,P-GPS,
30600,2025-09-03 09:39:15,0,0,2.952756,,,1695.2093872519,3.28084,0,0,0,7,0,16.862,1695.2093872519,2.952756,0.447388,0,0,0,-1.11847,76.7, 0.7, 0.2,0,0,1024,1024,1188,1024,0,0,25,0,314.6,-7.4,-22.5,99,4.236,4.246,4.241,4.228,0,0,7.568,89.51,1695.2093872519,2.952756,6,P-GPS,
30700,2025-09-03 09:39:15,0,0,2.952756,,,1695.2093872519,3.608924,0,0,0,7,0,16.862,1695.2093872519,2.952756,0.447388,0,0,0,-1.11847,76.7, 1.1, 0,0,0,1024,1024,1191,1024,0,0,25,0,314,-7.6,-22.4,99,4.236,4.246,4.241,4.228,0,0,7.568,89.51,1695.2093872519,2.952756,6,P-GPS,
30800,2025-09-03 09:39:15,0,0,3.28084,,,1695.5374712519,3.608924,0,0,0,8,0,16.862,1695.5374712519,3.28084,0.447388,0,0,0,-1.11847,76.8, 1.2, -0.2,0,0,1024,1024,1193,1024,0,0,26,0,313.9,-7.8,-22.5,99,4.236,4.246,4.241,4.228,0,0,7.568,89.51,1695.5374712519,3.28084,6,P-GPS,
30900,2025-09-03 09:39:15,0,0,3.28084,,,1695.5374712519,3.937008,0,0,0,8,0,16.862,1695.5374712519,3.28084,0.447388,0,0,0,-1.11847,76.9, 1, -0.1,0,0,1024,1024,1198,1024,0,0,26,0,314.3,-7.9,-22,99,4.236,4.246,4.241,4.228,0,0,7.568,89.51,1695.5374712519,3.28084,6,P-GPS,
31000,2025-09-03 09:39:15,0,0,3.608924,,,1695.8655552519,3.937008,0,0,0,7,0,16.337,1695.8655552519,3.608924,0.447388,0,0,0,-1.342164,76.9, 0.9, 0.4,0,0,1024,1024,1199,1024,0,0,27,0,314.3,-7.9,-22,99,4.128,4.154,4.151,4.131,0,0,17.82,89.51,1695.8655552519,3.608924,6,P-GPS,
31100,2025-09-03 09:39:15,0,0,3.608924,,,1695.8655552519,4.265092,0,0,0,7,0,16.337,1695.8655552519,3.608924,0.447388,0,0,0,-1.342164,76.9, 0.8, 1.2,0,0,1024,1024,1201,1024,0,0,27,0,314.3,-7.9,-21.6,99,4.128,4.154,4.151,4.131,0,0,17.82,89.51,1695.8655552519,3.608924,6,P-GPS,
31200,2025-09-03 09:39:15,0,0,3.937008,,,1696.1936392519,4.593176,0,0,0,7,0,16.337,1696.1936392519,3.937008,0.447388,0,0,0,-1.342164,76.9, 0.3, 1.2,0,0,1024,1024,1207,1024,0,0,28,0,314.4,-8.5,-21.8,99,4.128,4.154,4.151,4.131,0,0,17.82,89.51,1696.1936392519,3.937008,6,P-GPS,
31300,2025-09-03 09:39:15,0,0,4.265092,,,1696.5217232519,4.92126,0,0,0,7,0,16.337,1696.5217232519,4.265092,0.447388,0,0,0,-1.342164,76.9, 0, 1,0,0,1024,1024,1209,1024,0,0,28,0,314.2,-9,-21.9,99,4.128,4.154,4.151,4.131,0,0,17.82,89.51,1696.5217232519,4.265092,6,P-GPS,
31400,2025-09-03 09:39:15,0,0,4.265092,,,1696.5217232519,5.249344,0,0,0,7,0,16.337,1696.5217232519,4.265092,0.447388,0,0,0,-1.342164,76.8, 0, 0.9,0,0,1024,1024,1213,1024,0,0,29,0,314,-9.6,-21.8,99,4.128,4.154,4.151,4.131,0,0,17.82,89.51,1696.5217232519,4.265092,6,P-GPS,
31500,2025-09-03 09:39:16,0,0,4.593176,,,1696.8498072519,5.249344,0,0,0,7,0,16.337,1696.8498072519,4.593176,0.447388,0,0,0,-1.342164,76.8, 0.2, 0.3,0,0,1024,1024,1226,1024,0,0,31,0,314.1,-9.8,-22.5,99,4.128,4.154,4.151,4.131,0,0,17.82,89.51,1696.8498072519,4.593176,6,P-GPS,
31600,2025-09-03 09:39:16,0,0,4.92126,,,1697.1778912519,5.577428,0,0,0,5,0,16.337,1697.1778912519,4.92126,0.447388,0,0,0,-1.565858,76.8, 0.5, 0.3,0,0,1024,1024,1223,1024,0,0,30,0,314.5,-9.7,-22,99,4.128,4.154,4.151,4.131,0,0,17.82,89.51,1697.1778912519,4.92126,6,P-GPS,
31700,2025-09-03 09:39:16,0,0,4.92126,,,1697.1778912519,5.577428,0,0,0,5,0,16.337,1697.1778912519,4.92126,0.447388,0,0,0,-1.565858,76.8, 0.2, 0.9,0,0,1024,1024,1221,1024,0,0,30,0,314.2,-10.2,-21.2,99,4.128,4.154,4.151,4.131,0,0,17.82,89.51,1697.1778912519,4.92126,6,P-GPS,
31800,2025-09-03 09:39:16,0,0,5.249344,,,1697.5059752519,5.905512,0,0,0,5,0,16.337,1697.5059752519,5.249344,0.447388,0,0,0,-1.789552,76.8, -0.2, 1.2,0,0,1024,1024,1210,1024,0,0,28,0,314.1,-11.4,-21.6,99,4.128,4.154,4.151,4.131,0,0,17.82,89.51,1697.5059752519,5.249344,6,P-GPS,
31900,2025-09-03 09:39:16,0,0,5.577428,,,1697.8340592519,6.233596,0,0,0,5,0,16.337,1697.8340592519,5.577428,0.447388,0,0,0,-1.789552,76.5, -0.7, 1,0,0,1024,1024,1204,1024,0,0,27,0,313.8,-12,-22.1,99,4.128,4.154,4.151,4.131,0,0,17.82,89.51,1697.8340592519,5.577428,6,P-GPS,
32000,2025-09-03 09:39:16,0,0,5.905512,,,1698.1621432519,6.233596,0,0,0,5,2,16.414,1698.1621432519,5.905512,0.447388,0,0,0,-1.789552,76.4, -0.5, 1,0,0,1024,1024,1205,1024,0,0,27,0,313.1,-12,-22,99,4.107,4.134,4.129,4.11,0,0,18.128,89.51,1698.1621432519,5.905512,6,P-GPS,"Setting new Maximum Flight Altitude to 150m (492 ft)"
32100,2025-09-03 09:39:16,0,0,6.233596,,,1698.4902272519,6.56168,0,0,0,5,0,16.414,1698.4902272519,6.233596,0.447388,0,0,0,-1.789552,76.3, -0.3, 1.3,0,0,1024,970,1197,1024,0,-8,26,0,313.1,-12.1,-22,99,4.107,4.134,4.129,4.11,0,0,18.128,89.51,1698.4902272519,6.233596,6,P-GPS,
32200,2025-09-03 09:39:16,0,0,6.56168,,,1698.8183112519,6.889764,0,0,0,7,0,16.414,1698.8183112519,6.56168,0.447388,0,0,0,-1.565858,76.2, -0.4, 1.3,0,0,1024,946,1196,1024,0,-12,26,0,312.4,-12.3,-22.6,99,4.107,4.134,4.129,4.11,0,0,18.128,89.51,1698.8183112519,6.56168,6,P-GPS,
32300,2025-09-03 09:39:16,0,0,6.56168,,,1698.8183112519,7.217848,0,0,0,7,0,16.414,1698.8183112519,6.56168,0.447388,0,0,0,-1.565858,76.2, -0.3, 0.9,0,0,1024,952,1198,1024,0,-11,26,0,312.4,-12.3,-22.6,99,4.107,4.134,4.129,4.11,0,0,18.128,89.51,1698.8183112519,6.56168,6,P-GPS,
32400,2025-09-03 09:39:16,0,0,6.889764,,,1699.1463952519,7.545932,0,0,0,5,0,16.414,1699.1463952519,6.889764,0.447388,0,0,0,-1.565858,76.3, -0.1, 0.4,0,0,1024,942,1199,1024,0,-12,27,0,312.4,-12.3,-22.3,99,4.107,4.134,4.129,4.11,0,0,18.128,89.51,1699.1463952519,6.889764,6,P-GPS,
32500,2025-09-03 09:39:17,0,0,7.217848,,,1699.4744792519,7.545932,0,0,0,5,0,16.414,1699.4744792519,7.217848,0.447388,0,0,0,-1.565858,76.4, -0.2, -0.4,0,0,1024,947,1198,1024,0,-12,26,0,313.4,-12,-23.3,99,4.107,4.134,4.129,4.11,0,0,18.128,89.51,1699.4744792519,7.217848,6,P-GPS,
32600,2025-09-03 09:39:17,0,0,7.545932,,,1699.8025632519,7.874016,0,0,0,5,0,16.414,1699.8025632519,7.545932,0.447388,0,0,0,-1.342164,76.5, -0.4, -0.9,0,0,1024,1024,1202,1024,0,0,27,0,312.9,-12.7,-23.4,99,4.107,4.134,4.129,4.11,0,0,18.128,89.51,1699.8025632519,7.545932,6,P-GPS,
32700,2025-09-03 09:39:17,0,0,7.545932,,,1699.8025632519,8.2021,0,0,0,5,0,16.414,1699.8025632519,7.545932,0.447388,0,0,0,-1.342164,76.5, -0.6, -1,0,0,1024,1024,1210,1024,0,0,28,0,312.4,-13.3,-24,99,4.107,4.134,4.129,4.11,0,0,18.128,89.51,1699.8025632519,7.545932,6,P-GPS,
32800,2025-09-03 09:39:17,0,0,7.874016,,,1700.1306472519,8.2021,0,0,0,6,0,16.414,1700.1306472519,7.874016,0.447388,0,0,0,-1.342164,76.5, -0.5, -0.7,0,0,1024,1024,1215,1024,0,0,29,0,313.8,-12.6,-23.6,99,4.107,4.134,4.129,4.11,0,0,18.128,89.51,1700.1306472519,7.874016,6,P-GPS,
32900,2025-09-03 09:39:17,0,0,8.2021,,,1700.4587312519,8.530184,0.223694,0,0,6,0,16.414,1700.4587312519,8.2021,0.447388,0,0.223694,0,-1.565858,76.4, -0.4, 0.4,0,0,1024,1049,1208,1024,0,4,28,0,312.8,-12.8,-22.3,99,4.107,4.134,4.129,4.11,0,0,18.128,89.51,1700.4587312519,8.2021,6,P-GPS,
33000,2025-09-03 09:39:17,0,0,8.2021,,,1700.4587312519,8.858268,0.223694,0,0,7,0,16.332,1700.4587312519,8.2021,0.447388,0,0.223694,0,-1.565858,76.4, -0.2, 1.3,0,0,1024,1147,1203,1024,0,19,27,0,311.8,-13,-21.8,99,4.107,4.134,4.129,4.11,0,0,18.128,89.51,1700.4587312519,8.2021,6,P-GPS,
33100,2025-09-03 09:39:17,0,0,8.530184,,,1700.7868152519,8.858268,0.223694,0,0,7,0,16.332,1700.7868152519,8.530184,0.447388,0,0.223694,0,-1.565858,76.3, 0, 1.6,0,0,1024,1210,1202,1024,0,28,27,0,313,-12.1,-21.7,99,4.107,4.134,4.129,4.11,0,0,18.128,89.51,1700.7868152519,8.530184,6,P-GPS,
33200,2025-09-03 09:39:17,0,0,8.858268,,,1701.1148992519,9.186352,0,0,0,7,0,16.332,1701.1148992519,8.858268,0.447388,0,0,0,-1.565858,76.4, 0.2, 2.3,0,0,1024,1141,1204,1024,0,18,27,0,313.7,-11.6,-20.3,99,4.107,4.134,4.129,4.11,0,0,18.128,89.51,1701.1148992519,8.858268,6,P-GPS,
33300,2025-09-03 09:39:17,0,0,9.186352,,,1701.4429832519,9.514436,0,0,0,7,0,16.332,1701.4429832519,9.186352,0.447388,0,0,0,-1.565858,76.4, 0.2, 4.2,0,0,1024,1024,1207,1024,0,0,28,0,312.7,-12,-17.6,99,4.107,4.134,4.129,4.11,0,0,18.128,89.51,1701.4429832519,9.186352,6,P-GPS,
33400,2025-09-03 09:39:17,0,0,9.186352,,,1701.4429832519,9.84252,0,0,0,8,0,16.332,1701.4429832519,9.186352,0.447388,0,0,0,-1.565858,76.4, 0.1, 6.6,0,0,1024,1024,1214,1024,0,0,29,0,311.9,-12.1,-17.4,99,4.107,4.134,4.129,4.11,0,0,18.128,89.51,1701.4429832519,9.186352,6,P-GPS,
33500,2025-09-03 09:39:18,0,0,9.514436,,,1701.7710672519,9.84252,0.223694,0,0,8,0,16.332,1701.7710672519,9.514436,0.447388,0,-0.223694,0,-1.565858,76.3, 0.1, 5.8,0,0,1024,1024,1209,1024,0,0,28,0,311.9,-12.1,-17.4,99,4.107,4.134,4.129,4.11,0,0,18.128,89.51,1701.7710672519,9.514436,6,P-GPS,
33600,2025-09-03 09:39:18,0,0,9.84252,,,1702.0991512519,10.170604,0.447388,0,0,8,0,16.332,1702.0991512519,9.84252,0.447388,0,-0.447388,0,-1.565858,76.4, 0.1, 1.7,0,0,1024,1024,1214,1024,0,0,29,0,311.9,-12.4,-22.4,99,4.107,4.134,4.129,4.11,0,0,18.128,89.51,1702.0991512519,9.84252,6,P-GPS,
33700,2025-09-03 09:39:18,0,0,9.84252,,,1702.0991512519,10.498688,0.447388,0,0,8,0,16.332,1702.0991512519,9.84252,0.447388,0,-0.447388,0,-1.565858,76.5, -0.1, -1,0,0,1024,1024,1215,1024,0,0,29,0,312.4,-11.8,-25,99,4.107,4.134,4.129,4.11,0,0,18.128,89.51,1702.0991512519,9.84252,6,P-GPS,
33800,2025-09-03 09:39:18,0,0,10.170604,,,1702.4272352519,10.498688,0.223694,0,0,8,0,16.332,1702.4272352519,10.170604,0.447388,0,-0.223694,0,-1.565858,76.5, 0, -1.4,0,0,1024,1024,1216,1024,0,0,29,0,311.2,-12.5,-23.8,99,4.107,4.134,4.129,4.11,0,0,18.128,89.51,1702.4272352519,10.170604,6,P-GPS,
33900,2025-09-03 09:39:18,0,0,10.498688,,,1702.7553192519,11.154856,0.223694,0,0,8,0,16.332,1702.7553192519,10.498688,0.447388,0,-0.223694,0,-1.565858,76.5, 0.1, -1,0,0,1024,1024,1213,1024,0,0,29,0,311.4,-12.1,-23.8,99,4.107,4.134,4.129,4.11,0,0,18.128,89.51,1702.7553192519,10.498688,6,P-GPS,
34000,2025-09-03 09:39:18,0,0,10.826772,,,1703.0834032519,11.48294,0,0,0,7,0,16.374,1703.0834032519,10.826772,0.447388,0,0,0,-1.565858,76.6, 0.4, -0.9,0,0,1024,1024,1207,1024,0,0,28,0,312.2,-11.3,-24,99,4.105,4.133,4.128,4.109,0,0,17.518,89.51,1703.0834032519,10.826772,6,P-GPS,
34100,2025-09-03 09:39:18,0,0,10.826772,,,1703.0834032519,11.48294,0,0,0,7,0,16.374,1703.0834032519,10.826772,0.447388,0,0,0,-1.565858,76.6, 1, -0.8,0,0,1024,1127,1204,1024,0,16,27,0,311,-11.5,-23.4,99,4.105,4.133,4.128,4.109,0,0,17.518,89.51,1703.0834032519,10.826772,6,P-GPS,
34200,2025-09-03 09:39:18,0,0,11.154856,,,1703.4114872519,11.811024,0,0,0,7,0,16.374,1703.4114872519,11.154856,0.447388,0,0,0,-1.565858,76.6, 1, 0,0,0,1024,1338,1207,1024,0,48,28,0,311.6,-11.3,-21.9,99,4.105,4.133,4.128,4.109,0,0,17.518,89.51,1703.4114872519,11.154856,6,P-GPS,
34300,2025-09-03 09:39:18,0,0,11.48294,,,1703.7395712519,12.139108,0,0,0,7,0,16.374,1703.7395712519,11.48294,0.447388,0,0,0,-1.565858,76.8, 0.7, 1.4,0,0,1024,1339,1206,1024,0,48,28,0,313.1,-10.6,-20.2,99,4.105,4.133,4.128,4.109,0,0,17.518,89.51,1703.7395712519,11.48294,6,P-GPS,
34400,2025-09-03 09:39:18,0,0,11.811024,,,1704.0676552519,12.139108,0,0,0,7,0,16.374,1704.0676552519,11.811024,0.447388,0,0,0,-1.565858,76.8, 0.7, 4.5,0,0,1024,1336,1205,1024,0,47,27,0,313.1,-10.7,-16,99,4.105,4.133,4.128,4.109,0,0,17.518,89.51,1704.0676552519,11.811024,6,P-GPS,
34500,2025-09-03 09:39:19,0,0,12.139108,,,1704.3957392519,12.467192,0,0,0,7,0,16.374,1704.3957392519,12.139108,0.447388,0,0,0,-1.565858,76.7, 0.7, 7.6,0,0,1024,1335,1205,1024,0,47,27,0,312.7,-10.9,-14.5,99,4.105,4.133,4.128,4.109,0,0,17.518,89.51,1704.3957392519,12.139108,6,P-GPS,
34600,2025-09-03 09:39:19,0,0,12.139108,,,1704.3957392519,12.467192,0.223694,0,0,7,2,16.374,1704.3957392519,12.139108,0.447388,0,-0.223694,0,-1.565858,76.7, 0.7, 8.7,0,0,1024,1333,1202,1024,0,47,27,0,313.1,-10.4,-15.9,99,4.105,4.133,4.128,4.109,0,0,17.518,89.51,1704.3957392519,12.139108,6,P-GPS,
34700,2025-09-03 09:39:19,0,0,12.467192,,,1704.7238232519,12.795276,0.671082,0,0,7,2,16.374,1704.7238232519,12.467192,0.671082,0,-0.671082,0,-1.565858,76.8, 0.9, 8.4,0,0,1024,1280,1201,1024,0,39,27,0,313.1,-10.4,-15.9,99,4.105,4.133,4.128,4.109,0,0,17.518,89.51,1704.7238232519,12.467192,6,P-GPS,"Braking now. Return sticks to midpoints, then continue flying."
34800,2025-09-03 09:39:19,0,0,12.795276,,,1705.0519072519,13.12336,0.894776,0,0,7,2,16.374,1705.0519072519,12.795276,0.894776,0,-0.894776,0,-1.565858,76.7, 0.5, 4.9,0,0,1024,1024,1205,1024,0,0,27,0,312.9,-11.1,-17.2,99,4.105,4.133,4.128,4.109,0,0,17.518,89.51,1705.0519072519,12.795276,6,P-GPS,
34900,2025-09-03 09:39:19,0,0,13.12336,,,1705.3799912519,13.12336,0.894776,0,0,7,2,16.374,1705.3799912519,13.12336,0.894776,0,-0.894776,0,-1.342164,76.8, 0.1, -4.7,0,0,1024,1024,1206,1024,0,0,28,0,308.8,-15.2,-30.3,99,4.105,4.133,4.128,4.109,0,0,17.518,89.51,1705.3799912519,13.12336,6,P-GPS,
35000,2025-09-03 09:39:19,0,0,13.12336,,,1705.3799912519,13.779528,0.894776,0,0,7,2,16.278,1705.3799912519,13.12336,0.894776,0,-0.894776,0,-1.342164,76.9, 0.2, -6.5,0,0,1024,1024,1204,1024,0,0,27,0,310.6,-14.5,-29,99,4.096,4.119,4.113,4.096,0,0,17.516,89.51,1705.3799912519,13.12336,6,P-GPS,
35100,2025-09-03 09:39:19,0,0,13.451444,,,1705.7080752519,14.107612,0.671082,0,0,7,2,16.278,1705.7080752519,13.451444,0.894776,0,-0.671082,0,-1.565858,76.9, 0, -4.4,0,0,1024,1024,1208,1024,0,0,28,0,310.5,-15,-25.9,99,4.096,4.119,4.113,4.096,0,0,17.516,89.51,1705.7080752519,13.451444,6,P-GPS,
35200,2025-09-03 09:39:19,0,0,13.779528,,,1706.0361592519,14.107612,0.447388,0,0,7,2,16.278,1706.0361592519,13.779528,0.894776,0,-0.447388,0,-1.565858,77, -0.6, -2.3,0,0,1024,1024,1209,1024,0,0,28,0,310,-15.6,-24.5,99,4.096,4.119,4.113,4.096,0,0,17.516,89.51,1706.0361592519,13.779528,6,P-GPS,
35300,2025-09-03 09:39:19,0,0,13.779528,,,1706.0361592519,14.435696,0.223694,0,0,7,2,16.278,1706.0361592519,13.779528,0.894776,0,-0.223694,0,-1.565858,77, -0.8, -1.8,0,0,1024,1024,1211,1024,0,0,28,0,310.9,-14.8,-24.7,99,4.096,4.119,4.113,4.096,0,0,17.516,89.51,1706.0361592519,13.779528,6,P-GPS,
35400,2025-09-03 09:39:19,48.15022861439,11.5716442756033,14.107612,,,1706.3642432519,14.435696,0.223694,0,0,7,2,16.278,1706.3642432519,14.107612,0.894776,0,-0.223694,0,-1.565858,77, -0.7, -2.2,0,0,1024,1024,1204,1024,0,0,27,0,311.3,-14.8,-24.7,99,4.096,4.119,4.113,4.096,0,0,17.516,89.51,1706.3642432519,14.107612,6,P-GPS,
35500,2025-09-03 09:39:19,48.1502318575209,11.5716429193212,14.435696,,,1706.6923272519,14.76378,0.223694,1.22844820204,1.22844820204,7,2,16.278,1706.6923272519,14.435696,0.894776,1.22844820204,0,0,-1.565858,77, -0.9, -2,0,0,1024,1024,1198,1024,0,0,26,0,310.1,-16,-23.8,99,4.096,4.119,4.113,4.096,0,0,17.516,89.51,1706.6923272519,14.435696,6,P-GPS,
35600,2025-09-03 09:39:20,48.1502351246225,11.571641551946,14.435696,,,1706.6923272519,14.76378,0,2.46604666684,2.46604666684,7,2,16.278,1706.6923272519,14.435696,0.894776,2.46604666684,0,0,-1.565858,76.9, -1.3, -1.3,0,0,1024,1024,1211,1024,0,0,28,0,311,-15.6,-23.7,99,4.096,4.119,4.113,4.096,0,0,17.516,89.51,1706.6923272519,14.435696,6,P-GPS,
35700,2025-09-03 09:39:20,48.1497100285045,11.5718317697325,14.76378,,,1707.0204112519,15.091864,0.3131716,194.63255216,199.562998512,7,2,16.278,1707.0204112519,14.76378,0.894776,194.63255216,-0.223694,-0.223694,-1.565858,76.8, -1.6, -1,0,0,1024,1024,1225,1024,0,0,30,0,310.7,-16.3,-24.8,99,4.096,4.119,4.113,4.096,0,0,17.516,89.51,1707.0204112519,14.76378,6,P-GPS,
35800,2025-09-03 09:39:20,48.14897747748,11.5720973757225,15.091864,,,1707.3484952519,15.091864,0.3131716,469.61287592,474.54397844,7,2,16.278,1707.3484952519,15.091864,0.894776,469.61287592,-0.223694,-0.223694,-1.565858,76.9, -1.9, -1.1,0,0,1024,1024,1224,1024,0,0,30,0,308.9,-17,-24.5,99,4.096,4.119,4.113,4.096,0,0,17.516,89.51,1707.3484952519,15.091864,6,P-GPS,
35900,2025-09-03 09:39:20,48.1487574995903,11.5721769489412,15.091864,,,1707.3484952519,15.419948,0.223694,552.17521452,557.10631704,7,2,16.278,1707.3484952519,15.091864,0.894776,552.17521452,-0.223694,0,-1.565858,76.9, -1.8, -1.5,0,0,1024,1024,1228,1024,0,0,31,0,310,-16.3,-25,99,4.096,4.119,4.113,4.096,0,0,17.516,89.51,1707.3484952519,15.091864,6,P-GPS,
36000,2025-09-03 09:39:20,48.1487572230684,11.5721767801743,15.419948,,,1707.6765792519,15.748032,0.223694,552.2637972,557.21458476,7,2,16.352,1707.6765792519,15.419948,0.894776,552.2637972,0,-0.223694,-1.565858,76.9, -1.6, -1.7,0,0,1024,1024,1230,1024,0,0,31,0,310,-16.3,-25,99,4.096,4.119,4.113,4.096,0,0,17.516,89.51,1707.6765792519,15.419948,6,P-GPS,
36100,2025-09-03 09:39:20,48.1487570846992,11.572176591648,15.748032,,,1708.0046632519,16.076116,0,552.30316728,557.2834824,7,2,16.352,1708.0046632519,15.748032,0.894776,552.30316728,0,0,-1.789552,76.9, -1.8, -1.4,0,0,1024,1024,1233,1024,0,0,32,0,310.2,-16.6,-25.1,99,4.096,4.119,4.113,4.096,0,0,17.516,89.51,1708.0046632519,15.748032,6,P-GPS,
36200,2025-09-03 09:39:20,48.1487557876328,11.5721765001262,16.076116,,,1708.3327472519,16.076116,0,552.7559232,557.75592336,7,2,16.352,1708.3327472519,16.076116,0.894776,552.7559232,0,0,-1.789552,76.9, -2, -1.3,0,0,1024,1024,1227,1024,0,0,31,0,309.6,-17,-25.1,99,4.096,4.119,4.113,4.096,0,0,17.516,89.51,1708.3327472519,16.076116,6,P-GPS,
36300,2025-09-03 09:39:20,48.1487557497769,11.5721763207017,16.4042,,,1708.6608312519,16.4042,0,552.75920404,557.80185512,7,2,16.352,1708.6608312519,16.4042,0.894776,552.75920404,0,0,-1.789552,76.9, -1.9, -1,0,0,1024,1024,1196,1024,0,0,26,0,309.2,-16.8,-25.3,99,4.096,4.119,4.113,4.096,0,0,17.516,89.51,1708.6608312519,16.4042,6,P-GPS,
36400,2025-09-03 09:39:20,48.1487557337762,11.5721761525767,16.732284,,,1708.9889152519,16.732284,0,552.7559232,557.84450604,7,2,16.352,1708.9889152519,16.732284,0.894776,552.75920404,0,0,-1.789552,76.9, -1.3, -1,0,0,1024,1024,1190,1024,0,0,25,0,309.9,-15.8,-25.8,99,4.096,4.119,4.113,4.096,0,0,17.516,89.51,1708.9889152519,16.732284,6,P-GPS,
36500,2025-09-03 09:39:21,48.1487557450272,11.5721760887468,16.732284,,,1708.9889152519,17.060368,0,552.74936152,557.86091024,7,2,16.352,1708.9889152519,16.732284,0.894776,552.75920404,0,0,-1.789552,76.9, -0.9, -1.4,0,0,1024,1024,1208,1024,0,0,28,0,309.4,-16.3,-26.1,99,4.096,4.119,4.113,4.096,0,0,17.516,89.51,1708.9889152519,16.732284,6,P-GPS,
36600,2025-09-03 09:39:21,48.1487557787279,11.5721762098089,17.060368,,,1709.3169992519,17.388452,0,552.74279984,557.89371864,6,2,16.352,1709.3169992519,17.060368,0.894776,552.75920404,0,0,-1.565858,76.9, -1.6, -1.4,0,0,1024,1034,1206,1024,0,2,28,0,310.1,-16.9,-26,99,4.096,4.119,4.113,4.096,0,0,17.516,89.51,1709.3169992519,17.060368,6,P-GPS,
36700,2025-09-03 09:39:21,48.148755816974,11.5721760882403,17.388452,,,1709.6450832519,17.388452,0,552.7231148,557.92652704,6,3,16.352,1709.6450832519,17.388452,0.894776,552.75920404,0,0,-1.565858,76.8, -2.5, -0.8,0,0,1024,1063,1136,1024,0,6,17,0,310.3,-17.5,-24,99,4.096,4.119,4.113,4.096,0,0,17.516,89.51,1709.6450832519,17.388452,6,P-GPS,
36800,2025-09-03 09:39:21,48.1487558670281,11.5721759375136,17.716536,,,1709.9731672519,17.716536,0,552.69686808,557.96589712,6,3,16.352,1709.9731672519,17.716536,0.894776,552.75920404,0,0,-1.565858,76.8, -2.9, -0.2,0,0,1024,1063,1136,1024,0,6,17,0,310.1,-17.4,-23.6,99,4.096,4.119,4.113,4.096,0,0,17.516,89.51,1709.9731672519,17.716536,6,P-GPS,
36900,2025-09-03 09:39:21,48.148755971203,11.5721759744145,17.716536,,,1709.9731672519,18.04462,0,552.66077884,558.0052672,6,3,16.352,1709.9731672519,17.716536,0.894776,552.75920404,0,0,-1.342164,76.8, -2.4, -0.3,0,0,1024,1024,1147,1024,0,0,19,0,310.5,-16.1,-23.8,99,4.096,4.119,4.113,4.096,0,0,17.516,89.51,1709.9731672519,17.716536,6,P-GPS,
37000,2025-09-03 09:39:21,48.1487561737067,11.5721763760792,18.04462,,,1710.3012512519,18.04462,0.223694,552.61156624,558.12665828,7,3,16.263,1710.3012512519,18.04462,0.894776,552.75920404,0.223694,0,-1.342164,76.8, -1.8, 0,0,0,1024,1024,1188,1024,0,0,25,0,310.9,-15.4,-22.8,99,4.086,4.116,4.106,4.089,0,0,17.718,89.51,1710.3012512519,18.04462,6,P-GPS,
37100,2025-09-03 09:39:21,48.1487564259179,11.5721766362338,18.372704,,,1710.6293352519,18.372704,0.223694,552.53938776,558.23820684,7,3,16.263,1710.6293352519,18.372704,0.894776,552.75920404,0.223694,0,-1.11847,76.8, -1.2, 0.8,0,0,1024,1024,1208,1024,0,0,28,0,310.3,-15.8,-22.5,99,4.086,4.116,4.106,4.089,0,0,17.718,89.51,1710.6293352519,18.372704,6,P-GPS,
37200,2025-09-03 09:39:21,48.1487567384492,11.5721769591891,18.372704,,,1710.6293352519,18.700788,0.223694,552.44752424,558.37928296,7,3,16.263,1710.6293352519,18.372704,0.894776,552.75920404,0.223694,0,-0.894776,76.7, -1.1, 0.9,0,0,1024,1142,1186,1024,0,18,25,0,310.3,-15.8,-22.5,99,4.086,4.116,4.106,4.089,0,0,17.718,89.51,1710.6293352519,18.372704,6,P-GPS,
37300,2025-09-03 09:39:21,48.1487569842513,11.5721772182786,18.700788,,,1710.9574192519,18.700788,0.223694,552.37534576,558.48755068,7,3,16.263,1710.9574192519,18.700788,0.894776,552.75920404,0.223694,0,-1.11847,76.7, -1.1, 0.9,0,0,1024,1250,1193,1024,0,34,26,0,310.4,-15.8,-22.9,99,4.086,4.116,4.106,4.089,0,0,17.718,89.51,1710.9574192519,18.700788,6,P-GPS,
37400,2025-09-03 09:39:21,48.1487575039282,11.5721779366157,18.700788,,,1710.9574192519,19.028872,0.223694,552.2309888,558.74673704,8,3,16.263,1710.9574192519,18.700788,0.894776,552.75920404,0.223694,0,-1.11847,76.7, -0.7, 1.1,0,0,1024,1222,1204,1024,0,30,27,0,310.2,-15.4,-23.2,99,4.086,4.116,4.106,4.089,0,0,17.718,89.51,1710.9574192519,18.700788,6,P-GPS,
37500,2025-09-03 09:39:22,48.1487577165911,11.5721782124696,19.028872,,,1711.2855032519,19.028872,0.223694,552.17193368,558.84844308,8,3,16.263,1711.2855032519,19.028872,0.894776,552.75920404,0.223694,0,-1.11847,76.7, -0.5, 3.3,0,0,1024,1157,1195,1024,0,20,26,0,310.6,-15,-20.2,99,4.086,4.116,4.106,4.089,0,0,17.718,89.51,1711.2855032519,19.028872,6,P-GPS,
37600,2025-09-03 09:39:22,48.1487579152278,11.5721785371233,19.028872,,,1711.2855032519,19.356956,0,552.11944024,558.9567108,7,3,16.263,1711.2855032519,19.028872,0.894776,552.75920404,0,0,-1.342164,76.5, 0.2, 5.6,0,0,1024,1148,1198,1024,0,19,26,0,311,-14,-18.2,99,4.086,4.116,4.106,4.089,0,0,17.718,89.51,1711.2855032519,19.028872,6,P-GPS,
37700,2025-09-03 09:39:22,48.148757945735,11.5721787223161,19.356956,,,1711.6135872519,19.68504,0,552.11944024,559.00264256,7,3,16.263,1711.6135872519,19.356956,0.894776,552.75920404,0,0,-1.342164,76.3, 0.4, 6.8,0,0,1024,1207,1203,1024,0,28,27,0,310.5,-14,-17.6,99,4.086,4.116,4.106,4.089,0,0,17.718,89.51,1711.6135872519,19.356956,6,P-GPS,
37800,2025-09-03 09:39:22,48.1487578398051,11.5721788540027,19.68504,,,1711.9416712519,20.013124,0.223694,552.165372,559.05185516,8,3,16.263,1711.9416712519,19.68504,0.894776,552.75920404,-0.223694,0,-1.342164,76, 0.1, 7.1,0,0,1024,1297,1204,1024,0,41,27,0,310.7,-14.5,-17.5,99,4.086,4.116,4.106,4.089,0,0,17.718,89.51,1711.9416712519,19.68504,6,P-GPS,
37900,2025-09-03 09:39:22,48.1487574880316,11.5721790802546,19.68504,,,1711.9416712519,20.013124,0.223694,552.30316728,559.19293128,8,3,16.263,1711.9416712519,19.68504,0.894776,552.75920404,-0.223694,0,-1.342164,75.9, -0.2, 7,0,0,1024,1338,1199,1024,0,48,27,0,310.9,-14.3,-17.9,99,4.086,4.116,4.106,4.089,0,0,17.718,89.51,1711.9416712519,19.68504,6,P-GPS,
38000,2025-09-03 09:39:22,48.1487572636518,11.5721793438546,20.013124,,,1712.2697552519,20.341208,0.447388,552.3950308,559.29463732,7,3,16.394,1712.2697552519,20.013124,0.894776,552.75920404,-0.447388,0,-1.342164,75.8, -0.1, 6.8,0,0,1024,1282,1200,1024,0,39,27,0,310,-14.6,-17.9,99,4.09,4.115,4.109,4.091,0,0,17.762,89.51,1712.2697552519,20.013124,6,P-GPS,"Braking now. Return sticks to midpoints, then continue flying."
38100,2025-09-03 09:39:22,48.148756981589,11.5721795150853,20.013124,,,1712.2697552519,20.669292,0.671082,552.50657936,559.40618588,7,3,16.394,1712.2697552519,20.013124,0.894776,552.75920404,-0.671082,0,-1.342164,75.8, -0.3, 3.9,0,0,1024,1233,1199,1024,0,32,27,0,306.7,-16.7,-27.3,99,4.09,4.115,4.109,4.091,0,0,17.762,89.51,1712.2697552519,20.013124,6,P-GPS,
38200,2025-09-03 09:39:22,48.1487566770906,11.572179660926,20.341208,,,1712.5978392519,20.997376,0.7158208,552.62140876,559.52429612,7,3,16.394,1712.5978392519,20.341208,0.894776,552.75920404,-0.671082,0.223694,-1.342164,75.7, -0.2, -4.2,0,0,1024,1240,1203,1024,0,33,27,0,307.5,-16.2,-28.7,99,4.09,4.115,4.109,4.091,0,0,17.762,89.51,1712.5978392519,20.341208,6,P-GPS,
38300,2025-09-03 09:39:22,48.1487561809993,11.5721794838251,20.669292,,,1712.9259232519,20.997376,0.4921268,552.7887316,559.70802316,7,3,16.394,1712.9259232519,20.669292,0.894776,552.7887316,-0.447388,0.223694,-1.342164,76, 0.1, -5.4,0,0,1024,1230,1203,1024,0,31,27,0,307.9,-15.4,-26.4,99,4.09,4.115,4.109,4.091,0,0,17.762,89.51,1712.9259232519,20.669292,6,P-GPS,
38400,2025-09-03 09:39:22,48.1487558352394,11.5721795713068,20.669292,,,1712.9259232519,21.32546,0.223694,552.91668436,559.83597592,8,3,16.394,1712.9259232519,20.669292,0.894776,552.91668436,-0.223694,0,-1.342164,76, 0.2, -2.9,0,0,1024,1243,1205,1024,0,33,27,0,307.9,-15.4,-26.4,99,4.09,4.115,4.109,4.091,0,0,17.762,89.51,1712.9259232519,20.669292,6,P-GPS,
38500,2025-09-03 09:39:23,48.1487556133407,11.5721796631409,20.997376,,,1713.2540072519,21.653544,0,552.99870536,559.92127776,8,3,16.394,1713.2540072519,20.997376,0.894776,552.99870536,0,0,-1.342164,76, 0, -1.5,0,0,1024,1316,1206,1024,0,44,28,0,307.7,-15.6,-25.6,99,4.09,4.115,4.109,4.091,0,0,17.762,89.51,1713.2540072519,20.997376,6,P-GPS,
38600,2025-09-03 09:39:23,48.1487554549581,11.572179769262,21.32546,,,1713.5820912519,21.981628,0,553.06104132,559.98361372,8,3,16.394,1713.5820912519,21.32546,0.894776,553.06104132,0,0,-1.342164,76, 0.1, -0.7,0,0,1024,1373,1201,1024,0,53,27,0,309.1,-14.7,-24.9,99,4.09,4.115,4.109,4.091,0,0,17.762,89.51,1713.5820912519,21.32546,6,P-GPS,
38700,2025-09-03 09:39:23,48.1487555173201,11.5721802402418,21.32546,,,1713.5820912519,21.981628,0,553.067603,560.10172396,8,3,16.394,1713.5820912519,21.32546,0.894776,553.067603,0,0,-1.565858,76.1, 0.3, 0,0,0,1024,1365,1202,1024,0,52,27,0,309.7,-14.1,-24.8,99,4.09,4.115,4.109,4.091,0,0,17.762,89.51,1713.5820912519,21.32546,6,P-GPS,
38800,2025-09-03 09:39:23,48.1487557067929,11.5721806604756,21.653544,,,1713.9101752519,22.309712,0,553.02495208,560.22639588,8,3,16.394,1713.9101752519,21.653544,0.894776,553.067603,0,0,-1.565858,76.1, 0.4, 0.2,0,0,1024,1317,1200,1024,0,44,27,0,309.3,-14.1,-24.4,99,4.09,4.115,4.109,4.091,0,0,17.762,89.51,1713.9101752519,21.653544,6,P-GPS,
38900,2025-09-03 09:39:23,48.1487559118589,11.5721810755684,21.981628,,,1714.2382592519,22.637796,0,552.97573948,560.3510678,8,3,16.394,1714.2382592519,21.981628,0.894776,553.067603,0,0,-1.342164,76.2, 0.9, 0.7,0,0,1024,1230,1198,1024,0,31,26,0,309.5,-13.3,-24.1,99,4.09,4.115,4.109,4.091,0,0,17.762,89.51,1714.2382592519,21.981628,6,P-GPS,
39000,2025-09-03 09:39:23,48.1487561267219,11.5721814960114,21.981628,,,1714.2382592519,22.96588,0,552.92324604,560.47902056,8,3,16.31,1714.2382592519,21.981628,0.894776,553.067603,0,0,-1.342164,76.3, 0.9, 1,0,0,1024,1024,1191,1024,0,0,25,0,310.7,-12.8,-23.9,99,4.071,4.103,4.099,4.061,0,0,18.066,91.31,1714.2382592519,21.981628,6,P-GPS,
39100,2025-09-03 09:39:23,48.1487570481947,11.5721826540996,22.309712,,,1714.5663432519,22.96588,0,552.66405968,560.91865312,8,3,16.31,1714.5663432519,22.309712,0.894776,553.067603,0,0,-1.342164,76.3, 0.7, 0.9,0,0,1024,1024,1209,1024,0,0,28,0,309.9,-13.5,-23.9,99,4.071,4.103,4.099,4.061,0,0,18.066,91.31,1714.5663432519,22.309712,6,P-GPS,
39200,2025-09-03 09:39:23,48.1487574126394,11.5721831593154,22.637796,,,1714.8944272519,23.293964,0,552.56235364,561.09909932,8,3,16.31,1714.8944272519,22.637796,0.894776,553.067603,0,0,-1.342164,76.4, 0.5, 0.7,0,0,1024,1024,1210,1024,0,0,28,0,310,-13.6,-23.5,99,4.071,4.103,4.099,4.061,0,0,18.066,91.31,1714.8944272519,22.637796,6,P-GPS,
39300,2025-09-03 09:39:23,48.1487576730913,11.5721834636363,22.637796,,,1714.8944272519,23.622048,0,552.49017516,561.2204904,8,3,16.31,1714.8944272519,22.637796,0.894776,553.067603,0,0,-1.342164,76.5, 0.2, 1,0,0,1024,1024,1206,1024,0,0,28,0,309.8,-13.8,-23.8,99,4.071,4.103,4.099,4.061,0,0,18.066,91.31,1714.8944272519,22.637796,6,P-GPS,
39400,2025-09-03 09:39:23,48.1487578936917,11.5721836877209,22.96588,,,1715.2225112519,23.950132,0,552.42455836,561.31563476,8,3,16.31,1715.2225112519,22.96588,0.894776,553.067603,0,0,-1.342164,76.6, 0.1, 1.1,0,0,1024,1024,1220,1024,0,0,30,0,309.5,-13.6,-23.1,99,4.071,4.103,4.099,4.061,0,0,18.066,91.31,1715.2225112519,22.96588,6,P-GPS,
39500,2025-09-03 09:39:24,48.1487578674554,11.5721835336561,23.293964,,,1715.5505952519,23.950132,0,552.42455836,561.35500484,8,3,16.31,1715.5505952519,23.293964,0.894776,553.067603,0,0,-1.565858,76.7, 0.3, 1.3,0,0,1024,1024,1219,1024,0,0,30,0,309.8,-13.7,-23.2,99,4.071,4.103,4.099,4.061,0,0,18.066,91.31,1715.5505952519,23.293964,6,P-GPS,
39600,2025-09-03 09:39:24,48.1487572180006,11.5721821970308,23.293964,,,1715.5505952519,24.278216,0.223694,552.575477,561.75854816,8,3,16.31,1715.5505952519,23.293964,0.894776,553.067603,0.223694,0,-1.565858,76.7, 0.3, 1.5,0,0,1024,1024,1226,1024,0,0,31,0,309,-13.8,-23.1,99,4.071,4.103,4.099,4.061,0,0,18.066,91.31,1715.5505952519,23.293964,6,P-GPS,
39700,2025-09-03 09:39:24,48.1487572826319,11.5721822799086,23.622048,,,1715.8786792519,24.6063,0.223694,552.5590728,561.78807572,8,3,16.31,1715.8786792519,23.622048,0.894776,553.067603,0.223694,0,-1.565858,76.7, 0.5, 1.6,0,0,1024,1024,1231,1024,0,0,31,0,309,-13.8,-23.1,99,4.071,4.103,4.099,4.061,0,0,18.066,91.31,1715.8786792519,23.622048,6,P-GPS,
39800,2025-09-03 09:39:24,48.1487574614122,11.5721825836982,23.950132,,,1716.2067632519,24.934384,0.223694,552.51314104,561.88650092,8,3,16.31,1716.2067632519,23.950132,0.894776,553.067603,0.223694,0,-1.789552,76.8, 0.6, 1.5,0,0,1024,1024,1242,1024,0,0,33,0,308.7,-13.8,-23.2,99,4.071,4.103,4.099,4.061,0,0,18.066,91.31,1716.2067632519,23.950132,6,P-GPS,
39900,2025-09-03 09:39:24,48.1487577878921,11.5721831312518,24.278216,,,1716.5348472519,25.262468,0,552.4278392,562.06694712,8,3,16.31,1716.5348472519,24.278216,0.894776,553.067603,0,0,-1.789552,76.8, 0.6, 1.6,0,0,1024,1024,1230,1024,0,0,31,0,308.7,-13.9,-23.4,99,4.071,4.103,4.099,4.061,0,0,18.066,91.31,1716.5348472519,24.278216,6,P-GPS,
40000,2025-09-03 09:39:24,48.1487587759164,11.5721849219788,24.6063,,,1716.8629312519,25.590552,0,552.1817762,562.6312516,8,3,16.268,1716.8629312519,24.6063,0.894776,553.067603,0,0,-2.013246,76.8, 0.6, 1.6,0,0,1024,1024,1191,1024,0,0,25,0,308.3,-14.3,-23.4,99,4.071,4.103,4.099,4.061,0,0,18.066,91.31,1716.8629312519,24.6063,6,P-GPS,
40100,2025-09-03 09:39:24,48.1487590338066,11.5721856205013,24.6063,,,1716.8629312519,25.918636,0,552.1325636,562.828102,8,3,16.268,1716.8629312519,24.6063,0.894776,553.067603,0,0,-2.013246,76.7, 0.4, 1.4,0,0,1024,1024,1193,1024,0,0,26,0,307.3,-14.7,-23,99,4.071,4.103,4.099,4.061,0,0,18.066,91.31,1716.8629312519,24.6063,6,P-GPS,
40200,2025-09-03 09:39:24,48.1487592305008,11.5721863537868,24.934384,,,1717.1910152519,26.24672,0,552.10303604,563.01839072,7,3,16.268,1717.1910152519,24.934384,0.894776,553.067603,0,0,-1.789552,76.6, 0.4, 1.3,0,0,1024,1024,1210,1024,0,0,28,0,307.3,-14.7,-23,99,4.071,4.103,4.099,4.061,0,0,18.066,91.31,1717.1910152519,24.934384,6,P-GPS,
40300,2025-09-03 09:39:24,48.1487595009601,11.5721870288689,25.262468,,,1717.5190992519,26.574804,0,552.04726176,563.21196028,7,3,16.268,1717.5190992519,25.262468,0.894776,553.067603,0,0,-1.565858,76.6, 0.6, 1.3,0,0,1024,1024,1167,1024,0,0,22,0,307.6,-14.8,-23.1,99,4.071,4.103,4.099,4.061,0,0,18.066,91.31,1717.5190992519,25.262468,6,P-GPS,
40400,2025-09-03 09:39:24,48.1487601219573,11.5721885815628,25.590552,,,1717.8471832519,26.902888,0,551.919309,563.65159284,7,3,16.268,1717.8471832519,25.590552,0.894776,553.067603,0,0,-1.565858,76.6, 0.5, 1.5,0,0,1024,1024,1184,1024,0,0,24,0,307.7,-14.8,-22.6,99,4.071,4.103,4.099,4.061,0,0,18.066,91.31,1717.8471832519,25.590552,6,P-GPS,
40500,2025-09-03 09:39:25,48.1487604741404,11.5721892142996,25.918636,,,1718.1752672519,26.902888,0,551.83072632,563.85172408,7,3,16.268,1718.1752672519,25.918636,0.894776,553.067603,0,0,-1.342164,76.5, 0.2, 1.8,0,0,1024,1024,1185,1024,0,0,24,0,308,-14.9,-23,99,4.071,4.103,4.099,4.061,0,0,18.066,91.31,1718.1752672519,25.918636,6,P-GPS,
40600,2025-09-03 09:39:25,48.1487608535508,11.5721898672173,25.918636,,,1718.1752672519,27.230972,0,551.73558196,564.06169784,8,3,16.268,1718.1752672519,25.918636,0.894776,553.067603,0,0,-1.11847,76.4, 0, 1.9,0,0,1024,1024,1162,1024,0,0,21,0,307.9,-15,-22.8,99,4.071,4.103,4.099,4.061,0,0,18.066,91.31,1718.1752672519,25.918636,6,P-GPS,
40700,2025-09-03 09:39:25,48.1487611553279,11.5721904191024,26.24672,,,1718.5033512519,27.559056,0,551.66012264,564.23558236,8,3,16.268,1718.5033512519,26.24672,0.894776,553.067603,0,0,-1.11847,76.4, 0, 1.9,0,0,1024,1024,1147,1024,0,0,19,0,308.5,-15,-23,99,4.071,4.103,4.099,4.061,0,0,18.066,91.31,1718.5033512519,26.24672,6,P-GPS,
40800,2025-09-03 09:39:25,48.1487616847839,11.5721910851024,26.24672,,,1718.5033512519,27.559056,0,551.51248484,564.48820704,8,3,16.268,1718.5033512519,26.24672,0.894776,553.067603,0,0,-1.11847,76.3, 0, 1.8,0,0,1024,1024,1128,1024,0,0,16,0,308.1,-15.1,-23,99,4.071,4.103,4.099,4.061,0,0,18.066,91.31,1718.5033512519,26.24672,6,P-GPS,
40900,2025-09-03 09:39:25,48.1487618566373,11.5721912809476,26.574804,,,1718.8314352519,27.88714,0,551.46327224,564.5669472,8,3,16.268,1718.8314352519,26.574804,0.894776,553.067603,0,0,-0.894776,76.3, 0, 1.9,0,0,1024,1024,1129,1024,0,0,16,0,308.1,-15.1,-23,99,4.071,4.103,4.099,4.061,0,0,18.066,91.31,1718.8314352519,26.574804,6,P-GPS,
41000,2025-09-03 09:39:25,48.1487619840056,11.572191339614,26.574804,,,1718.8314352519,27.88714,0,551.42062132,564.6161598,7,3,16.191,1718.8314352519,26.574804,0.894776,553.067603,0,0,-0.671082,76.3, 0.2, 2,0,0,1024,1024,1154,1024,0,0,20,0,308.1,-14.5,-23.6,99,4.064,4.092,4.087,4.071,0,0,17.46,91.31,1718.8314352519,26.574804,6,P-GPS,
41100,2025-09-03 09:39:25,48.1487621274911,11.572191422284,26.574804,,,1718.8314352519,28.215224,0,551.37468956,564.67193408,7,3,16.191,1718.8314352519,26.574804,0.894776,553.067603,0,0,-0.671082,76.3, 0.7, 2.4,0,0,1024,1024,1139,1024,0,0,17,0,308.8,-13.7,-23,99,4.064,4.092,4.087,4.071,0,0,17.46,91.31,1718.8314352519,26.574804,6,P-GPS,
41200,2025-09-03 09:39:25,48.1487622845464,11.5721915488553,26.574804,,,1718.8314352519,28.215224,0,551.32547696,564.73755088,8,3,16.191,1718.8314352519,26.574804,0.894776,553.067603,0,0,-0.671082,76.3, 0.9, 2.4,0,0,1024,1024,1155,1024,0,0,20,0,309.6,-13.1,-23.6,99,4.064,4.092,4.087,4.071,0,0,17.46,91.31,1718.8314352519,26.574804,6,P-GPS,
41300,2025-09-03 09:39:25,48.1487619516309,11.5721903675105,26.574804,,,1718.8314352519,28.543308,0,551.37468956,565.04923068,8,3,16.191,1718.8314352519,26.574804,0.894776,553.067603,0,0,-0.447388,76.3, 1, 1.8,0,0,1024,1024,1138,1024,0,0,17,0,308.7,-13.2,-24.3,99,4.064,4.092,4.087,4.071,0,0,17.46,91.31,1718.8314352519,26.574804,6,P-GPS,
41400,2025-09-03 09:39:25,48.1487618016757,11.5721903036555,26.574804,,,1718.8314352519,28.543308,0,551.42390216,565.10500496,8,3,16.191,1718.8314352519,26.574804,0.894776,553.067603,0,0,-0.447388,76.3, 1.1, 1.4,0,0,1024,1024,1154,1024,0,0,20,0,307.9,-13.4,-24.4,99,4.064,4.092,4.087,4.071,0,0,17.46,91.31,1718.8314352519,26.574804,6,P-GPS,
41500,2025-09-03 09:39:26,48.1487617673473,11.5721903888733,26.574804,,,1718.8314352519,28.543308,0,551.44030636,565.13125168,8,3,16.191,1718.8314352519,26.574804,0.894776,553.067603,0,0,-0.447388,76.4, 1.3, 1.5,0,0,1024,1024,1172,1024,0,0,22,0,309.2,-12.9,-24.5,99,4.064,4.092,4.087,4.071,0,0,17.46,91.31,1718.8314352519,26.574804,6,P-GPS,
41600,2025-09-03 09:39:26,48.1487617927184,11.5721905607437,26.902888,,,1719.1595192519,28.871392,0,551.4435872,565.1739026,8,3,16.191,1719.1595192519,26.902888,0.894776,553.067603,0,0,-0.671082,76.5, 1, 1.6,0,0,1024,1024,1171,1024,0,0,22,0,309,-13.8,-24,99,4.064,4.092,4.087,4.071,0,0,17.46,91.31,1719.1595192519,26.902888,6,P-GPS,
41700,2025-09-03 09:39:26,48.1487613741106,11.572190023074,26.902888,,,1719.1595192519,28.871392,0,551.5584166,565.37403384,8,3,16.191,1719.1595192519,26.902888,0.894776,553.067603,0,0,-0.671082,76.5, 0.2, 1.5,0,0,1024,1024,1157,1024,0,0,20,0,308.4,-14.5,-24.3,99,4.064,4.092,4.087,4.071,0,0,17.46,91.31,1719.1595192519,26.902888,6,P-GPS,
41800,2025-09-03 09:39:26,48.1487613042092,11.5721899855875,27.230972,,,1719.4876032519,29.199476,0,551.58138248,565.40028056,7,3,16.191,1719.4876032519,27.230972,0.894776,553.067603,0,0,-0.671082,76.6, 0, 1.5,0,0,1024,1024,1175,1024,0,0,23,0,309,-14.3,-24.6,99,4.064,4.092,4.087,4.071,0,0,17.46,91.31,1719.4876032519,27.230972,6,P-GPS,
41900,2025-09-03 09:39:26,48.1487612970245,11.5721900209956,27.230972,,,1719.4876032519,29.199476,0,551.58794416,565.41012308,7,3,16.191,1719.4876032519,27.230972,0.894776,553.067603,0,0,-0.894776,76.7, 0, 1.4,0,0,1024,1024,1208,1024,0,0,28,0,308.9,-14,-24.9,99,4.064,4.092,4.087,4.071,0,0,17.46,91.31,1719.4876032519,27.230972,6,P-GPS,
42000,2025-09-03 09:39:26,48.1487613261835,11.5721901187309,27.230972,,,1719.4876032519,29.199476,0,551.58138248,565.4363698,8,3,16.101,1719.4876032519,27.230972,0.894776,553.067603,0,0,-0.894776,76.7, 0.1, 1.1,0,0,1024,1024,1189,1024,0,0,25,0,308.7,-14.1,-25.3,99,4.088,4.103,4.09,4.069,0,0,16.636,91.31,1719.4876032519,27.230972,6,P-GPS,
42100,2025-09-03 09:39:26,48.1487611949846,11.5721897546383,27.559056,,,1719.8156872519,29.52756,0,551.6076292,565.53807584,8,3,16.101,1719.8156872519,27.559056,0.894776,553.067603,0,0,-1.11847,76.7, 0.3, 1,0,0,1024,1024,1183,1024,0,0,24,0,308.7,-14.1,-25.3,99,4.088,4.103,4.09,4.069,0,0,16.636,91.31,1719.8156872519,27.559056,6,P-GPS,
42200,2025-09-03 09:39:26,48.1487611347037,11.572189784808,27.88714,,,1720.1437712519,29.855644,0,551.63059508,565.56104172,8,3,16.101,1720.1437712519,27.88714,0.894776,553.067603,0,0,-1.342164,76.7, 0.5, 1.1,0,0,1024,1024,1160,1024,0,0,21,0,308.5,-13.8,-24.6,99,4.088,4.103,4.09,4.069,0,0,16.636,91.31,1720.1437712519,27.88714,6,P-GPS,
42300,2025-09-03 09:39:26,48.1487610943447,11.5721897325412,27.559056,,,1719.8156872519,29.855644,0,551.6404376,565.58072676,8,3,16.101,1720.1437712519,27.88714,0.894776,553.067603,0,0,-1.11847,76.7, 0.3, 1.2,0,0,1024,1024,1180,1024,0,0,24,0,308.2,-14.1,-24.3,99,4.088,4.103,4.09,4.069,0,0,16.636,91.31,1719.8156872519,27.559056,6,P-GPS,
42400,2025-09-03 09:39:26,48.1487610619326,11.5721896460026,27.88714,,,1720.1437712519,30.183728,0,551.64699928,565.60369264,8,3,16.101,1720.1437712519,27.88714,0.894776,553.067603,0,0,-1.11847,76.7, 0.3, 1.1,0,0,1024,1024,1207,1024,0,0,28,0,308,-14.1,-25.5,99,4.088,4.103,4.09,4.069,0,0,16.636,91.31,1720.1437712519,27.88714,6,P-GPS,
42500,2025-09-03 09:39:27,48.1487610687171,11.5721893995091,27.88714,,,1720.1437712519,30.183728,0,551.63059508,565.66274776,8,3,16.101,1720.1437712519,27.88714,0.894776,553.067603,0,0,-1.11847,76.7, 0.2, 1.3,0,0,1024,1024,1211,1024,0,0,28,0,308.2,-14.1,-24.8,99,4.088,4.103,4.09,4.069,0,0,16.636,91.31,1720.1437712519,27.88714,6,P-GPS,
42600,2025-09-03 09:39:27,48.1487610523264,11.5721894475005,27.88714,,,1720.1437712519,30.511812,0,551.6404376,565.67587112,8,3,16.101,1720.1437712519,27.88714,0.894776,553.067603,0,0,-1.11847,76.7, 0.2, 1.2,0,0,1024,1024,1226,1024,0,0,31,0,308.1,-14.1,-24.6,99,4.088,4.103,4.09,4.069,0,0,16.636,91.31,1720.1437712519,27.88714,6,P-GPS,
42700,2025-09-03 09:39:27,48.1487610398244,11.5721895853005,28.215224,,,1720.4718552519,30.511812,0,551.65356096,565.71196036,8,3,16.101,1720.4718552519,28.215224,0.894776,553.067603,0,0,-1.342164,76.7, 0.5, 0.8,0,0,1024,1024,1227,1024,0,0,31,0,308,-14,-25.1,99,4.088,4.103,4.09,4.069,0,0,16.636,91.31,1720.4718552519,28.215224,6,P-GPS,
42800,2025-09-03 09:39:27,48.1487610282865,11.5721897751506,28.215224,,,1720.4718552519,30.839896,0,551.66668432,565.75789212,8,3,16.101,1720.4718552519,28.215224,0.894776,553.067603,0,0,-1.342164,76.7, 0.4, 0.7,0,0,1024,1024,1231,1024,0,0,31,0,307.6,-14.3,-25,99,4.088,4.103,4.09,4.069,0,0,16.636,91.31,1720.4718552519,28.215224,6,P-GPS,
42900,2025-09-03 09:39:27,48.1487609866476,11.5721897108598,28.543308,,,1720.7999392519,31.16798,0,551.67980768,565.780858,8,3,16.101,1720.7999392519,28.543308,0.894776,553.067603,0,0,-1.342164,76.6, 0.2, 0.6,0,0,1024,1024,1239,1024,0,0,33,0,308,-14.1,-25.3,99,4.088,4.103,4.09,4.069,0,0,16.636,91.31,1720.7999392519,28.543308,6,P-GPS,
43000,2025-09-03 09:39:27,48.1487609771855,11.5721892095419,28.543308,,,1720.7999392519,31.16798,0,551.65356096,565.90224908,8,3,16.153,1720.7999392519,28.543308,0.894776,553.067603,0,0,-1.565858,76.6, 0.3, 0.7,0,0,1024,1024,1244,1024,0,0,33,0,307.7,-14.1,-24.9,98,4.052,4.063,4.058,4.049,0,0,18.228,91.31,1720.7999392519,28.543308,6,P-GPS,
43100,2025-09-03 09:39:27,48.1487609904744,11.5721891282256,28.871392,,,1721.1280232519,31.496064,0,551.64371844,565.92193412,8,3,16.153,1721.1280232519,28.871392,0.894776,553.067603,0,0,-1.789552,76.6, 0.5, 0.9,0,0,1024,1024,1247,1024,0,0,34,0,306.8,-14.4,-24.8,98,4.052,4.063,4.058,4.049,0,0,18.228,91.31,1721.1280232519,28.871392,6,P-GPS,
