time(millisecond),datetime(utc),latitude,longitude,height_above_takeoff(feet),height_above_ground_at_drone_location(feet),ground_elevation_at_drone_location(feet),altitude_above_seaLevel(feet),height_sonar(feet),speed(mph),distance(feet),mileage(feet),satellites,gpslevel,voltage(v),max_altitude(feet),max_ascent(feet),max_speed(mph),max_distance(feet), xSpeed(mph), ySpeed(mph), zSpeed(mph), compass_heading(degrees), pitch(degrees), roll(degrees),isPhoto,isVideo,rc_elevator,rc_aileron,rc_throttle,rc_rudder,rc_elevator(percent),rc_aileron(percent),rc_throttle(percent),rc_rudder(percent),gimbal_heading(degrees),gimbal_pitch(degrees),gimbal_roll(degrees),battery_percent,voltageCell1,voltageCell2,voltageCell3,voltageCell4,voltageCell5,voltageCell6,current(A),battery_temperature(f),altitude(feet),ascent(feet),flycStateRaw,flycState,message
122000,2025-09-03 14:09:27,48.1487705244101,11.5722434310069,0,Available with any HD 360 subscription,Available with any HD 360 subscription,1692.9574941353,0.328084,0,0,0,6,0,0,1692.9574941353,0,0,0,0,0,0,186.6, 5.9, -1.4,0,0,1024,1024,1024,1024,0,0,0,0,168,-74.9,-15.1,76,4.058,4.062,4.06,4.057,0,0,0,114.71,1692.9574941353,0,6,P-GPS,
122100,2025-09-03 14:09:27,48.1487707475981,11.5722436924191,0,,,1692.9574941353,0.328084,0,0.103345147664,0.103345147664,6,0,0,1692.9574941353,0,0,0.103345147664,0,0,0,186.9, 6, -1.4,0,0,1024,1024,1024,1024,0,0,0,0,168,-74.9,-15.1,76,4.058,4.062,4.06,4.057,0,0,0,114.71,1692.9574941353,0,41,Motors_Started,
122200,2025-09-03 14:09:27,48.148770972053,11.5722439560461,0,,,1692.9574941353,0.328084,0,0.20738681766,0.20738681766,6,0,0,1692.9574941353,0,0,0.20738681766,0,0,0,186.7, 5.9, -1.4,0,0,366,364,364,1684,-100,-100,-100,100,168,-74.9,-15.1,76,4.058,4.062,4.06,4.057,0,0,0,114.71,1692.9574941353,0,41,Motors_Started,
122300,2025-09-03 14:09:27,48.1487711984931,11.5722442194997,0,,,1692.9574941353,0.328084,0,0.311972779012,0.31197343518,6,0,0,1692.9574941353,0,0,0.311972779012,0,0,0,186.7, 5.9, -1.4,0,0,367,364,364,1684,-100,-100,-100,100,167.8,-74.9,-15,76,4.058,4.062,4.06,4.057,0,0,0,114.71,1692.9574941353,0,41,Motors_Started,
122400,2025-09-03 14:09:27,48.1487714262603,11.5722444838072,0,,,1692.9574941353,0.328084,0,0.41707022332,0.41707022332,6,0,0,1692.9574941353,0,0,0.41707022332,0,0,0,186.6, 5.9, -1.4,0,0,372,364,364,1684,-99,-100,-100,100,168,-74.9,-15,76,4.058,4.062,4.06,4.057,0,0,0,114.71,1692.9574941353,0,41,Motors_Started,
122500,2025-09-03 14:09:27,48.148771654586,11.5722447490583,0,,,1692.9574941353,0.328084,0,0.52246720832,0.52246720832,6,0,0,1692.9574941353,0,0,0.52246720832,0,0,0,186.6, 5.9, -1.4,0,0,368,364,364,1684,-99,-100,-100,100,167.9,-74.9,-14.9,76,4.058,4.062,4.06,4.057,0,0,0,114.71,1692.9574941353,0,41,Motors_Started,
122600,2025-09-03 14:09:27,48.1487718846689,11.5722450134492,0,,,1692.9574941353,0.328084,0,0.62824477076,0.6282480516,6,0,0,1692.9574941353,0,0,0.62824477076,0,0,0,186.7, 5.9, -1.4,0,0,365,364,364,1684,-100,-100,-100,100,167.8,-74.9,-14.9,76,4.058,4.062,4.06,4.057,0,0,0,114.71,1692.9574941353,0,41,Motors_Started,
122700,2025-09-03 14:09:27,48.1487721160512,11.5722452793808,0,,,1692.9574941353,0.328084,0,0.73462600776,0.7346292886,6,0,0,1692.9574941353,0,0,0.73462600776,0,0,0,186.5, 6, -1.4,0,0,781,616,723,1414,-37,-62,-46,59,167.1,-75.1,-15,76,4.058,4.062,4.06,4.057,0,0,0,114.71,1692.9574941353,0,41,Motors_Started,
122800,2025-09-03 14:09:28,48.1487723485311,11.5722455447796,0,,,1692.9574941353,0.328084,0,0.84124346524,0.84125330776,6,0,16.199,1692.9574941353,0,0,0.84124346524,0,0,0,186.6, 6, -1.4,0,0,1011,999,899,1201,-2,-4,-19,27,167,-75.1,-15,76,4.058,4.062,4.06,4.057,0,0,1.638,114.71,1692.9574941353,0,41,Motors_Started,"Setting new Return-To-Home altitude to 100m (328 ft). Data Recorder File Index is 243. Setting new Maximum Flight Altitude to 500m (1640 ft)"
122900,2025-09-03 14:09:28,48.1487725849894,11.572245803624,0,,,1692.9574941353,0.328084,0,0.94804136892,0.94808401984,6,0,16.199,1692.9574941353,0,0,0.94804136892,0,0,0,186.6, 6, -1.4,0,0,1024,1024,1023,1031,0,0,-0,1,167,-75,-14.8,76,4.058,4.062,4.06,4.057,0,0,1.638,114.71,1692.9574941353,0,41,Motors_Started,
123000,2025-09-03 14:09:28,48.1487728214264,11.5722460701141,0,,,1692.9574941353,0.328084,0,1.05596788156,1.05601709416,6,0,16.199,1692.9574941353,0,0,1.05596788156,0,0,0,186.6, 6, -1.4,0,0,1024,1024,1024,1024,0,0,0,0,166.9,-75,-14.7,76,4.058,4.062,4.06,4.057,0,0,1.638,114.71,1692.9574941353,0,41,Motors_Started,
123100,2025-09-03 14:09:28,48.1487730597997,11.5722463362768,0,,,1692.9574941353,0.328084,0,1.16440948608,1.1644685412,6,0,16.199,1692.9574941353,0,0,1.16440948608,0,0,0,186.6, 6.1, -1.4,0,0,1024,1024,1024,1024,0,0,0,0,166.9,-75,-14.7,76,4.058,4.062,4.06,4.057,0,0,1.638,114.71,1692.9574941353,0,41,Motors_Started,
123200,2025-09-03 14:09:28,48.1487732989171,11.5722466019838,0,,,1692.9574941353,0.328084,0,1.27300200924,1.27307090688,6,0,16.199,1692.9574941353,0,0,1.27300200924,0,0,0,186.6, 6, -1.4,0,0,1024,1024,1024,1024,0,0,0,0,166.8,-75,-14.7,76,4.058,4.062,4.06,4.057,0,0,1.638,114.71,1692.9574941353,0,41,Motors_Started,
123300,2025-09-03 14:09:28,48.1487735388651,11.5722468668048,0,,,1692.9574941353,0.328084,0,1.3817093618,1.3817913828,6,0,16.199,1692.9574941353,0,0,1.3817093618,0,0,0,186.6, 6, -1.4,0,0,1024,1024,1024,1024,0,0,0,0,166.6,-75.1,-14.7,76,4.058,4.062,4.06,4.057,0,0,1.638,114.71,1692.9574941353,0,41,Motors_Started,
123400,2025-09-03 14:09:28,48.1487737801923,11.5722471325117,0,,,1692.9574941353,0.328084,0,1.4909449296,1.4910433548,6,0,16.199,1692.9574941353,0,0,1.4909449296,0,0,0,186.6, 6.1, -1.4,0,0,1024,1024,1024,1024,0,0,0,0,166.5,-75,-14.6,76,4.058,4.062,4.06,4.057,0,0,1.638,114.71,1692.9574941353,0,41,Motors_Started,
123500,2025-09-03 14:09:28,48.1487740252943,11.5722473994191,0,,,1692.9574941353,0.328084,0,1.601460025,1.60157813524,6,0,16.199,1692.9574941353,0,0,1.601460025,0,0,0,186.6, 6.1, -1.4,0,0,1024,1024,1024,1024,0,0,0,0,166.5,-75,-14.6,76,4.058,4.062,4.06,4.057,0,0,1.638,114.71,1692.9574941353,0,41,Motors_Started,
123600,2025-09-03 14:09:28,48.1487742708344,11.5722476663329,0,,,1692.9574941353,0.328084,0,1.712106354,1.71224743012,6,0,16.199,1692.9574941353,0,0,1.712106354,0,0,0,186.6, 6, -1.4,0,0,1024,1024,1024,1024,0,0,0,0,166.5,-75.1,-14.7,76,4.058,4.062,4.06,4.057,0,0,1.638,114.71,1692.9574941353,0,10,Assisted_Takeoff,
123700,2025-09-03 14:09:28,48.1487745164884,11.5722479323351,0,,,1692.9574941353,0.328084,0,1.8226542578,1.8228182998,5,0,16.199,1692.9574941353,0,0,1.8226542578,0,0,0,186.6, 6, -1.4,0,0,1024,1024,1024,1024,0,0,0,0,166.4,-75.1,-14.7,76,4.058,4.062,4.06,4.057,0,0,1.638,114.71,1692.9574941353,0,10,Assisted_Takeoff,
123800,2025-09-03 14:09:29,48.1487747656061,11.5722482007255,0,,,1692.9574941353,0.328084,0,1.93456699104,1.93475071808,5,0,16.189,1692.9574941353,0,0,1.93456699104,0,0,0,186.6, 6, -1.4,0,0,1024,1024,1024,1024,0,0,0,0,166.3,-75.1,-14.6,76,4.042,4.047,4.044,4.039,0,0,2.706,114.71,1692.9574941353,0,10,Assisted_Takeoff,
123900,2025-09-03 14:09:29,48.1487750159517,11.5722484682684,0,,,1692.9574941353,0.328084,0,2.04671266392,2.0469324802,5,0,16.189,1692.9574941353,0,0,2.04671266392,0,0,0,186.6, 6, -1.4,0,0,1024,1024,1024,1024,0,0,0,0,166.3,-75.1,-14.5,76,4.042,4.047,4.044,4.039,0,0,2.706,114.71,1692.9574941353,0,10,Assisted_Takeoff,
124000,2025-09-03 14:09:29,48.1487752679795,11.5722487363762,0,,,1692.9574941353,0.328084,0,2.15943904548,2.15969167016,5,0,16.189,1692.9574941353,0,0,2.15943904548,0,0,0,186.6, 6, -1.4,0,0,1024,1024,1024,1024,0,0,0,0,166.2,-75.1,-14.5,76,4.042,4.047,4.044,4.039,0,0,2.706,114.71,1692.9574941353,0,10,Assisted_Takeoff,
124100,2025-09-03 14:09:29,48.1487755225004,11.5722490040604,0,,,1692.9574941353,0.328084,0,2.27283799924,2.27313327484,5,0,16.189,1692.9574941353,0,0,2.27283799924,0,0,0,186.6, 6, -1.4,0,0,1024,1024,1024,1024,0,0,0,0,166.5,-75,-14.3,76,4.042,4.047,4.044,4.039,0,0,2.706,114.71,1692.9574941353,0,10,Assisted_Takeoff,
124200,2025-09-03 14:09:29,48.1487757789836,11.5722492732211,0,,,1692.9574941353,0.328084,0,2.38702763544,2.3873688428,5,0,16.189,1692.9574941353,0,0,2.38702763544,0,0,0,186.6, 6, -1.4,0,0,1024,1024,1024,1024,0,0,0,0,166.8,-74.9,-14.2,76,4.042,4.047,4.044,4.039,0,0,2.706,114.71,1692.9574941353,0,10,Assisted_Takeoff,
124300,2025-09-03 14:09:29,48.1487760376603,11.5722495417398,0,,,1692.9574941353,0.328084,0,2.5017717336,2.50217199608,5,0,16.189,1692.9574941353,0,0,2.5017717336,0,0,0,186.6, 6, -1.4,0,0,1024,1024,1024,1024,0,0,0,0,166.6,-75,-14.2,76,4.042,4.047,4.044,4.039,0,0,2.706,114.71,1692.9574941353,0,10,Assisted_Takeoff,
124400,2025-09-03 14:09:29,48.1487762981983,11.5722498106437,0,,,1692.9574941353,0.328084,0,2.617126068,2.61758866644,5,0,16.189,1692.9574941353,0,0,2.617126068,0,0,0,186.6, 6, -1.4,0,0,1024,1024,1024,1024,0,0,0,0,166.6,-75,-14.2,76,4.042,4.047,4.044,4.039,0,0,2.706,114.71,1692.9574941353,0,10,Assisted_Takeoff,
124500,2025-09-03 14:09:29,48.148776560241,11.5722500797658,0,,,1692.9574941353,0.328084,0,2.7329561242,2.73348762028,6,0,16.189,1692.9574941353,0,0,2.7329561242,0,0,0,186.6, 6, -1.4,0,0,1024,1024,1024,1024,0,0,0,0,166.6,-74.9,-14.1,76,4.042,4.047,4.044,4.039,0,0,2.706,114.71,1692.9574941353,0,10,Assisted_Takeoff,
124600,2025-09-03 14:09:29,48.1487768239936,11.5722503506212,0,,,1692.9574941353,0.328084,0,2.84954733528,2.85013788648,6,0,16.189,1692.9574941353,0,0,2.84954733528,0,0,0,186.6, 6, -1.4,0,0,1024,1024,1024,1024,0,0,0,0,166.7,-74.9,-14,76,4.042,4.047,4.044,4.039,0,0,2.706,114.71,1692.9574941353,0,10,Assisted_Takeoff,
124700,2025-09-03 14:09:29,48.1487770902051,11.5722506205202,0,,,1692.9574941353,0.328084,0,2.96672909756,2.96739838892,6,0,16.189,1692.9574941353,0,0,2.96672909756,0,0,0,186.6, 6, -1.4,0,0,1024,1024,1024,1024,0,0,0,0,166.5,-74.9,-14,76,4.042,4.047,4.044,4.039,0,0,2.706,114.71,1692.9574941353,0,10,Assisted_Takeoff,
124800,2025-09-03 14:09:30,48.1487773581851,11.5722508905539,0,,,1692.9574941353,0.328084,0,3.08445547928,3.08521335332,6,0,16.174,1692.9574941353,0,0,3.08445547928,0,0,0,186.6, 6, -1.4,0,0,1024,1024,1024,1024,0,0,0,0,166.5,-74.9,-14,76,4.042,4.059,4.053,4.048,0,0,3.006,114.71,1692.9574941353,0,10,Assisted_Takeoff,
124900,2025-09-03 14:09:30,48.1487776284905,11.5722511603373,0,,,1692.9574941353,0.328084,0,3.20284130984,3.20370088992,6,0,16.174,1692.9574941353,0,0,3.20284130984,0,0,0,186.6, 6, -1.4,0,0,1024,1024,1024,1024,0,0,0,0,166.5,-74.9,-13.9,76,4.042,4.059,4.053,4.048,0,0,3.006,114.71,1692.9574941353,0,10,Assisted_Takeoff,
125000,2025-09-03 14:09:30,48.1487778993496,11.5722514309616,0,,,1692.9574941353,0.328084,0,3.321522416,3.3224738596,6,0,16.174,1692.9574941353,0,0,3.321522416,0,0,0,186.6, 6, -1.4,0,0,1024,1024,1024,1024,0,0,0,0,166.4,-74.9,-13.9,76,4.042,4.059,4.053,4.048,0,0,3.006,114.71,1692.9574941353,0,10,Assisted_Takeoff,
125100,2025-09-03 14:09:30,48.1487781724917,11.5722517008028,0,,,1692.9574941353,0.328084,0,3.44078095,3.4418308188,6,0,16.174,1692.9574941353,0,0,3.44078095,0,0,0,186.6, 6, -1.4,0,0,1024,1024,1024,1024,0,0,0,0,166.3,-75,-13.9,76,4.042,4.059,4.053,4.048,0,0,3.006,114.71,1692.9574941353,0,10,Assisted_Takeoff,
125200,2025-09-03 14:09:30,48.1487784476076,11.572251970997,0,,,1692.9574941353,0.328084,0,3.5606628436,3.561843946,6,0,16.174,1692.9574941353,0,0,3.5606628436,0,0,0,186.6, 6, -1.4,0,0,1024,1024,1035,1024,0,0,2,0,166.2,-75,-13.8,76,4.042,4.059,4.053,4.048,0,0,3.006,114.71,1692.9574941353,0,10,Assisted_Takeoff,
125300,2025-09-03 14:09:30,48.1487787525337,11.572252268192,0,,,1692.9574941353,0.328084,0,3.6932087796,3.6945211156,6,0,16.174,1692.9574941353,0,0,3.6932087796,0,0,0,186.6, 6, -1.4,0,0,1024,1024,1047,1024,0,0,3,0,166.3,-74.9,-13.7,76,4.042,4.059,4.053,4.048,0,0,3.006,114.71,1692.9574941353,0,10,Assisted_Takeoff,
125400,2025-09-03 14:09:30,48.1487790035909,11.5722525112121,0,,,1692.9574941353,0.328084,0,3.8021326676,3.8035762372,6,0,16.174,1692.9574941353,0,0,3.8021326676,0,0,0,186.6, 6, -1.4,0,0,1024,1024,1059,1024,0,0,5,0,166.2,-75,-13.7,76,4.042,4.059,4.053,4.048,0,0,3.006,114.71,1692.9574941353,0,10,Assisted_Takeoff,
125500,2025-09-03 14:09:30,48.1487792842923,11.5722527826966,0,,,1692.9574941353,0.328084,0,3.92388464,3.9254594432,6,0,16.174,1692.9574941353,0,0,3.92388464,0,0,0,186.6, 6, -1.4,0,0,1024,1024,1060,1024,0,0,5,0,166.1,-75,-13.6,76,4.042,4.059,4.053,4.048,0,0,3.006,114.71,1692.9574941353,0,10,Assisted_Takeoff,
125600,2025-09-03 14:09:30,48.1487795668632,11.5722530541299,0,,,1692.9574941353,0.328084,0,4.0461943552,4.047900392,6,0,16.174,1692.9574941353,0,0,4.0461943552,0,0,0,186.6, 6, -1.4,0,0,1024,1024,1050,1024,0,0,4,0,166,-75,-13.6,76,4.042,4.059,4.053,4.048,0,0,3.006,114.71,1692.9574941353,0,10,Assisted_Takeoff,
125700,2025-09-03 14:09:31,48.1487798516422,11.5722533256016,0,,,1692.9574941353,0.328084,0,4.1691930468,4.1710631256,6,0,16.174,1692.9574941353,0,0,4.1691930468,0,0,0,186.6, 6, -1.4,0,0,1024,1024,1049,1024,0,0,4,0,165.9,-75,-13.6,76,4.042,4.059,4.053,4.048,0,0,3.006,114.71,1692.9574941353,0,10,Assisted_Takeoff,
125800,2025-09-03 14:09:31,48.1487801382549,11.5722535973879,0,,,1692.9574941353,0.328084,0,4.2927494812,4.294783602,6,0,16.174,1692.9574941353,0,0,4.2927494812,0,0,0,186.6, 6, -1.4,0,0,1024,1024,1054,1024,0,0,5,0,165.9,-75,-13.5,76,4.042,4.059,4.053,4.048,0,0,3.006,114.71,1692.9574941353,0,10,Assisted_Takeoff,
125900,2025-09-03 14:09:31,48.1487804251639,11.5722538728269,0,,,1692.9574941353,0.328084,0,4.4169620836,4.4190946296,7,0,16.174,1692.9574941353,0,0,4.4169620836,0,0,0,186.6, 6, -1.4,0,0,1024,1024,1043,1024,0,0,3,0,165.8,-75,-13.5,76,4.042,4.059,4.053,4.048,0,0,3.006,114.71,1692.9574941353,0,10,Assisted_Takeoff,
126000,2025-09-03 14:09:31,48.1487807151084,11.5722541465904,0,,,1692.9574941353,0.328084,0,4.541830854,4.544127442,7,0,16.174,1692.9574941353,0,0,4.541830854,0,0,0,186.6, 6, -1.4,0,0,1024,1024,1039,1024,0,0,2,0,165.8,-75,-13.5,76,4.042,4.059,4.053,4.048,0,0,3.006,114.71,1692.9574941353,0,10,Assisted_Takeoff,
126100,2025-09-03 14:09:31,48.1487810070526,11.5722544209509,0,,,1692.9574941353,0.328084,0,4.6673886008,4.6698492308,7,0,16.174,1692.9574941353,0,0,4.6673886008,0,0,0,186.6, 6, -1.4,0,0,1024,1024,1039,1024,0,0,2,0,165.7,-75,-13.5,76,4.042,4.059,4.053,4.048,0,0,3.006,114.71,1692.9574941353,0,10,Assisted_Takeoff,
126200,2025-09-03 14:09:31,48.1487813009281,11.5722546954527,0,,,1692.9574941353,0.328084,0,4.7935368988,4.7961943792,7,0,16.174,1692.9574941353,0,0,4.7935368988,0,0,0,186.6, 6, -1.4,0,0,1024,1024,1025,1024,0,0,0,0,165.7,-75,-13.5,76,4.042,4.059,4.053,4.048,0,0,3.006,114.71,1692.9574941353,0,10,Assisted_Takeoff,
126300,2025-09-03 14:09:31,48.1487815964353,11.5722549707826,0,,,1692.9574941353,0.328084,0,4.9203085564,4.9231300788,7,0,16.174,1692.9574941353,0,0,4.9203085564,0,0,0,186.6, 6, -1.4,0,0,1024,1024,1024,1024,0,0,0,0,165.5,-75,-13.3,76,4.042,4.059,4.053,4.048,0,0,3.006,114.71,1692.9574941353,0,10,Assisted_Takeoff,
126400,2025-09-03 14:09:31,48.1487818941572,11.572255246273,0,,,1692.9574941353,0.328084,0,5.0478019988,5.0507875632,7,0,16.174,1692.9574941353,0,0,5.0478019988,0,0,0,186.6, 6, -1.4,0,0,1024,1024,1034,1024,0,0,2,0,165.6,-75,-13.3,76,4.042,4.059,4.053,4.048,0,0,3.006,114.71,1692.9574941353,0,10,Assisted_Takeoff,
126500,2025-09-03 14:09:31,48.14878219383,11.5722555216286,0,,,1692.9574941353,0.328084,0,5.175853184,5.1790355988,7,0,16.174,1692.9574941353,0,0,5.175853184,0,0,0,186.6, 6, -1.4,0,0,1033,1024,1050,1024,1,0,4,0,165.4,-75,-13.3,76,4.042,4.059,4.053,4.048,0,0,3.006,114.71,1692.9574941353,0,10,Assisted_Takeoff,
126600,2025-09-03 14:09:31,48.1487824960268,11.5722557979599,0,,,1692.9574941353,0.328084,0,5.304790196,5.3082022696,7,0,16.174,1692.9574941353,0,0,5.304790196,0,0,0,186.6, 6, -1.4,0,0,1034,1024,1077,1024,2,0,8,0,165.4,-75,-13.2,76,4.042,4.059,4.053,4.048,0,0,3.006,114.71,1692.9574941353,0,10,Assisted_Takeoff,
126700,2025-09-03 14:09:32,48.1487827993311,11.5722560770388,0,,,1692.9574941353,0.328084,0,5.4344489928,5.4380579168,7,0,16.174,1692.9574941353,0,0,5.4344489928,0,0,0,186.6, 6, -1.4,0,0,1033,1024,1108,1024,1,0,13,0,165.2,-75.1,-13.3,76,4.042,4.059,4.053,4.048,0,0,3.006,114.71,1692.9574941353,0,10,Assisted_Takeoff,
126800,2025-09-03 14:09:32,48.1487831053287,11.5722563551484,0,,,1692.9574941353,0.328084,0,5.5648295744,5.5686025404,7,0,16.19,1692.9574941353,0,0,5.5648295744,0,0,0,186.6, 6, -1.4,0,0,1024,1024,1122,1024,0,0,15,0,165.1,-75.1,-13.1,76,4.054,4.059,4.057,4.053,0,0,2.194,114.71,1692.9574941353,0,10,Assisted_Takeoff,
126900,2025-09-03 14:09:32,48.1487834129841,11.5722566343044,0,,,1692.9574941353,0.328084,0,5.6958335156,5.6998361404,7,0,16.19,1692.9574941353,0,0,5.6958335156,0,0,0,186.6, 5.9, -1.4,0,0,1024,1024,1128,1024,0,0,16,0,165.2,-75.1,-13.4,76,4.054,4.059,4.057,4.053,0,0,2.194,114.71,1692.9574941353,0,10,Assisted_Takeoff,
127000,2025-09-03 14:09:32,48.1487837227728,11.5722569145966,0,,,1692.9574941353,0.328084,0,5.8276576668,5.831857142,7,0,16.19,1692.9574941353,0,0,5.8276576668,0,0,0,186.6, 5.9, -1.5,0,0,1024,1024,1132,1024,0,0,16,0,165.1,-75.1,-13.6,76,4.054,4.059,4.057,4.053,0,0,2.194,114.71,1692.9574941353,0,10,Assisted_Takeoff,
127100,2025-09-03 14:09:32,48.1487840351409,11.5722571956978,0,,,1692.9574941353,0.328084,0,5.9603676448,5.9647967788,7,0,16.19,1692.9574941353,0,0,5.9603676448,0,0,0,186.6, 5.9, -1.5,0,0,1024,1024,1139,1024,0,0,17,0,165.2,-74.9,-13.6,76,4.054,4.059,4.057,4.053,0,0,2.194,114.71,1692.9574941353,0,10,Assisted_Takeoff,
127200,2025-09-03 14:09:32,48.1487843494567,11.5722574800664,0,,,1692.9574941353,0.328084,0,6.0941274916,6.0987206676,7,0,16.19,1692.9574941353,0,0,6.0941274916,0,0,0,186.6, 6, -1.5,0,0,1024,1024,1127,1024,0,0,16,0,165.2,-74.9,-13.6,76,4.054,4.059,4.057,4.053,0,0,2.194,114.71,1692.9574941353,0,10,Assisted_Takeoff,
127300,2025-09-03 14:09:32,48.1487846663388,11.5722577648909,0,,,1692.9574941353,0.328084,0,6.2287403568,6.2335303832,7,0,16.19,1692.9574941353,0,0,6.2287403568,0,0,0,186.5, 6, -1.5,0,0,1024,1024,1101,1024,0,0,12,0,165.2,-74.9,-13.7,76,4.054,4.059,4.057,4.053,0,0,2.194,114.71,1692.9574941353,0,10,Assisted_Takeoff,
127400,2025-09-03 14:09:32,48.1487849849602,11.5722580505242,0,,,1692.9574941353,0.328084,0,6.3639765816,6.3689962668,8,0,16.19,1692.9574941353,0,0,6.3639765816,0,0,0,186.5, 6, -1.5,0,0,1024,1024,1131,1024,0,0,16,0,165.2,-74.8,-13.3,76,4.054,4.059,4.057,4.053,0,0,2.194,114.71,1692.9574941353,0,10,Assisted_Takeoff,
127500,2025-09-03 14:09:32,48.1487853072488,11.5722583368702,0,,,1692.9574941353,0.328084,0,6.5004595256,6.5057088696,8,0,16.19,1692.9574941353,0,0,6.5004595256,0,0,0,186.5, 6, -1.5,0,0,1024,1024,1179,1024,0,0,23,0,165,-74.8,-13.7,76,4.054,4.059,4.057,4.053,0,0,2.194,114.71,1692.9574941353,0,10,Assisted_Takeoff,
127600,2025-09-03 14:09:32,48.1487856309607,11.5722586274659,0,,,1692.9574941353,0.328084,0,6.6379267216,6.643372916,8,0,16.19,1692.9574941353,0,0,6.6379267216,0,0,0,186.5, 6, -1.8,0,0,1024,1024,1198,1024,0,0,26,0,164.7,-74.8,-13.5,76,4.054,4.059,4.057,4.053,0,0,2.194,114.71,1692.9574941353,0,10,Assisted_Takeoff,
127700,2025-09-03 14:09:32,48.1487859594211,11.5722589286988,0,,,1692.9574941353,0.328084,0,6.7783138652,6.7838584848,7,0,16.19,1692.9574941353,0,0,6.7783138652,0,0,0,186.6, 6.2, -2.1,0,0,1024,1024,1202,1024,0,0,27,0,164.4,-74.7,-13.6,76,4.054,4.059,4.057,4.053,0,0,2.194,114.71,1692.9574941353,0,10,Assisted_Takeoff,
127800,2025-09-03 14:09:33,48.1487862968966,11.5722592393172,0,,,1692.9574941353,0.328084,0,6.9227036336,6.9283466784,7,0,16.122,1692.9574941353,0,0,6.9227036336,0,0,0,186.7, 6.9, -2.8,0,0,1024,1024,1207,1024,0,0,28,0,163,-74,-13.3,76,4.055,4.059,4.057,4.054,0,0,2.194,114.71,1692.9574941353,0,10,Assisted_Takeoff,
127900,2025-09-03 14:09:33,48.1487866628275,11.5722595882862,0,,,1692.9574941353,0.328084,0,7.0809057384,7.0865815916,8,0,16.122,1692.9574941353,0,0,7.0809057384,0,0,0,187.3, 7.5, -4.3,0,0,1024,1024,1211,1024,0,0,28,0,161.4,-74.6,-14.2,76,4.055,4.059,4.057,4.054,0,0,2.194,114.71,1692.9574941353,0,10,Assisted_Takeoff,
128000,2025-09-03 14:09:33,48.1487870683035,11.5722600571604,0,,,1692.9574941353,0.328084,0.3131716,7.2673230672,7.273458238,8,0,16.122,1692.9574941353,0,0.3131716,7.2673230672,0.223694,0.223694,-0.223694,188.1, 6.3, -6.5,0,0,1024,1024,1219,1024,0,0,30,0,159.2,-76.4,-17.1,76,4.055,4.059,4.057,4.054,0,0,2.194,114.71,1692.9574941353,0,10,Assisted_Takeoff,
128100,2025-09-03 14:09:33,48.1487875412264,11.5722606281832,0,,,1692.9574941353,0.656168,0.6263432,7.4880579824,7.4950133632,7,0,16.122,1692.9574941353,0,0.6263432,7.4880579824,0.447388,0.447388,-0.447388,188.1, 4.3, -6.9,0,0,1024,1024,1219,1024,0,0,30,0,163.1,-78.7,-16.3,76,4.055,4.059,4.057,4.054,0,0,2.194,114.71,1692.9574941353,0,6,P-GPS,
128200,2025-09-03 14:09:33,48.1487880530366,11.5722613327848,0,,,1692.9574941353,0.656168,0.8052984,7.7388782004,7.7485566784,7,0,16.122,1692.9574941353,0,0.8052984,7.7388782004,0.447388,0.671082,-0.671082,188, 0.4, -1.5,0,0,1024,1024,1223,1024,0,0,30,0,170.8,-81.8,-12.5,76,4.055,4.059,4.057,4.054,0,0,2.194,114.71,1692.9574941353,0,6,P-GPS,
128300,2025-09-03 14:09:33,48.1487885646416,11.5722620944566,0,,,1692.9574941353,0.656168,0.7158208,7.9976708596,8.011647238,6,0,16.122,1692.9574941353,0,0.8052984,7.9976708596,0.223694,0.671082,-0.894776,187.7, -4, 5,0,0,1024,1024,1225,1024,0,0,30,0,173.1,-81.8,-12,76,4.055,4.059,4.057,4.054,0,0,2.194,114.71,1692.9574941353,0,6,P-GPS,
128400,2025-09-03 14:09:33,48.1487890020547,11.5722627687128,0.328084,,,1693.2855781353,0.984252,0.447388,8.2223755912,8.2405842532,6,0,16.122,1693.2855781353,0.328084,0.8052984,8.2223755912,0,0.447388,-0.894776,187.5, -3.9, 6.1,0,0,1024,1024,1225,1024,0,0,30,0,169.3,-81.6,-12.8,76,4.055,4.059,4.057,4.054,0,0,2.194,114.71,1693.2855781353,0.328084,6,P-GPS,
128500,2025-09-03 14:09:33,48.1487893939039,11.5722633759099,0.328084,,,1693.2855781353,0.984252,0.223694,8.4243112932,8.4462273044,4,1,16.122,1693.2855781353,0.328084,0.8052984,8.4243112932,0,0.223694,-1.11847,187.6, -2.2, 2.5,0,0,1024,1024,1225,1024,0,0,30,0,169.3,-81.6,-12.8,76,4.055,4.059,4.057,4.054,0,0,2.194,114.71,1693.2855781353,0.328084,6,P-GPS,
128600,2025-09-03 14:09:33,48.1487897300441,11.5722639593289,0.656168,,,1693.6136621353,1.312336,0.223694,8.6064963384,8.633858544,4,1,16.122,1693.6136621353,0.656168,0.8052984,8.6064963384,0,0.223694,-1.342164,188, -0.9, 0.1,0,0,1024,1024,1225,1024,0,0,30,0,166.6,-81.2,-13.4,76,4.055,4.059,4.057,4.054,0,0,2.194,114.71,1693.6136621353,0.656168,6,P-GPS,
128700,2025-09-03 14:09:34,48.1487900271732,11.5722645805914,0.984252,,,1693.9417461353,1.64042,0.447388,8.7827758716,8.8199477888,4,1,16.122,1693.9417461353,0.984252,0.8052984,8.7827758716,0,0.447388,-1.565858,188.5, -1, 2.2,0,0,1024,1024,1223,1024,0,0,30,0,169.2,-81,-11.9,76,4.055,4.059,4.057,4.054,0,0,2.194,114.71,1693.9417461353,0.984252,6,P-GPS,
128800,2025-09-03 14:09:34,48.1487902956873,11.5722652173507,0.984252,,,1693.9417461353,1.968504,0.447388,8.9532811264,9.0033139364,4,1,16.051,1693.9417461353,0.984252,0.8052984,8.9532811264,0,0.447388,-1.565858,188.5, -0.4, 4.5,0,0,1024,1024,1216,1024,0,0,29,0,170.9,-79.1,-14.4,76,4.055,4.059,4.057,4.054,0,0,2.194,114.71,1693.9417461353,0.984252,6,P-GPS,
128900,2025-09-03 14:09:34,48.1487905526298,11.57226583731,1.312336,,,1694.2698301353,2.296588,0.447388,9.118438612,9.1809714224,6,1,16.051,1694.2698301353,1.312336,0.8052984,9.118438612,0,0.447388,-1.789552,188.5, 1.1, 4.9,0,0,1024,1024,1206,1024,0,0,28,0,172.1,-76.8,-16,76,4.055,4.059,4.057,4.054,0,0,2.194,114.71,1694.2698301353,1.312336,6,P-GPS,
129000,2025-09-03 14:09:34,48.1487908087189,11.5722663886631,1.64042,,,1694.5979141353,2.296588,0.447388,9.2737207692,9.3445212964,6,0,16.051,1694.5979141353,1.64042,0.8052984,9.2737207692,0,0.447388,-2.013246,188.5, 1.5, 3.5,0,0,1024,1024,1205,1024,0,0,27,0,169.2,-78.4,-14.3,76,4.055,4.059,4.057,4.054,0,0,2.194,114.71,1694.5979141353,1.64042,6,P-GPS,
129100,2025-09-03 14:09:34,48.148791070146,11.5722669134263,1.968504,,,1694.9259981353,2.624672,0.447388,9.4269359972,9.503937312,6,0,16.051,1694.9259981353,1.968504,0.8052984,9.4269359972,0,0.447388,-2.013246,188.2, 0.6, 2.8,0,0,1024,1024,1203,1024,0,0,27,0,169.3,-79.4,-11.5,76,4.055,4.059,4.057,4.054,0,0,2.194,114.71,1694.9259981353,1.968504,6,P-GPS,
129200,2025-09-03 14:09:34,48.1487913315764,11.5722674443458,2.296588,,,1695.2540821353,2.952756,0.447388,9.5812667108,9.6645672384,6,0,16.051,1695.2540821353,2.296588,0.8052984,9.5812667108,0,0.447388,-2.013246,188.1, 0.2, 3.4,0,0,1024,1024,1206,1024,0,0,28,0,171,-79,-12.9,76,4.055,4.059,4.057,4.054,0,0,2.194,114.71,1695.2540821353,2.296588,6,P-GPS,
129300,2025-09-03 14:09:34,48.1487915783866,11.5722679712788,2.624672,,,1695.5821661353,3.28084,0.223694,9.73097144,9.8212929652,6,0,16.051,1695.5821661353,2.624672,0.8052984,9.73097144,0,0.223694,-1.789552,188.1, 0, 4.9,0,0,1024,1024,1209,1024,0,0,28,0,171.9,-79.1,-12.4,76,4.055,4.059,4.057,4.054,0,0,2.194,114.71,1695.5821661353,2.624672,6,P-GPS,
129400,2025-09-03 14:09:34,48.1487918317399,11.572268488332,2.952756,,,1695.9102501353,3.608924,0.223694,9.8812995288,9.9774281408,6,0,16.051,1695.9102501353,2.952756,0.8052984,9.8812995288,0,0.223694,-1.789552,188.1, 0, 5.4,0,0,1024,1024,1208,1024,0,0,28,0,170.9,-78.8,-10.8,76,4.055,4.059,4.057,4.054,0,0,2.194,114.71,1695.9102501353,2.952756,6,P-GPS,
129500,2025-09-03 14:09:34,48.1487920877541,11.5722689699684,3.28084,,,1696.2383341353,3.937008,0.223694,10.027231292,10.1273297204,6,0,16.051,1696.2383341353,3.28084,0.8052984,10.027231292,0,0.223694,-1.565858,188.2, 0.6, 5.1,0,0,1024,1024,1215,1024,0,0,29,0,170.6,-78.6,-12.9,76,4.055,4.059,4.057,4.054,0,0,2.194,114.71,1696.2383341353,3.28084,6,P-GPS,
129600,2025-09-03 14:09:34,48.1487923490933,11.5722694111227,3.608924,,,1696.5664181353,3.937008,0.223694,10.168635496,10.2709648956,6,0,16.051,1696.5664181353,3.608924,0.8052984,10.168635496,0,0.223694,-1.565858,188.2, 0.6, 4.7,0,0,1024,1024,1224,1024,0,0,30,0,170.6,-78.8,-15.3,76,4.055,4.059,4.057,4.054,0,0,2.194,114.71,1696.5664181353,3.608924,6,P-GPS,
129700,2025-09-03 14:09:35,48.1487926113575,11.5722698180864,3.937008,,,1696.8945021353,4.265092,0.223694,10.3051840568,10.4086945588,6,0,16.051,1696.8945021353,3.937008,0.8052984,10.3051840568,0,0.223694,-1.565858,188.1, 0.4, 4.1,0,0,1024,1024,1226,1024,0,0,31,0,170.6,-78.8,-15.3,76,4.055,4.059,4.057,4.054,0,0,2.194,114.71,1696.8945021353,3.937008,6,P-GPS,
129800,2025-09-03 14:09:35,48.1487928758787,11.5722702016313,3.937008,,,1696.8945021353,4.593176,0,10.4388782868,10.54297934,6,0,15.632,1696.8945021353,3.937008,0.8052984,10.4388782868,0,0,-1.565858,188.2, 0.5, 3.9,0,0,1024,1024,1226,1024,0,0,31,0,170.5,-78.9,-13,76,3.991,4.001,3.995,3.978,0,0,12.602,114.71,1696.8945021353,3.937008,6,P-GPS,
129900,2025-09-03 14:09:35,48.1487931455425,11.5722705731588,4.265092,,,1697.2225861353,4.92126,0,10.572178816,10.6766079532,7,0,15.632,1697.2225861353,4.265092,0.8052984,10.572178816,0,0,-1.789552,188.3, 1, 3.8,0,0,1024,1024,1226,1024,0,0,31,0,169.8,-79,-9.8,76,3.991,4.001,3.995,3.978,0,0,12.602,114.71,1697.2225861353,4.265092,6,P-GPS,
130000,2025-09-03 14:09:35,48.1487934276183,11.5722709413802,4.593176,,,1697.5506701353,5.249344,0,10.7085633348,10.8130908972,7,0,15.632,1697.5506701353,4.593176,0.8052984,10.7085633348,0,0,-1.789552,188.3, 0.9, 3.5,0,0,1024,1024,1226,1024,0,0,31,0,169,-79.6,-9,76,3.991,4.001,3.995,3.978,0,0,12.602,114.71,1697.5506701353,4.593176,6,P-GPS,
130100,2025-09-03 14:09:35,48.1487937151201,11.5722713133571,4.92126,,,1697.8787541353,5.577428,0,10.8470475912,10.9516407704,6,0,15.632,1697.8787541353,4.92126,0.8052984,10.8470475912,0,0,-1.789552,188.1, 0.1, 4,0,0,1024,1024,1227,1024,0,0,31,0,170.3,-79.7,-13,76,3.991,4.001,3.995,3.978,0,0,12.602,114.71,1697.8787541353,4.92126,6,P-GPS,
130200,2025-09-03 14:09:35,48.1487939990882,11.5722716800506,5.249344,,,1698.2068381353,5.577428,0,10.9836945772,11.08841899,6,0,15.632,1698.2068381353,5.249344,0.8052984,10.9836945772,0,0,-1.789552,188.1, -0.2, 5,0,0,1024,1024,1228,1024,0,0,31,0,171.3,-79.5,-14.9,76,3.991,4.001,3.995,3.978,0,0,12.602,114.71,1698.2068381353,5.249344,6,P-GPS,
130300,2025-09-03 14:09:35,48.1487942772753,11.5722720207833,5.249344,,,1698.2068381353,5.905512,0,11.1147641352,11.219488548,6,0,15.632,1698.2068381353,5.249344,0.8052984,11.1147641352,0,0,-1.789552,188.2, 0.1, 5,0,0,1024,1024,1232,1024,0,0,32,0,170.4,-79.4,-11.4,76,3.991,4.001,3.995,3.978,0,0,12.602,114.71,1698.2068381353,5.249344,6,P-GPS,
130400,2025-09-03 14:09:35,48.1487945559835,11.5722723281149,5.577428,,,1698.5349221353,6.233596,0,11.2409124332,11.3457352712,6,0,15.632,1698.5349221353,5.577428,0.8052984,11.2409124332,0,0,-1.789552,188.4, 0.3, 4.1,0,0,1024,1024,1241,1024,0,0,33,0,168.9,-79.8,-9.1,76,3.991,4.001,3.995,3.978,0,0,12.602,114.71,1698.5349221353,5.577428,6,P-GPS,
130500,2025-09-03 14:09:35,48.1487948398864,11.5722726231529,5.905512,,,1698.8630061353,6.56168,0,11.3666670304,11.471785144,6,0,15.632,1698.8630061353,5.905512,0.8052984,11.3666670304,0,0,-2.013246,188.6, 0.5, 3.1,0,0,1024,1024,1245,1024,0,0,33,0,168.7,-79.6,-10.4,76,3.991,4.001,3.995,3.978,0,0,12.602,114.71,1698.8630061353,5.905512,6,P-GPS,
130600,2025-09-03 14:09:35,48.1487951276064,11.5722729355367,6.233596,,,1699.1910901353,6.889764,0,11.4961289768,11.6014111324,6,0,15.632,1699.1910901353,6.233596,0.8052984,11.4961289768,0,0,-2.013246,188.5, 0.5, 3.6,0,0,1024,1024,1251,1024,0,0,34,0,170.3,-79.3,-12.4,76,3.991,4.001,3.995,3.978,0,0,12.602,114.71,1699.1910901353,6.233596,6,P-GPS,
130700,2025-09-03 14:09:35,48.1487954180231,11.5722732572096,6.56168,,,1699.5191741353,7.217848,0,11.627789086,11.7331368584,6,0,15.632,1699.5191741353,6.56168,0.8052984,11.627789086,0,0,-2.013246,188.2, 0.2, 4.6,0,0,1024,1024,1257,1024,0,0,35,0,171,-79.3,-13.9,76,3.991,4.001,3.995,3.978,0,0,12.602,114.71,1699.5191741353,6.56168,6,P-GPS,
130800,2025-09-03 14:09:36,48.1487957052611,11.5722735677767,6.889764,,,1699.8472581353,7.217848,0,11.7568573316,11.862369146,6,0,15.698,1699.8472581353,6.889764,0.8052984,11.7568573316,0,0,-2.013246,188.1, 0, 5.2,0,0,1024,1024,1259,1024,0,0,36,0,170.7,-79.1,-12.9,76,3.941,3.958,3.953,3.936,0,0,19.512,114.71,1699.8472581353,6.889764,6,P-GPS,
130900,2025-09-03 14:09:36,48.1487959891738,11.5722738403076,7.217848,,,1700.1753421353,7.545932,0,11.8791998552,11.9853678376,4,0,15.698,1700.1753421353,7.217848,0.8052984,11.8791998552,0,0,-2.23694,188, 0.3, 5.2,0,0,1024,1024,1258,1024,0,0,35,0,170.7,-79.1,-12.9,76,3.941,3.958,3.953,3.936,0,0,19.512,114.71,1700.1753421353,7.217848,6,P-GPS,
131000,2025-09-03 14:09:36,48.1487962759655,11.572274075361,7.545932,,,1700.5034261353,7.874016,0,11.9966867356,12.1046263716,4,0,15.698,1700.5034261353,7.545932,0.8052984,11.9966867356,0,0,-2.23694,188.1, 0.7, 4.6,0,0,1024,1024,1264,1024,0,0,36,0,170,-79.1,-11.4,76,3.941,3.958,3.953,3.936,0,0,19.512,114.71,1700.5034261353,7.545932,6,P-GPS,
131100,2025-09-03 14:09:36,48.1487965669327,11.5722742642704,7.874016,,,1700.8315101353,8.2021,0,12.1084649544,12.2203415984,5,0,15.698,1700.8315101353,7.874016,0.8052984,12.1084649544,0,0,-2.460634,188.4, 1.1, 3.4,0,0,1024,1024,1270,1024,0,0,37,0,168.4,-79.2,-10.2,76,3.941,3.958,3.953,3.936,0,0,19.512,114.71,1700.8315101353,7.874016,6,P-GPS,
131200,2025-09-03 14:09:36,48.1487968740572,11.5722744515812,8.530184,,,1701.4876781353,8.530184,0,12.2247051156,12.3413061692,5,0,15.698,1701.4876781353,8.530184,0.8052984,12.2247051156,0,0,-2.460634,188.6, 1.1, 3.2,0,0,1024,1024,1274,1024,0,0,38,0,168.1,-79.4,-10,76,3.941,3.958,3.953,3.936,0,0,19.512,114.71,1701.4876781353,8.530184,6,P-GPS,
131300,2025-09-03 14:09:36,48.1487971954143,11.5722746496642,8.858268,,,1701.8157621353,8.858268,0,12.3467523636,12.4680778268,6,0,15.698,1701.8157621353,8.858268,0.8052984,12.3467523636,0,0,-2.460634,188.6, 0.4, 3.7,0,0,1024,1024,1276,1024,0,0,38,0,169.1,-79.9,-10.8,76,3.941,3.958,3.953,3.936,0,0,19.512,114.71,1701.8157621353,8.858268,6,P-GPS,
131400,2025-09-03 14:09:36,48.1487975246662,11.5722748418411,9.186352,,,1702.1438461353,9.514436,0,12.4702759896,12.5969820304,6,0,15.698,1702.1438461353,9.186352,0.8052984,12.4702759896,0,0,-2.460634,188.7, 0.1, 4.1,0,0,1024,1024,1281,1024,0,0,39,0,169.6,-79.9,-11.4,76,3.941,3.958,3.953,3.936,0,0,19.512,114.71,1702.1438461353,9.186352,6,P-GPS,
131500,2025-09-03 14:09:36,48.148797860041,11.5722750303588,9.514436,,,1702.4719301353,9.84252,0,12.59514476,12.727690696,5,0,15.698,1702.4719301353,9.514436,0.8052984,12.59514476,0,0,-2.460634,188.7, 0, 4.1,0,0,1024,1024,1298,1024,0,0,42,0,169.2,-80.4,-10.6,76,3.941,3.958,3.953,3.936,0,0,19.512,114.71,1702.4719301353,9.514436,6,P-GPS,
131600,2025-09-03 14:09:36,48.1487981964807,11.5722752017234,9.84252,,,1702.8000141353,10.170604,0,12.7178809844,12.8573166844,5,0,15.698,1702.8000141353,9.84252,0.8052984,12.7178809844,0,0,-2.684328,188.7, -0.1, 3.9,0,0,1024,1024,1306,1024,0,0,43,0,169.1,-80.2,-11.1,76,3.941,3.958,3.953,3.936,0,0,19.512,114.71,1702.8000141353,9.84252,6,P-GPS,
131700,2025-09-03 14:09:37,48.1487985352101,11.5722753507222,10.170604,,,1703.1280981353,10.498688,0,12.8381237704,12.9861224628,6,0,15.698,1703.1280981353,10.170604,0.8052984,12.8381237704,0,0,-2.684328,188.7, 0, 3.6,0,0,1024,1024,1314,1024,0,0,44,0,168.6,-80.3,-12,76,3.941,3.958,3.953,3.936,0,0,19.512,114.71,1703.1280981353,10.170604,6,P-GPS,
131800,2025-09-03 14:09:37,48.1487988687415,11.5722754738564,10.826772,,,1703.7842661353,11.154856,0,12.953248446,13.1114505508,6,0,15.62,1703.7842661353,10.826772,0.8052984,12.953248446,0,0,-2.908022,188.6, 0, 3.3,0,0,1024,1024,1319,1024,0,0,45,0,168.2,-80.5,-12.1,76,3.927,3.946,3.941,3.923,0,0,19.226,116.51,1703.7842661353,10.826772,6,P-GPS,
131900,2025-09-03 14:09:37,48.1487992036115,11.5722755830857,11.154856,,,1704.1123501353,11.48294,0,13.0668967436,13.2364833632,6,0,15.62,1704.1123501353,11.154856,0.8052984,13.0668967436,0,0,-3.131716,188.5, -0.1, 2.9,0,0,1024,1024,1322,1024,0,0,45,0,167.8,-80.5,-11.9,76,3.927,3.946,3.941,3.923,0,0,19.226,116.51,1704.1123501353,11.154856,6,P-GPS,
132000,2025-09-03 14:09:37,48.1487995330489,11.5722756795208,11.811024,,,1704.7685181353,11.811024,0.223694,13.1772970096,13.3589571204,6,0,15.62,1704.7685181353,11.811024,0.8052984,13.1772970096,0,-0.223694,-3.131716,188.4, 0, 2.7,0,0,1024,1024,1322,1024,0,0,45,0,167.6,-80.2,-11.9,76,3.927,3.946,3.941,3.923,0,0,19.226,116.51,1704.7685181353,11.811024,6,P-GPS,
132100,2025-09-03 14:09:37,48.1487998583762,11.5722757690677,12.139108,,,1705.0966021353,12.467192,0.223694,13.2857287716,13.4796264156,6,0,15.62,1705.0966021353,12.139108,0.8052984,13.2857287716,0,-0.223694,-3.35541,188.3, 0.3, 2.6,0,0,1024,1024,1324,1024,0,0,45,0,167.5,-80,-11.8,76,3.927,3.946,3.941,3.923,0,0,19.226,116.51,1705.0966021353,12.139108,6,P-GPS,
132200,2025-09-03 14:09:37,48.148800183925,11.5722758573757,12.467192,,,1705.4246861353,12.795276,0.223694,13.3942589588,13.6003285192,6,0,15.62,1705.4246861353,12.467192,0.8052984,13.3942589588,0,-0.223694,-3.35541,188.4, 0.4, 2.6,0,0,1024,1024,1326,1024,0,0,46,0,167.5,-80,-11.8,76,3.927,3.946,3.941,3.923,0,0,19.226,116.51,1705.4246861353,12.467192,6,P-GPS,
132300,2025-09-03 14:09:37,48.1488005143004,11.5722759523792,13.12336,,,1706.0808541353,13.12336,0,13.5053810096,13.7230647436,6,0,15.62,1706.0808541353,13.12336,0.8052984,13.5053810096,0,0,-3.35541,188.5, 0.2, 2.5,0,0,1024,1024,1326,1024,0,0,46,0,167.5,-80.2,-12,76,3.927,3.946,3.941,3.923,0,0,19.226,116.51,1706.0808541353,13.12336,6,P-GPS,
132400,2025-09-03 14:09:37,48.1488008434578,11.5722760409824,13.779528,,,1706.7370221353,13.779528,0.223694,13.6154203832,13.8450791832,6,0,15.62,1706.7370221353,13.779528,0.8052984,13.6154203832,0,-0.223694,-3.579104,188.4, 0, 2.9,0,0,1024,1024,1326,1024,0,0,46,0,168.1,-80.1,-12.1,76,3.927,3.946,3.941,3.923,0,0,19.226,116.51,1706.7370221353,13.779528,6,P-GPS,
132500,2025-09-03 14:09:37,48.1488011680556,11.572276112028,14.107612,,,1707.0651061353,14.107612,0.223694,13.7218180244,13.9647642264,6,0,15.62,1707.0651061353,14.107612,0.8052984,13.7218180244,0,-0.223694,-3.579104,188.4, 0, 2.7,0,0,1024,1024,1327,1024,0,0,46,0,167.2,-80.3,-12,76,3.927,3.946,3.941,3.923,0,0,19.226,116.51,1707.0651061353,14.107612,6,P-GPS,
132600,2025-09-03 14:09:37,48.1488014864001,11.572276162332,14.76378,,,1707.7212741353,14.76378,0.223694,13.8236881064,14.0815621304,6,0,15.62,1707.7212741353,14.76378,0.8052984,13.8236881064,0,-0.223694,-3.579104,188.3, 0.1, 1.8,0,0,1024,1024,1328,1024,0,0,46,0,166.5,-80.2,-12.2,76,3.927,3.946,3.941,3.923,0,0,19.226,116.51,1707.7212741353,14.76378,6,P-GPS,
132700,2025-09-03 14:09:38,48.1488018014942,11.5722762040722,15.419948,,,1708.3774421353,15.091864,0.223694,13.9235896844,14.1969820816,6,0,15.62,1708.3774421353,15.419948,0.8052984,13.9235896844,0,-0.223694,-3.579104,188.3, 0.4, 1.2,0,0,1024,1024,1328,1024,0,0,46,0,165.5,-80.2,-12.2,76,3.927,3.946,3.941,3.923,0,0,19.226,116.51,1708.3774421353,15.419948,6,P-GPS,
132800,2025-09-03 14:09:38,48.1488021159533,11.5722762604811,15.748032,,,1708.7055261353,15.748032,0.223694,14.025591,14.3125332664,6,0,15.608,1708.7055261353,15.748032,0.8052984,14.025591,0,-0.223694,-3.579104,188.3, 0.4, 1.1,0,0,1024,1024,1329,1024,0,0,46,0,165.6,-80.2,-12,76,3.927,3.946,3.941,3.923,0,0,19.226,116.51,1708.7055261353,15.748032,6,P-GPS,
132900,2025-09-03 14:09:38,48.1488024299889,11.572276332265,16.4042,,,1709.3616941353,16.4042,0.223694,14.1298232868,14.4284125352,6,0,15.608,1709.3616941353,16.4042,0.8052984,14.1298232868,0,-0.223694,-3.579104,188.3, 0.3, 1.4,0,0,1024,1024,1330,1024,0,0,46,0,165.7,-80.2,-12.3,76,3.927,3.946,3.941,3.923,0,0,19.226,116.51,1709.3616941353,16.4042,6,P-GPS,
133000,2025-09-03 14:09:38,48.1488027444122,11.5722764154565,17.060368,,,1710.0178621353,16.732284,0.223694,14.235892844,14.5449151636,6,0,15.608,1710.0178621353,17.060368,0.8052984,14.235892844,0,-0.223694,-3.579104,188.3, 0.3, 1.2,0,0,1024,1024,1330,1024,0,0,46,0,165.1,-80.5,-11.9,76,3.927,3.946,3.941,3.923,0,0,19.226,116.51,1710.0178621353,17.060368,6,P-GPS,
133100,2025-09-03 14:09:38,48.1488030585032,11.572276522041,17.388452,,,1710.3459461353,17.388452,0,14.3452104328,14.662402044,6,0,15.608,1710.3459461353,17.388452,0.8052984,14.3452104328,0,0,-3.579104,188.4, 0, 1,0,0,1024,1024,1334,1024,0,0,47,0,165,-80.4,-12.1,76,3.927,3.946,3.941,3.923,0,0,19.226,116.51,1710.3459461353,17.388452,6,P-GPS,
133200,2025-09-03 14:09:38,48.1488033642826,11.5722766306733,18.04462,,,1711.0021141353,17.716536,0,14.452428284,14.777067402,6,0,15.608,1711.0021141353,18.04462,0.8052984,14.452428284,0,0,-3.579104,188.4, 0.2, 1.2,0,0,1024,1024,1339,1024,0,0,48,0,166,-79.7,-12.5,76,3.927,3.946,3.941,3.923,0,0,19.226,116.51,1711.0021141353,18.04462,6,P-GPS,
133300,2025-09-03 14:09:38,48.1488036679418,11.5722767461746,18.700788,,,1711.6582821353,18.372704,0,14.560039836,14.8913718676,6,0,15.608,1711.6582821353,18.700788,0.8052984,14.560039836,0,0,-3.579104,188.3, 0.5, 1.4,0,0,1024,1024,1347,1024,0,0,49,0,164.8,-80.2,-12.2,76,3.927,3.946,3.941,3.923,0,0,19.226,116.51,1711.6582821353,18.700788,6,P-GPS,
133400,2025-09-03 14:09:38,48.1488039694645,11.5722768657395,19.028872,,,1711.9863661353,19.028872,0,14.6676841964,15.0051513988,6,0,15.608,1711.9863661353,19.028872,0.8052984,14.6676841964,0,0,-3.579104,188.2, 0.5, 0.9,0,0,1024,1024,1360,1024,0,0,51,0,164.8,-80.2,-12.2,76,3.927,3.946,3.941,3.923,0,0,19.226,116.51,1711.9863661353,19.028872,6,P-GPS,
133500,2025-09-03 14:09:38,48.1488042694369,11.5722769883152,19.68504,,,1712.6425341353,19.68504,0,14.7753285568,15.118602846,6,0,15.608,1712.6425341353,19.68504,0.8052984,14.7753285568,0,0,-3.802798,188.1, 0.7, 0.5,0,0,1024,1024,1366,1024,0,0,52,0,164.5,-80,-11.3,76,3.927,3.946,3.941,3.923,0,0,19.226,116.51,1712.6425341353,19.68504,6,P-GPS,
133600,2025-09-03 14:09:38,48.148804571598,11.5722771388932,20.341208,,,1713.2987021353,20.013124,0,14.8875004764,15.2347773904,6,0,15.608,1713.2987021353,20.341208,0.8052984,14.8875004764,0,0,-3.802798,188, 0.7, 0.6,0,0,1024,1024,1371,1024,0,0,53,0,164.6,-80.2,-11.6,76,3.927,3.946,3.941,3.923,0,0,19.226,116.51,1713.2987021353,20.341208,6,P-GPS,
133700,2025-09-03 14:09:38,48.14880487542,11.572277311041,20.997376,,,1713.9548701353,20.669292,0,15.0030844696,15.3532813312,6,0,15.608,1713.9548701353,20.997376,0.8052984,15.0030844696,0,0,-4.026492,188, 0.6, 1,0,0,1024,1024,1372,1024,0,0,53,0,164.9,-80.2,-12.1,76,3.927,3.946,3.941,3.923,0,0,19.226,116.51,1713.9548701353,20.997376,6,P-GPS,
133800,2025-09-03 14:09:39,48.1488051820495,11.5722775012086,21.653544,,,1714.6110381353,21.32546,0,15.1220149196,15.4743443272,6,0,15.56,1714.6110381353,21.653544,0.8052984,15.1220149196,0,0,-4.250186,188, 0.5, 1.1,0,0,1024,1024,1372,1024,0,0,53,0,165.1,-80,-12.5,76,3.913,3.933,3.928,3.907,0,0,19.796,116.51,1714.6110381353,21.653544,6,P-GPS,
133900,2025-09-03 14:09:39,48.1488054904638,11.5722777074893,22.309712,,,1715.2672061353,21.981628,0,15.2436684668,15.5975726776,6,0,15.56,1715.2672061353,22.309712,0.8052984,15.2436684668,0,0,-4.250186,188.1, 0.5, 1.3,0,0,1024,1024,1373,1024,0,0,53,0,165,-80,-12,76,3.913,3.933,3.928,3.907,0,0,19.796,116.51,1715.2672061353,22.309712,6,P-GPS,
134000,2025-09-03 14:09:39,48.148805801438,11.5722779191946,22.96588,,,1715.9233741353,22.637796,0,15.3668312004,15.7221789808,6,0,15.56,1715.9233741353,22.96588,0.8052984,15.3668312004,0,0,-4.47388,188.2, 0.4, 1.5,0,0,1024,1024,1373,1024,0,0,53,0,165.2,-80.1,-11.7,76,3.913,3.933,3.928,3.907,0,0,19.796,116.51,1715.9233741353,22.96588,6,P-GPS,
134100,2025-09-03 14:09:39,48.1488061104645,11.5722781428661,23.622048,,,1716.5795421353,23.293964,0,15.4910109944,15.8474086436,6,0,15.56,1716.5795421353,23.622048,0.8052984,15.4910109944,0,0,-4.47388,188.2, 0.3, 1.8,0,0,1024,1024,1371,1024,0,0,53,0,165.2,-80.1,-11.7,76,3.913,3.933,3.928,3.907,0,0,19.796,116.51,1716.5795421353,23.622048,6,P-GPS,
134200,2025-09-03 14:09:39,48.1488064172113,11.5722783711917,24.278216,,,1717.2357101353,23.950132,0,15.61515798,15.9723430308,6,0,15.56,1717.2357101353,24.278216,0.8052984,15.61515798,0,0,-4.47388,188.2, 0.4, 1.7,0,0,1024,1024,1371,1024,0,0,53,0,164.9,-79.9,-11.9,76,3.913,3.933,3.928,3.907,0,0,19.796,116.51,1717.2357101353,24.278216,6,P-GPS,
134300,2025-09-03 14:09:39,48.1488067222774,11.5722786058021,24.934384,,,1717.8918781353,24.934384,0,15.7396002412,16.09744146,7,0,15.56,1717.8918781353,24.934384,0.8052984,15.7396002412,0,0,-4.47388,188.2, 0.6, 1.7,0,0,1024,1024,1371,1024,0,0,53,0,165,-79.7,-12.2,76,3.913,3.933,3.928,3.907,0,0,19.796,116.51,1717.8918781353,24.934384,6,P-GPS,
134400,2025-09-03 14:09:39,48.1488070278712,11.5722788447586,25.590552,,,1718.5480461353,25.590552,0,15.8647970956,16.2231960572,7,0,15.56,1718.5480461353,25.590552,0.8052984,15.8647970956,0,0,-4.47388,188.2, 0.8, 1.7,0,0,1024,1024,1371,1024,0,0,53,0,164.8,-79.5,-11.6,76,3.913,3.933,3.928,3.907,0,0,19.796,116.51,1718.5480461353,25.590552,6,P-GPS,
134500,2025-09-03 14:09:39,48.1488073375036,11.572279083927,26.24672,,,1719.2042141353,26.24672,0,15.9912734776,16.3502957988,7,0,15.56,1719.2042141353,26.24672,0.8052984,15.9912734776,0,0,-4.47388,188.2, 0.9, 1.7,0,0,1024,1024,1371,1024,0,0,53,0,164.7,-79.7,-11.4,76,3.913,3.933,3.928,3.907,0,0,19.796,116.51,1719.2042141353,26.24672,6,P-GPS,
134600,2025-09-03 14:09:39,48.1488076526922,11.5722793204183,26.902888,,,1719.8603821353,26.902888,0,16.1191278124,16.4789047268,7,0,15.56,1719.8603821353,26.902888,0.8052984,16.1191278124,0,0,-4.47388,188.2, 0.8, 1.6,0,0,1024,1024,1342,1024,0,0,48,0,164.7,-79.7,-11.4,76,3.913,3.933,3.928,3.907,0,0,19.796,116.51,1719.8603821353,26.902888,6,P-GPS,
134700,2025-09-03 14:09:39,48.1488079741535,11.5722795588998,27.559056,,,1720.5165501353,27.559056,0,16.2491475016,16.6097774344,7,0,15.56,1720.5165501353,27.559056,0.8052984,16.2491475016,0,0,-4.47388,188.2, 0.9, 1.5,0,0,1024,1024,1338,1024,0,0,48,0,164.7,-79.4,-12.1,76,3.913,3.933,3.928,3.907,0,0,19.796,116.51,1720.5165501353,27.559056,6,P-GPS,
134800,2025-09-03 14:09:40,48.1488083019007,11.5722798024591,28.543308,,,1721.5008021353,28.215224,0,16.3817918628,16.7432420056,7,0,15.524,1721.5008021353,28.543308,0.8052984,16.3817918628,0,0,-4.47388,188.3, 0.9, 1.5,0,0,1024,1024,1338,1024,0,0,48,0,164.5,-79.6,-10.8,76,3.908,3.929,3.924,3.904,0,0,19.482,116.51,1721.5008021353,28.543308,6,P-GPS,
134900,2025-09-03 14:09:40,48.1488086376403,11.5722800557248,29.199476,,,1722.1569701353,28.871392,0,16.5181763816,16.8803811176,7,0,15.524,1722.1569701353,29.199476,0.8052984,16.5181763816,0,0,-4.250186,188.3, 0.8, 1.8,0,0,1024,1024,1343,1024,0,0,48,0,165.2,-79.5,-10.5,76,3.908,3.929,3.924,3.904,0,0,19.482,116.51,1722.1569701353,29.199476,6,P-GPS,
135000,2025-09-03 14:09:40,48.1488089795093,11.5722803118858,29.855644,,,1722.8131381353,29.52756,0,16.6568574884,17.0198168176,7,0,15.524,1722.8131381353,29.855644,0.8052984,16.6568574884,0,0,-4.026492,188.3, 0.8, 1.9,0,0,1024,1024,1347,1024,0,0,49,0,165.6,-79.5,-11.4,76,3.908,3.929,3.924,3.904,0,0,19.482,116.51,1722.8131381353,29.855644,6,P-GPS,
135100,2025-09-03 14:09:40,48.1488093265372,11.5722805704606,30.511812,,,1723.4693061353,30.183728,0,16.7974414824,17.1612210216,7,0,15.524,1723.4693061353,30.511812,0.8052984,16.7974414824,0,0,-4.026492,188.3, 0.8, 2.1,0,0,1024,1024,1367,1024,0,0,52,0,165.4,-79.5,-11.5,76,3.908,3.929,3.924,3.904,0,0,19.482,116.51,1723.4693061353,30.511812,6,P-GPS,
135200,2025-09-03 14:09:40,48.1488096791605,11.5722808217299,30.839896,,,1723.7973901353,30.839896,0,16.9387800696,17.3036750944,7,0,15.524,1723.7973901353,30.839896,0.8052984,16.9387800696,0,0,-4.026492,188.3, 0.7, 2.6,0,0,1024,1024,1369,1024,0,0,52,0,165.9,-79.3,-10.7,76,3.908,3.929,3.924,3.904,0,0,19.482,116.51,1723.7973901353,30.839896,6,P-GPS,
135300,2025-09-03 14:09:40,48.148810038747,11.5722810505241,31.496064,,,1724.4535581353,31.16798,0,17.079396872,17.446194784,8,0,15.524,1724.4535581353,31.496064,0.8052984,17.079396872,0,0,-4.026492,188.3, 1, 2.4,0,0,1024,1024,1369,1024,0,0,52,0,164.8,-79.2,-10.4,76,3.908,3.929,3.924,3.904,0,0,19.482,116.51,1724.4535581353,31.496064,6,P-GPS,
135400,2025-09-03 14:09:40,48.1488104089704,11.5722812557328,32.152232,,,1725.1097261353,31.824148,0,17.2202105248,17.59022366,8,0,15.524,1725.1097261353,32.152232,0.8052984,17.2202105248,0,0,-4.026492,188.2, 1.2, 1.9,0,0,1024,1024,1371,1024,0,0,53,0,164.2,-79.2,-11,76,3.908,3.929,3.924,3.904,0,0,19.482,116.51,1725.1097261353,32.152232,6,P-GPS,
135500,2025-09-03 14:09:40,48.1488107911206,11.5722814471522,32.8084,,,1725.7658941353,32.480316,0.223694,17.3629926816,17.7372381004,8,0,15.524,1725.7658941353,32.8084,0.8052984,17.3629926816,-0.223694,0,-4.250186,188.2, 1.2, 1.3,0,0,1024,1024,1371,1024,0,0,53,0,164.7,-78.8,-11.4,76,3.908,3.929,3.924,3.904,0,0,19.482,116.51,1725.7658941353,32.8084,6,P-GPS,
135600,2025-09-03 14:09:40,48.1487930112024,11.5722614335595,33.464568,,,1726.4220621353,33.136484,0,9.301345442,25.8499352104,8,0,15.524,1726.4220621353,33.464568,0.8052984,17.3629926816,0,0,-4.250186,188.3, 1.7, 1.7,0,0,1024,1024,1370,1024,0,0,52,0,164.6,-79.1,-11.2,76,3.908,3.929,3.924,3.904,0,0,19.482,116.51,1726.4220621353,33.464568,6,P-GPS,
135700,2025-09-03 14:09:41,48.1487521243991,11.5722156016632,33.792652,,,1726.7501461353,33.792652,0,9.5373034548,44.478019796,8,0,15.524,1726.7501461353,33.792652,0.8052984,17.3629926816,0,0,-4.250186,188.3, 1.8, 2.1,0,0,1024,1024,1370,1024,0,0,52,0,164.8,-78.9,-10.7,76,3.908,3.929,3.924,3.904,0,0,19.482,116.51,1726.7501461353,33.792652,6,P-GPS,
135800,2025-09-03 14:09:41,48.1487304214428,11.5721909269923,34.44882,,,1727.4063141353,34.44882,0,19.427658102,54.416668408,8,0,15.531,1727.4063141353,34.44882,0.8052984,19.427658102,0,0,-4.250186,188.4, 1.6, 2.4,0,0,1024,1024,1370,1024,0,0,52,0,165,-78.8,-10.8,76,3.916,3.935,3.929,3.907,0,0,19.07,116.51,1727.4063141353,34.44882,6,P-GPS,
135900,2025-09-03 14:09:41,48.1487309938262,11.5721907032535,35.104988,,,1728.0624821353,35.104988,0,19.3070216152,54.63254768,8,0,15.531,1728.0624821353,35.104988,0.8052984,19.427658102,0,0,-4.250186,188.4, 1.6, 2.3,0,0,1024,1024,1370,1024,0,0,52,0,165,-78.8,-10.8,76,3.916,3.935,3.929,3.907,0,0,19.07,116.51,1728.0624821353,35.104988,6,P-GPS,
136000,2025-09-03 14:09:41,48.14873139265,11.5721905855406,35.761156,,,1728.7186501353,35.104988,0,19.2177499588,54.780841648,8,0,15.531,1728.7186501353,35.761156,0.8052984,19.427658102,0,0,-4.250186,188.3, 1.6, 2.4,0,0,1024,1024,1369,1024,0,0,52,0,164.6,-78.8,-10.9,76,3.916,3.935,3.929,3.907,0,0,19.07,116.51,1728.7186501353,35.761156,6,P-GPS,
136100,2025-09-03 14:09:41,48.1487319454693,11.572190543083,36.417324,,,1729.3748181353,35.104988,0,19.0753615028,54.982613308,8,0,15.531,1729.3748181353,36.417324,0.8052984,19.427658102,0,0,-4.250186,188.3, 1.3, 2.4,0,0,1024,1024,1368,1024,0,0,52,0,164.3,-79.2,-10.8,76,3.916,3.935,3.929,3.907,0,0,19.07,116.51,1729.3748181353,36.417324,6,P-GPS,
136200,2025-09-03 14:09:41,48.1487323826674,11.5721903145503,37.073492,,,1730.0309861353,35.104988,0,18.9957683244,55.151576568,8,0,15.531,1730.0309861353,37.073492,0.8052984,19.427658102,0,0,-4.250186,188.4, 1.2, 2.3,0,0,1024,1024,1360,1024,0,0,51,0,164.5,-79.3,-10.6,76,3.916,3.935,3.929,3.907,0,0,19.07,116.51,1730.0309861353,37.073492,6,P-GPS,
136300,2025-09-03 14:09:41,48.1487331123439,11.5721898204696,37.401576,,,1730.3590701353,35.104988,0,18.8845478484,55.443899412,8,0,15.531,1730.3590701353,37.401576,0.8052984,19.427658102,0,0,-4.250186,188.4, 0.8, 2.2,0,0,1024,1024,1360,1024,0,0,51,0,164.3,-79.7,-11.2,76,3.916,3.935,3.929,3.907,0,0,19.07,116.51,1730.3590701353,37.401576,6,P-GPS,
136400,2025-09-03 14:09:41,48.1487337742412,11.5721896000192,38.057744,,,1731.0152381353,35.104988,0,18.748196138,55.691274748,8,0,15.531,1731.0152381353,38.057744,0.8052984,19.427658102,0,0,-4.026492,188.3, 0.6, 2.1,0,0,1024,1024,1353,1024,0,0,50,0,163.9,-80.1,-10.6,76,3.916,3.935,3.929,3.907,0,0,19.07,116.51,1731.0152381353,38.057744,6,P-GPS,
136500,2025-09-03 14:09:41,48.1487350920302,11.5721898638885,38.713912,,,1731.6714061353,35.104988,0,18.3617459944,56.1761829,8,2,15.531,1731.6714061353,38.713912,0.8052984,19.427658102,0,0,-4.026492,188.2, 0.3, 1.6,0,0,1024,1024,1348,1024,0,0,49,0,163.1,-80.3,-10.3,76,3.916,3.935,3.929,3.907,0,0,19.07,116.51,1731.6714061353,38.713912,6,P-GPS,
136600,2025-09-03 14:09:41,48.1487356323878,11.5721899110132,39.37008,,,1732.3275741353,35.104988,0.223694,18.2152564884,56.373689468,8,2,15.531,1732.3275741353,39.37008,0.8052984,19.427658102,0.223694,0,-4.026492,188.2, 0.8, 0.9,0,0,1024,1024,1345,1024,0,0,49,0,163,-80.1,-10.8,76,3.916,3.935,3.929,3.907,0,0,19.07,116.51,1732.3275741353,39.37008,6,P-GPS,
136700,2025-09-03 14:09:42,48.1487361245631,11.5721899000453,39.698164,,,1732.6556581353,35.104988,0.223694,18.0921593716,56.5534795,8,2,15.531,1732.6556581353,39.698164,0.8052984,19.427658102,0.223694,0,-3.802798,188.1, 0.5, 0.8,0,0,1024,1024,1342,1024,0,0,48,0,162.9,-80.7,-10.6,76,3.916,3.935,3.929,3.907,0,0,19.07,116.51,1732.6556581353,39.698164,6,P-GPS,
136800,2025-09-03 14:09:42,48.1487365742717,11.5721898598089,40.354332,,,1733.3118261353,35.104988,0.223694,17.9858273472,56.717849584,9,2,15.541,1733.3118261353,40.354332,0.8052984,19.427658102,0.223694,0,-3.802798,188.1, -0.3, 1.2,0,0,1024,1024,1335,1024,0,0,47,0,162.9,-81.4,-10.1,76,3.916,3.935,3.929,3.907,0,0,19.708,116.51,1733.3118261353,40.354332,6,P-GPS,
136900,2025-09-03 14:09:42,48.1487367834901,11.5721900561939,40.682416,,,1733.6399101353,35.104988,0,17.8985898116,56.8077446,9,2,15.541,1733.6399101353,40.682416,0.8052984,19.427658102,0,0,-3.802798,188, -0.7, 1.2,0,0,1024,1024,1333,1024,0,0,47,0,162.4,-81.2,-10.4,76,3.916,3.935,3.929,3.907,0,0,19.708,116.51,1733.6399101353,40.682416,6,P-GPS,
137000,2025-09-03 14:09:42,48.1487373049008,11.5721897691578,41.338584,,,1734.2960781353,35.104988,0,17.8194559508,57.010500512,9,2,15.541,1734.2960781353,41.338584,0.8052984,19.427658102,0,0,-3.579104,188, -0.4, 0.8,0,0,1024,1024,1330,1024,0,0,46,0,162.4,-81.1,-10.5,76,3.916,3.935,3.929,3.907,0,0,19.708,116.51,1734.2960781353,41.338584,6,P-GPS,
137100,2025-09-03 14:09:42,48.1487380029333,11.5721891890963,41.666668,,,1734.6241621353,35.104988,0,17.7520018804,57.30151102,9,2,15.541,1734.6241621353,41.666668,0.8052984,19.427658102,0,0,-3.579104,188, -0.3, 0.8,0,0,1024,1024,1324,1024,0,0,45,0,162.4,-81.1,-10.5,76,3.916,3.935,3.929,3.907,0,0,19.708,116.51,1734.6241621353,41.666668,6,P-GPS,
137200,2025-09-03 14:09:42,48.1487385389894,11.5721886924157,42.322836,,,1735.2803301353,35.104988,0,17.7126318004,57.531497904,9,2,15.541,1735.2803301353,42.322836,0.8052984,19.427658102,0,0,-3.579104,188.2, -0.1, 0.6,0,0,1024,1024,1320,1024,0,0,45,0,162.2,-81,-9.7,76,3.916,3.935,3.929,3.907,0,0,19.708,116.51,1735.2803301353,42.322836,6,P-GPS,
137300,2025-09-03 14:09:42,48.1487389052607,11.572188290432,42.65092,,,1735.6084141353,35.104988,0,17.698983506,57.697180324,9,3,15.541,1735.6084141353,42.65092,0.8052984,19.427658102,0,0,-3.579104,188.3, -0.1, 0.4,0,0,1024,1024,1317,1024,0,0,44,0,162,-81,-10.2,76,3.916,3.935,3.929,3.907,0,0,19.708,116.51,1735.6084141353,42.65092,6,P-GPS,
137400,2025-09-03 14:09:42,48.1487393340422,11.5721870627331,42.979004,,,1735.9364981353,35.104988,0,17.8264113316,58.034450676,8,3,15.541,1735.9364981353,42.979004,0.8052984,19.427658102,0,0,-3.35541,188.4, -0.1, 0.2,0,0,1024,1024,1316,1024,0,0,44,0,161.9,-81.1,-10.5,76,3.916,3.935,3.929,3.907,0,0,19.708,116.51,1735.9364981353,42.979004,6,P-GPS,
137500,2025-09-03 14:09:42,48.1487395900165,11.5721867766328,43.635172,,,1736.5926661353,35.104988,0,17.8207682868,58.150920496,8,3,15.541,1736.5926661353,43.635172,0.8052984,19.427658102,0,0,-3.35541,188.4, 0, 0.1,0,0,1024,1024,1313,1024,0,0,44,0,161.5,-80.9,-10.2,76,3.916,3.935,3.929,3.907,0,0,19.708,116.51,1736.5926661353,43.635172,6,P-GPS,
137600,2025-09-03 14:09:42,48.1487396728188,11.5721866196777,43.635172,,,1736.5926661353,35.104988,0,17.8312669748,58.199805012,8,3,15.541,1736.5926661353,43.635172,0.8052984,19.427658102,0,0,-3.131716,188.3, 0.1, 0.3,0,0,1024,1024,1300,1024,0,0,42,0,161.9,-80.7,-10.4,76,3.916,3.935,3.929,3.907,0,0,19.708,116.51,1736.5926661353,43.635172,6,P-GPS,
137700,2025-09-03 14:09:42,48.1487394602889,11.5721866442608,43.963256,,,1736.9207501353,35.104988,0,17.8756895484,58.27756092,8,3,15.541,1736.9207501353,43.963256,0.8052984,19.427658102,0,0,-3.131716,188.3, 0.1, 0.6,0,0,1024,1024,1288,1024,0,0,40,0,162.2,-80.7,-10.2,76,3.916,3.935,3.929,3.907,0,0,19.708,116.51,1736.9207501353,43.963256,6,P-GPS,
137800,2025-09-03 14:09:43,48.1487380201907,11.5721872977993,44.29134,,,1737.2488341353,35.104988,0,18.0929139648,58.826445452,8,3,15.524,1737.2488341353,44.29134,0.8052984,19.427658102,0,0,-2.908022,188.3, 0.1, 0.5,0,0,1024,1024,1281,1024,0,0,39,0,162.4,-80.8,-9.8,76,3.896,3.917,3.913,3.893,0,0,19.708,116.51,1737.2488341353,44.29134,6,P-GPS,
137900,2025-09-03 14:09:43,48.1487377489881,11.5721876145436,44.619424,,,1737.5769181353,35.104988,0,18.0999677708,58.952101624,8,3,15.524,1737.5769181353,44.619424,0.8052984,19.427658102,0,0,-2.908022,188.2, 0.1, 1,0,0,1024,1024,1279,1024,0,0,39,0,163.1,-80.8,-10,76,3.896,3.917,3.913,3.893,0,0,19.708,116.51,1737.5769181353,44.619424,6,P-GPS,
138000,2025-09-03 14:09:43,48.1487374774605,11.572187993688,44.947508,,,1737.9050021353,35.104988,0,18.0966541224,59.087272232,8,3,15.524,1737.9050021353,44.947508,0.8052984,19.427658102,0,0,-2.684328,188.2, -0.1, 1.5,0,0,1024,1024,1278,1024,0,0,38,0,163.1,-81.2,-9.4,76,3.896,3.917,3.913,3.893,0,0,19.708,116.51,1737.9050021353,44.947508,6,P-GPS,
138100,2025-09-03 14:09:43,48.1487372080499,11.572188468794,45.275592,,,1738.2330861353,35.104988,0,18.0765097648,59.239175124,8,3,15.524,1738.2330861353,45.275592,0.8052984,19.427658102,0,0,-2.684328,188.3, -0.3, 1.7,0,0,1024,1024,1278,1024,0,0,38,0,163.9,-80.6,-9.9,76,3.896,3.917,3.913,3.893,0,0,19.708,116.51,1738.2330861353,45.275592,6,P-GPS,
138200,2025-09-03 14:09:43,48.1487358695048,11.5721898394283,45.603676,,,1738.5611701353,35.104988,0,18.1674218412,59.830710576,8,3,15.524,1738.5611701353,45.603676,0.8052984,19.427658102,0,0,-2.460634,188.3, 0, 2,0,0,1024,1024,1278,1024,0,0,38,0,163.5,-80.9,-8.7,76,3.896,3.917,3.913,3.893,0,0,19.708,116.51,1738.5611701353,45.603676,6,P-GPS,
138300,2025-09-03 14:09:43,48.1487357340858,11.5721898579617,45.93176,,,1738.8892541353,35.104988,0,18.1985898212,59.88025126,8,3,15.524,1738.8892541353,45.93176,0.8052984,19.427658102,0,0,-2.460634,188.1, -0.4, 2.3,0,0,1024,1024,1278,1024,0,0,38,0,163.5,-80.9,-8.7,76,3.896,3.917,3.913,3.893,0,0,19.708,116.51,1738.8892541353,45.93176,6,P-GPS,
138400,2025-09-03 14:09:43,48.1487356254385,11.572189847777,45.93176,,,1738.8892541353,35.104988,0,18.2280517644,59.919949424,8,3,15.524,1738.8892541353,45.93176,0.8052984,19.427658102,0,0,-2.460634,188, -1.4, 2.3,0,0,1024,1024,1276,1024,0,0,38,0,163.7,-82.1,-8.7,76,3.896,3.917,3.913,3.893,0,0,19.708,116.51,1738.8892541353,45.93176,6,P-GPS,
138500,2025-09-03 14:09:43,48.1487355329184,11.5721898465813,46.259844,,,1739.2173381353,35.104988,0,18.2518378544,59.953742076,8,3,15.524,1739.2173381353,46.259844,0.8052984,19.427658102,0,0,-2.23694,188, -1.3, 2.6,0,0,1024,1024,1276,1024,0,0,38,0,164.1,-81.8,-9.6,76,3.896,3.917,3.913,3.893,0,0,19.708,116.51,1739.2173381353,46.259844,6,P-GPS,
138600,2025-09-03 14:09:43,48.1487356272558,11.5721898140789,46.259844,,,1739.2173381353,35.104988,0,18.2334651504,59.988847064,8,3,15.524,1739.2173381353,46.259844,0.8052984,19.427658102,0,0,-2.23694,188.1, -0.5, 3,0,0,1025,1024,1276,1024,0,0,38,0,164.1,-80.9,-8.3,76,3.896,3.917,3.913,3.893,0,0,19.708,116.51,1739.2173381353,46.259844,6,P-GPS,
138700,2025-09-03 14:09:44,48.1487355381799,11.572189964368,46.587928,,,1739.5454221353,35.104988,0,18.2300202684,60.038059664,8,3,15.524,1739.5454221353,46.587928,0.8052984,19.427658102,0,0,-2.23694,188.2, 0, 4.1,0,0,1027,1024,1277,1024,0,0,38,0,165.3,-80.1,-8.6,76,3.896,3.917,3.913,3.893,0,0,19.708,116.51,1739.5454221353,46.587928,6,P-GPS,
138800,2025-09-03 14:09:44,48.1487354190039,11.5721901486424,46.916012,,,1739.8735061353,35.104988,0,18.2285438904,60.100395624,8,3,15.507,1739.8735061353,46.916012,0.8052984,19.427658102,0,0,-2.23694,188.1, 0.3, 3.9,0,0,1029,1024,1277,1024,1,0,38,0,164.9,-79.6,-10.4,76,3.897,3.917,3.911,3.891,0,0,18.648,116.51,1739.8735061353,46.916012,6,P-GPS,
138900,2025-09-03 14:09:44,48.148735256394,11.572190420074,46.916012,,,1739.8735061353,35.104988,0,18.2234585884,60.189306388,8,3,15.507,1739.8735061353,46.916012,0.8052984,19.427658102,0,0,-2.23694,188.2, 1.1, 3,0,0,1029,1024,1276,1024,1,0,38,0,164.2,-79.1,-8.7,76,3.897,3.917,3.911,3.891,0,0,18.648,116.51,1739.8735061353,46.916012,6,P-GPS,
139000,2025-09-03 14:09:44,48.1487351988073,11.5721906257417,46.916012,,,1739.8735061353,35.104988,0,18.2028877216,60.243440248,8,3,15.507,1739.8735061353,46.916012,0.8052984,19.427658102,0,0,-2.23694,188.3, 1.5, 2.7,0,0,1031,1024,1274,1024,1,0,38,0,163.4,-79.3,-6.7,76,3.897,3.917,3.911,3.891,0,0,18.648,116.51,1739.8735061353,46.916012,6,P-GPS,
139100,2025-09-03 14:09:44,48.1487355006158,11.5721910393127,47.244096,,,1740.2015901353,35.104988,0,18.0538391604,60.392718468,8,3,15.507,1740.2015901353,47.244096,0.8052984,19.427658102,0,0,-2.23694,188.3, 1.3, 3.3,0,0,1032,1024,1271,1024,1,0,37,0,164.4,-79.6,-7,76,3.897,3.917,3.911,3.891,0,0,18.648,116.51,1740.2015901353,47.244096,6,P-GPS,
139200,2025-09-03 14:09:44,48.1487355793413,11.5721911584732,47.244096,,,1740.2015901353,35.104988,0,18.0130255108,60.433400884,8,3,15.507,1740.2015901353,47.244096,0.8052984,19.427658102,0,0,-2.23694,188.3, 0.9, 3.9,0,0,1030,1024,1268,1024,1,0,37,0,164.9,-79.8,-8,76,3.897,3.917,3.911,3.891,0,0,18.648,116.51,1740.2015901353,47.244096,6,P-GPS,
139300,2025-09-03 14:09:44,48.1487356605966,11.5721912749647,46.916012,,,1739.8735061353,35.104988,0,17.9720150108,60.474411384,8,3,15.507,1740.2015901353,47.244096,0.8052984,19.427658102,0,0,-2.013246,188.2, 0.4, 4.2,0,0,1030,1024,1266,1024,1,0,37,0,165.2,-80.2,-7.6,76,3.897,3.917,3.911,3.891,0,0,18.648,116.51,1739.8735061353,46.916012,6,P-GPS,
139400,2025-09-03 14:09:44,48.1487357423876,11.5721913226125,47.244096,,,1740.2015901353,35.104988,0,17.9426843012,60.506563616,8,3,15.507,1740.2015901353,47.244096,0.8052984,19.427658102,0,0,-2.013246,188.3, 0.1, 4.2,0,0,1029,1024,1267,1024,1,0,37,0,165,-79.5,-7.4,76,3.897,3.917,3.911,3.891,0,0,18.648,116.51,1740.2015901353,47.244096,6,P-GPS,
