time(millisecond),datetime(utc),latitude,longitude,height_above_takeoff(feet),height_above_ground_at_drone_location(feet),ground_elevation_at_drone_location(feet),altitude_above_seaLevel(feet),height_sonar(feet),speed(mph),distance(feet),mileage(feet),satellites,gpslevel,voltage(v),max_altitude(feet),max_ascent(feet),max_speed(mph),max_distance(feet), xSpeed(mph), ySpeed(mph), zSpeed(mph), compass_heading(degrees), pitch(degrees), roll(degrees),isPhoto,isVideo,rc_elevator,rc_aileron,rc_throttle,rc_rudder,rc_elevator(percent),rc_aileron(percent),rc_throttle(percent),rc_rudder(percent),gimbal_heading(degrees),gimbal_pitch(degrees),gimbal_roll(degrees),battery_percent,voltageCell1,voltageCell2,voltageCell3,voltageCell4,voltageCell5,voltageCell6,current(A),battery_temperature(f),altitude(feet),ascent(feet),flycStateRaw,flycState,message
282300,2025-09-03 05:41:35,48.1487062014927,11.5721307097887,0,Available with any HD 360 subscription,Available with any HD 360 subscription,1692.909034488,0.328084,0,0,0,6,0,0,1692.909034488,0,0,0,0,0,0,186.9, -0.5, -0.3,0,0,371,364,364,1684,-99,-100,-100,100,104.3,0.5,3.4,75,4.025,4.033,4.033,4.023,0,0,0,103.91,1692.909034488,0,41,Motors_Started,
282400,2025-09-03 05:41:35,48.1487062229947,11.5721307568894,0,,,1692.909034488,0.328084,0,0.0138925857464,0.0138925857464,7,0,0,1692.909034488,0,0,0.0138925857464,0,0,0,187.3, -0.6, -0.3,0,0,372,364,364,1684,-99,-100,-100,100,104.2,0.5,3.4,75,4.025,4.033,4.033,4.023,0,0,0,103.91,1692.909034488,0,41,Motors_Started,
282500,2025-09-03 05:41:35,48.1487062434805,11.5721308055243,0,,,1692.909034488,0.328084,0,0.0278888132284,0.0278935704464,7,0,0,1692.909034488,0,0,0.0278888132284,0,0,0,187.2, -0.5, -0.3,0,0,372,364,364,1684,-99,-100,-100,100,104.2,0.6,3.2,75,4.025,4.033,4.033,4.023,0,0,0,103.91,1692.909034488,0,41,Motors_Started,
282600,2025-09-03 05:41:35,48.1487062647219,11.5721308525608,0,,,1692.909034488,0.328084,0,0.04171424018,0.041719817608,7,0,0,1692.909034488,0,0,0.04171424018,0,0,0,187.2, -0.6, -0.3,0,0,616,463,483,1568,-62,-85,-82,82,104.1,0.6,3.2,75,4.025,4.033,4.033,4.023,0,0,0,103.91,1692.909034488,0,41,Motors_Started,
282700,2025-09-03 05:41:35,48.1487062857549,11.5721308995331,0,,,1692.909034488,0.328084,0,0.055484581828,0.05549048734,7,0,0,1692.909034488,0,0,0.055484581828,0,0,0,187.2, -0.6, -0.3,0,0,1024,936,918,1248,0,-13,-16,34,104,0.6,3.2,75,4.025,4.033,4.033,4.023,0,0,0,103.91,1692.909034488,0,41,Motors_Started,
282800,2025-09-03 05:41:35,48.1487063062212,11.5721309470446,0,,,1692.909034488,0.328084,0,0.0692503303,0.069257220064,7,0,0,1692.909034488,0,0,0.0692503303,0,0,0,187.2, -0.6, -0.3,0,0,1024,1024,1024,1024,0,0,0,0,104,0.6,3.2,75,4.025,4.033,4.033,4.023,0,0,0,103.91,1692.909034488,0,41,Motors_Started,
282900,2025-09-03 05:41:35,48.1487063271239,11.5721309931181,0,,,1692.909034488,0.328084,0,0.082812338608,0.08281988454,7,0,0,1692.909034488,0,0,0.082812338608,0,0,0,187.2, -0.5, -0.3,0,0,1024,1024,1024,1024,0,0,0,0,103.9,0.6,3.2,75,4.025,4.033,4.033,4.023,0,0,0,103.91,1692.909034488,0,41,Motors_Started,
283000,2025-09-03 05:41:36,48.1487063503585,11.5721310355389,0,,,1692.909034488,0.328084,0,0.096114176304,0.096180121188,7,0,16.126,1692.909034488,0,0,0.096114176304,0,0,0,187.2, -0.5, -0.3,0,0,1024,1024,1024,1024,0,0,0,0,103.9,0.7,3.1,75,4.025,4.033,4.033,4.023,0,0,1.852,103.91,1692.909034488,0,41,Motors_Started,"Setting new Return-To-Home altitude to 100m (328 ft). Data Recorder File Index is 232. Setting new Maximum Flight Altitude to 150m (492 ft)"
283100,2025-09-03 05:41:36,48.1487063715478,11.572131080566,0,,,1692.909034488,0.328084,0,11.6804793764,0.10959317936,7,0,16.126,1692.909034488,0,0,11.6804793764,0,0,0,187.2, -0.5, -0.3,0,0,1024,1024,1024,1024,0,0,0,0,103.8,0.7,3.1,75,4.025,4.033,4.033,4.023,0,0,1.852,103.91,1692.909034488,0,41,Motors_Started,
283200,2025-09-03 05:41:36,48.1487063926004,11.5721311257986,0,,,1692.909034488,0.328084,0,11.6672247828,0.12301837664,7,0,16.126,1692.909034488,0,0,11.6804793764,0,0,0,187.2, -0.5, -0.3,0,0,1024,1024,1024,1024,0,0,0,0,103.8,0.7,3.1,75,4.025,4.033,4.033,4.023,0,0,1.852,103.91,1692.909034488,0,41,Motors_Started,
283300,2025-09-03 05:41:36,48.1487064130862,11.5721311700875,0,,,1692.909034488,0.328084,0,11.6542654648,0.13613681538,7,0,16.126,1692.909034488,0,0,11.6804793764,0,0,0,187.2, -0.5, -0.3,0,0,1024,1024,1024,1024,0,0,0,0,103.8,0.7,3.1,75,4.025,4.033,4.033,4.023,0,0,1.852,103.91,1692.909034488,0,41,Motors_Started,
283400,2025-09-03 05:41:36,48.148706434028,11.572131213163,0,,,1692.909034488,0.328084,0,11.641404572,0.149111225244,6,0,16.126,1692.909034488,0,0,11.6804793764,0,0,0,187.2, -0.5, -0.3,0,0,1024,1024,1024,1024,0,0,0,0,103.7,0.7,3,75,4.025,4.033,4.033,4.023,0,0,1.852,103.91,1692.909034488,0,41,Motors_Started,
283500,2025-09-03 05:41:36,48.1487064540774,11.5721312549097,0,,,1692.909034488,0.328084,0,11.6290029968,0.16163222302,6,0,16.126,1692.909034488,0,0,11.6804793764,0,0,0,187.2, -0.5, -0.3,0,0,1024,1024,1024,1024,0,0,0,0,103.6,0.7,3,75,4.025,4.033,4.033,4.023,0,0,1.852,103.91,1692.909034488,0,41,Motors_Started,
283600,2025-09-03 05:41:36,48.1487064743222,11.5721312961236,0,,,1692.909034488,0.328084,0,11.61663423,0.174090556752,6,0,16.126,1692.909034488,0,0,11.6804793764,0,0,0,187.2, -0.5, -0.3,0,0,1024,1024,1024,1024,0,0,0,0,103.6,0.7,2.9,75,4.025,4.033,4.033,4.023,0,0,1.852,103.91,1692.909034488,0,41,Motors_Started,
283700,2025-09-03 05:41:36,48.1487064945409,11.5721313367726,0,,,1692.909034488,0.328084,0,11.6043966968,0.186432748748,6,0,16.126,1692.909034488,0,0,11.6804793764,0,0,0,187.2, -0.5, -0.3,0,0,1024,1024,1024,1024,0,0,0,0,103.5,0.8,3,75,4.025,4.033,4.033,4.023,0,0,1.852,103.91,1692.909034488,0,41,Motors_Started,
283800,2025-09-03 05:41:36,48.1487065146815,11.5721313773895,0,,,1692.909034488,0.328084,0,11.5921591636,0.19875164678,6,0,16.126,1692.909034488,0,0,11.6804793764,0,0,0,187.2, -0.5, -0.3,0,0,1024,1024,1024,1024,0,0,0,0,103.4,0.7,2.8,75,4.025,4.033,4.033,4.023,0,0,1.852,103.91,1692.909034488,0,10,Assisted_Takeoff,
283900,2025-09-03 05:41:36,48.1487065343466,11.5721314168636,0,,,1692.909034488,0.656168,0,11.5802825228,0.210744101232,6,0,16.126,1692.909034488,0,0,11.6804793764,0,0,0,187.2, -0.5, -0.3,0,0,1024,1024,1024,1024,0,0,0,0,103.4,0.8,2.8,75,4.025,4.033,4.033,4.023,0,0,1.852,103.91,1692.909034488,0,10,Assisted_Takeoff,
284000,2025-09-03 05:41:36,48.148706553927,11.5721314558435,0,,,1692.909034488,0.328084,0,11.5684714988,0.2226213982,6,0,16.126,1692.909034488,0,0,11.6804793764,0,0,0,187.2, -0.5, -0.3,0,0,1024,1024,1024,1024,0,0,0,0,103.3,0.7,2.7,75,4.025,4.033,4.033,4.023,0,0,3.77,103.91,1692.909034488,0,10,Assisted_Takeoff,
284100,2025-09-03 05:41:37,48.148706573058,11.5721314949389,0,,,1692.909034488,0.328084,0,11.5567589,0.234423563932,6,0,16.126,1692.909034488,0,0,11.6804793764,0,0,0,187.2, -0.5, -0.3,0,0,1024,1024,1024,1024,0,0,0,0,103.3,0.8,2.6,75,4.025,4.033,4.033,4.023,0,0,3.77,103.91,1692.909034488,0,10,Assisted_Takeoff,
284200,2025-09-03 05:41:37,48.1487065923844,11.5721315333731,0,,,1692.909034488,0.328084,0,11.5451447264,0.246139115488,6,0,16.126,1692.909034488,0,0,11.6804793764,0,0,0,187.2, -0.5, -0.3,0,0,1024,1024,1024,1024,0,0,0,0,103.2,0.8,2.6,75,4.025,4.033,4.033,4.023,0,0,3.77,103.91,1692.909034488,0,10,Assisted_Takeoff,
284300,2025-09-03 05:41:37,48.1487066111636,11.5721315700291,0,,,1692.909034488,0.328084,0,11.533957062,0.257389115848,6,0,16.126,1692.909034488,0,0,11.6804793764,0,0,0,187.2, -0.5, -0.3,0,0,1024,1024,1024,1024,0,0,0,0,103.2,0.8,2.6,75,4.025,4.033,4.033,4.023,0,0,3.77,103.91,1692.909034488,0,10,Assisted_Takeoff,
284400,2025-09-03 05:41:37,48.1487066299754,11.5721316058826,0,,,1692.909034488,0.328084,0,11.5229006312,0.268492134576,6,0,16.126,1692.909034488,0,0,11.6804793764,0,0,0,187.2, -0.5, -0.3,0,0,1024,1024,1024,1024,0,0,0,0,103.1,0.8,2.6,75,4.025,4.033,4.033,4.023,0,0,3.77,103.91,1692.909034488,0,10,Assisted_Takeoff,
284500,2025-09-03 05:41:37,48.1487066486373,11.5721316413381,0,,,1692.909034488,0.328084,0,11.511975434,0.279485573248,6,0,16.126,1692.909034488,0,0,11.6804793764,0,0,0,187.2, -0.5, -0.3,0,0,1024,1024,1024,1024,0,0,0,0,103,0.8,2.5,75,4.025,4.033,4.033,4.023,0,0,3.77,103.91,1692.909034488,0,10,Assisted_Takeoff,
284600,2025-09-03 05:41:37,48.1487066676315,11.5721316766844,0,,,1692.909034488,0.328084,0,11.5009518116,0.290533473864,6,0,16.126,1692.909034488,0,0,11.6804793764,0,0,0,187.2, -0.5, -0.3,0,0,1024,1024,1024,1024,0,0,0,0,103,0.8,2.5,75,4.025,4.033,4.033,4.023,0,0,3.77,103.91,1692.909034488,0,10,Assisted_Takeoff,
284700,2025-09-03 05:41:37,48.1487066867625,11.5721317122298,0,,,1692.909034488,0.328084,0,11.4898953808,0.301650600204,6,0,16.126,1692.909034488,0,0,11.6804793764,0,0,0,187.2, -0.5, -0.3,0,0,1024,1024,1024,1024,0,0,0,0,103,0.8,2.4,75,4.025,4.033,4.033,4.023,0,0,3.77,103.91,1692.909034488,0,10,Assisted_Takeoff,
284800,2025-09-03 05:41:37,48.1487067056655,11.5721317475184,0,,,1692.909034488,0.328084,0,11.4789045668,0.312666676672,6,0,16.126,1692.909034488,0,0,11.6804793764,0,0,0,187.2, -0.5, -0.3,0,0,1024,1024,1024,1024,0,0,0,0,102.9,0.8,2.4,75,4.025,4.033,4.033,4.023,0,0,3.77,103.91,1692.909034488,0,10,Assisted_Takeoff,
284900,2025-09-03 05:41:37,48.1487067244512,11.5721317826272,0,,,1692.909034488,0.328084,0,11.468012178,0.3236220576,6,0,16.126,1692.909034488,0,0,11.6804793764,0,0,0,187.2, -0.5, -0.3,0,0,1024,1024,1024,1024,0,0,0,0,102.9,0.8,2.4,75,4.025,4.033,4.033,4.023,0,0,3.77,103.91,1692.909034488,0,10,Assisted_Takeoff,
285000,2025-09-03 05:41:37,48.1487067436929,11.5721318176591,0,,,1692.909034488,0.328084,0,11.4569885556,0.33466864588,7,0,16.036,1692.909034488,0,0,11.6804793764,0,0,0,187.2, -0.5, -0.3,0,0,1024,1024,1024,1024,0,0,0,0,102.8,0.8,2.5,75,4.017,4.03,4.032,4.019,0,0,3.77,103.91,1692.909034488,0,10,Assisted_Takeoff,
285100,2025-09-03 05:41:38,48.1487067623548,11.5721318532558,0,,,1692.909034488,0.328084,0,11.44603055,0.34568898744,7,0,16.036,1692.909034488,0,0,11.6804793764,0,0,0,187.2, -0.5, -0.3,0,0,1024,1024,1024,1024,0,0,0,0,102.7,0.8,2.5,75,4.017,4.03,4.032,4.019,0,0,3.77,103.91,1692.909034488,0,10,Assisted_Takeoff,
285200,2025-09-03 05:41:38,48.1487067806781,11.5721318881464,0,,,1692.909034488,0.328084,0,11.4352693948,0.3564960744,7,0,16.036,1692.909034488,0,0,11.6804793764,0,0,0,187.2, -0.5, -0.3,0,0,1024,1024,1024,1024,0,0,0,0,102.6,0.9,2.4,75,4.017,4.03,4.032,4.019,0,0,3.77,103.91,1692.909034488,0,10,Assisted_Takeoff,
285300,2025-09-03 05:41:38,48.1487067988646,11.572131923114,0,,,1692.909034488,0.328084,0,11.4245082396,0.367290038,7,0,16.036,1692.909034488,0,0,11.6804793764,0,0,0,187.2, -0.5, -0.3,0,0,1024,1024,1024,1024,0,0,0,0,102.6,0.9,2.4,75,4.017,4.03,4.032,4.019,0,0,3.77,103.91,1692.909034488,0,10,Assisted_Takeoff,
285400,2025-09-03 05:41:38,48.1487068167253,11.5721319579211,0,,,1692.909034488,0.328084,0,11.4139111264,0.37797901472,7,0,16.036,1692.909034488,0,0,11.6804793764,0,0,0,187.2, -0.5, -0.3,0,0,1024,1024,1024,1024,0,0,0,0,102.5,0.9,2.4,75,4.017,4.03,4.032,4.019,0,0,3.77,103.91,1692.909034488,0,10,Assisted_Takeoff,
285500,2025-09-03 05:41:38,48.148706834749,11.5721319930235,0,,,1692.909034488,0.328084,0,11.4031827796,0.38875985496,7,0,16.036,1692.909034488,0,0,11.6804793764,0,0,0,187.2, -0.5, -0.3,0,0,1024,1024,1024,1024,0,0,0,0,102.5,0.9,2.3,75,4.017,4.03,4.032,4.019,0,0,3.77,103.91,1692.909034488,0,10,Assisted_Takeoff,
285600,2025-09-03 05:41:38,48.1487068531113,11.5721320273106,0,,,1692.909034488,0.328084,0,11.3925200496,0.39946195504,7,0,16.036,1692.909034488,0,0,11.6804793764,0,0,0,187.2, -0.5, -0.3,0,0,1024,1024,1024,1024,0,0,0,0,102.4,0.8,2.4,75,4.017,4.03,4.032,4.019,0,0,3.77,103.91,1692.909034488,0,10,Assisted_Takeoff,
285700,2025-09-03 05:41:38,48.1487068716365,11.5721320613731,0,,,1692.909034488,0.328084,0,11.3818573196,0.41016077428,7,0,16.036,1692.909034488,0,0,11.6804793764,0,0,0,187.2, -0.5, -0.3,0,0,1024,1024,1024,1024,0,0,0,0,102.3,0.9,2.3,75,4.017,4.03,4.032,4.019,0,0,3.77,103.91,1692.909034488,0,10,Assisted_Takeoff,
285800,2025-09-03 05:41:38,48.1487068902724,11.5721320952622,0,,,1692.909034488,0.328084,0,11.3711945896,0.420849751,7,0,16.036,1692.909034488,0,0,11.6804793764,0,0,0,187.2, -0.5, -0.3,0,0,1024,1024,1024,1024,0,0,0,0,102.2,0.9,2.4,75,4.017,4.03,4.032,4.019,0,0,3.77,103.91,1692.909034488,0,10,Assisted_Takeoff,
285900,2025-09-03 05:41:38,48.1487069084198,11.5721321291706,0,,,1692.909034488,0.328084,0,11.3606630932,0.43143374084,7,0,16.036,1692.909034488,0,0,11.6804793764,0,0,0,187.2, -0.5, -0.3,0,0,1024,1024,1024,1024,0,0,0,0,102.2,0.9,2.4,75,4.017,4.03,4.032,4.019,0,0,3.77,103.91,1692.909034488,0,10,Assisted_Takeoff,
286000,2025-09-03 05:41:39,48.1487069262805,11.5721321629184,0,,,1692.909034488,0.328084,0,11.350230022,0.44191930548,7,0,16.085,1692.909034488,0,0,11.6804793764,0,0,0,187.2, -0.5, -0.3,0,0,1024,1024,1024,1024,0,0,0,0,102.2,0.9,2.2,75,4.034,4.04,4.04,4.032,0,0,3.77,103.91,1692.909034488,0,10,Assisted_Takeoff,
286100,2025-09-03 05:41:39,48.1487069444865,11.5721321967369,0,,,1692.909034488,0.328084,0,11.3396985256,0.45249673364,7,0,16.085,1692.909034488,0,0,11.6804793764,0,0,0,187.2, -0.5, -0.3,0,0,1024,1024,1024,1024,0,0,0,0,102.1,0.9,2.3,75,4.034,4.04,4.04,4.032,0,0,3.77,103.91,1692.909034488,0,10,Assisted_Takeoff,
286200,2025-09-03 05:41:39,48.1487069632592,11.5721322312102,0,,,1692.909034488,0.328084,0,11.328904562,0.46333006732,7,0,16.085,1692.909034488,0,0,11.6804793764,0,0,0,187.2, -0.5, -0.3,0,0,1024,1024,1024,1024,0,0,0,0,102.1,0.9,2.2,75,4.034,4.04,4.04,4.032,0,0,3.77,103.91,1692.909034488,0,10,Assisted_Takeoff,
286300,2025-09-03 05:41:39,48.1487069822013,11.5721322664154,0,,,1692.909034488,0.328084,0,11.317913748,0.47433728552,7,0,16.085,1692.909034488,0,0,11.6804793764,0,0,0,187.2, -0.5, -0.3,0,0,1024,1024,1024,1024,0,0,0,0,102,0.9,2.2,75,4.034,4.04,4.04,4.032,0,0,3.77,103.91,1692.909034488,0,10,Assisted_Takeoff,
286400,2025-09-03 05:41:39,48.1487070009089,11.5721323022304,0,,,1692.909034488,0.328084,0,11.3068901256,0.48541012052,7,0,16.085,1692.909034488,0,0,11.6804793764,0,0,0,187.2, -0.5, -0.3,0,0,1024,1024,1024,1024,0,0,0,0,101.9,1,2.2,75,4.034,4.04,4.04,4.032,0,0,3.77,103.91,1692.909034488,0,10,Assisted_Takeoff,
286500,2025-09-03 05:41:39,48.1487070202027,11.5721323373777,0,,,1692.909034488,0.328084,0,11.2958665032,0.4964895172,7,0,16.085,1692.909034488,0,0,11.6804793764,0,0,0,187.2, -0.5, -0.3,0,0,1024,1024,1024,1024,0,0,0,0,101.9,1,2.2,75,4.034,4.04,4.04,4.032,0,0,3.77,103.91,1692.909034488,0,10,Assisted_Takeoff,
286600,2025-09-03 05:41:39,48.1487070397375,11.572132372294,0,,,1692.909034488,0.328084,0,11.284777264,0.50758203724,7,0,16.085,1692.909034488,0,0,11.6804793764,0,0,0,187.2, -0.5, -0.3,0,0,1024,1024,1024,1024,0,0,0,0,101.8,1,2.2,75,4.034,4.04,4.04,4.032,0,0,3.77,103.91,1692.909034488,0,10,Assisted_Takeoff,
286700,2025-09-03 05:41:39,48.1487070593244,11.5721324074863,0,,,1692.909034488,0.328084,0,11.2736552164,0.51873689324,7,0,16.085,1692.909034488,0,0,11.6804793764,0,0,0,187.2, -0.5, -0.3,0,0,1024,1024,1024,1024,0,0,0,0,101.8,1,2.1,75,4.034,4.04,4.04,4.032,0,0,3.77,103.91,1692.909034488,0,10,Assisted_Takeoff,
286800,2025-09-03 05:41:39,48.1487070789309,11.5721324428391,0,,,1692.909034488,0.328084,0,11.2625003604,0.52992783848,7,0,16.085,1692.909034488,0,0,11.6804793764,0,0,0,187.2, -0.5, -0.3,0,0,1024,1024,1024,1024,0,0,0,0,101.7,1,2,75,4.034,4.04,4.04,4.032,0,0,3.77,103.91,1692.909034488,0,10,Assisted_Takeoff,
286900,2025-09-03 05:41:39,48.1487070984983,11.5721324771904,0,,,1692.909034488,0.328084,0,11.2515423548,0.54092521416,7,0,16.085,1692.909034488,0,0,11.6804793764,0,0,0,187.2, -0.5, -0.3,0,0,1024,1024,1024,1024,0,0,0,0,101.6,1,2,75,4.034,4.04,4.04,4.032,0,0,3.77,103.91,1692.909034488,0,10,Assisted_Takeoff,
287000,2025-09-03 05:41:39,48.1487071179028,11.5721325115931,0,,,1692.909034488,0.328084,0,11.2405843492,0.55188978144,7,0,16.084,1692.909034488,0,0,11.6804793764,0,0,0,187.2, -0.5, -0.3,0,0,1024,1024,1024,1024,0,0,0,0,101.5,1,2.1,75,4.034,4.04,4.04,4.032,0,0,2.17,103.91,1692.909034488,0,10,Assisted_Takeoff,
287100,2025-09-03 05:41:40,48.1487071369426,11.5721325460022,0,,,1692.909034488,0.328084,0,11.2297247688,0.56277232772,7,0,16.084,1692.909034488,0,0,11.6804793764,0,0,0,187.2, -0.5, -0.3,0,0,1024,1024,1024,1024,0,0,0,0,101.5,1,1.9,75,4.034,4.04,4.04,4.032,0,0,2.17,103.91,1692.909034488,0,10,Assisted_Takeoff,
287200,2025-09-03 05:41:40,48.1487071557022,11.5721325805589,0,,,1692.909034488,0.328084,0,11.2189308052,0.57361550392,7,0,16.084,1692.909034488,0,0,11.6804793764,0,0,0,187.2, -0.5, -0.3,0,0,1024,1024,1024,1024,0,0,0,0,101.5,1.1,1.9,75,4.034,4.04,4.04,4.032,0,0,2.17,103.91,1692.909034488,0,10,Assisted_Takeoff,
287300,2025-09-03 05:41:40,48.1487071742795,11.5721326153917,0,,,1692.909034488,0.328084,0,11.2081040332,0.58447180348,7,0,16.084,1692.909034488,0,0,11.6804793764,0,0,0,187.2, -0.5, -0.3,0,0,1024,1024,1024,1024,0,0,0,0,101.5,1.1,1.9,75,4.034,4.04,4.04,4.032,0,0,2.17,103.91,1692.909034488,0,10,Assisted_Takeoff,
287400,2025-09-03 05:41:40,48.1487071927591,11.5721326510591,0,,,1692.909034488,0.328084,0,11.197178836,0.59546589832,7,0,16.084,1692.909034488,0,0,11.6804793764,0,0,0,187.2, -0.5, -0.3,0,0,1024,1024,1024,1024,0,0,0,0,101.4,1,1.9,75,4.034,4.04,4.04,4.032,0,0,2.17,103.91,1692.909034488,0,10,Assisted_Takeoff,
287500,2025-09-03 05:41:40,48.1487072112647,11.5721326865916,0,,,1692.909034488,0.328084,0,11.1862864472,0.60643702728,7,0,16.084,1692.909034488,0,0,11.6804793764,0,0,0,187.2, -0.5, -0.3,0,0,1024,1024,1024,1024,0,0,0,0,101.3,1,1.8,75,4.034,4.04,4.04,4.032,0,0,2.17,103.91,1692.909034488,0,10,Assisted_Takeoff,
287600,2025-09-03 05:41:40,48.1487072303371,11.5721327232219,0,,,1692.909034488,0.328084,0,11.175033166,0.6177493636,7,0,16.084,1692.909034488,0,0,11.6804793764,0,0,0,187.2, -0.5, -0.3,0,0,1024,1024,1024,1024,0,0,0,0,101.3,1.1,1.8,75,4.034,4.04,4.04,4.032,0,0,2.17,103.91,1692.909034488,0,10,Assisted_Takeoff,
287700,2025-09-03 05:41:40,48.1487072495462,11.5721327594798,0,,,1692.909034488,0.328084,0,11.1638126932,0.629019049,7,0,16.084,1692.909034488,0,0,11.6804793764,0,0,0,187.2, -0.5, -0.3,0,0,1024,1024,1024,1024,0,0,0,0,101.2,1.1,1.8,75,4.034,4.04,4.04,4.032,0,0,2.17,103.91,1692.909034488,0,10,Assisted_Takeoff,
287800,2025-09-03 05:41:40,48.1487072689247,11.5721327953077,0,,,1692.909034488,0.328084,0,11.1526250288,0.64024608348,7,0,16.084,1692.909034488,0,0,11.6804793764,0,0,0,187.2, -0.5, -0.3,0,0,1024,1024,1024,1024,0,0,0,0,101.2,1.1,1.7,75,4.034,4.04,4.04,4.032,0,0,2.17,103.91,1692.909034488,0,10,Assisted_Takeoff,
287900,2025-09-03 05:41:40,48.1487072884334,11.5721328313088,0,,,1692.909034488,0.328084,0,11.1413717476,0.65153545392,7,0,16.084,1692.909034488,0,0,11.6804793764,0,0,0,187.2, -0.5, -0.3,0,0,1024,1024,1024,1024,0,0,0,0,101.1,1.1,1.6,75,4.034,4.04,4.04,4.032,0,0,2.17,103.91,1692.909034488,0,10,Assisted_Takeoff,
288000,2025-09-03 05:41:40,48.1487073082484,11.5721328677016,0,,,1692.909034488,0.328084,0,11.1299872328,0.66296918132,7,0,16.084,1692.909034488,0,0,11.6804793764,0,0,0,187.2, -0.5, -0.3,0,0,1024,1024,1024,1024,0,0,0,0,101.1,1.1,1.5,75,4.034,4.04,4.04,4.032,0,0,2.198,103.91,1692.909034488,0,10,Assisted_Takeoff,
288100,2025-09-03 05:41:41,48.1487073278613,11.5721329045116,0,,,1692.909034488,0.328084,0,11.1185699096,0.67443899796,7,0,16.084,1692.909034488,0,0,11.6804793764,0,0,0,187.2, -0.5, -0.3,0,0,1024,1024,1024,1024,0,0,0,0,101,1.1,1.6,75,4.034,4.04,4.04,4.032,0,0,2.198,103.91,1692.909034488,0,10,Assisted_Takeoff,
288200,2025-09-03 05:41:41,48.1487073478912,11.5721329402881,0,,,1692.909034488,0.328084,0,11.1072182032,0.68580710856,7,0,16.084,1692.909034488,0,0,11.6804793764,0,0,0,187.2, -0.5, -0.3,0,0,1024,1024,1024,1024,0,0,0,0,100.9,1.1,1.5,75,4.034,4.04,4.04,4.032,0,0,2.198,103.91,1692.909034488,0,10,Assisted_Takeoff,
288300,2025-09-03 05:41:41,48.1487073678103,11.5721329758463,0,,,1692.909034488,0.328084,0,11.0959321136,0.69710960236,7,0,16.084,1692.909034488,0,0,11.6804793764,0,0,0,187.2, -0.5, -0.3,0,0,1024,1024,1024,1024,0,0,0,0,100.9,1.1,1.5,75,4.034,4.04,4.04,4.032,0,0,2.198,103.91,1692.909034488,0,10,Assisted_Takeoff,
288400,2025-09-03 05:41:41,48.1487073878662,11.5721330114559,0,,,1692.909034488,0.328084,0,11.0846132156,0.70845146624,7,0,16.084,1692.909034488,0,0,11.6804793764,0,0,0,187.2, -0.5, -0.3,0,0,1024,1024,1024,1024,0,0,0,0,100.8,1.1,1.4,75,4.034,4.04,4.04,4.032,0,0,2.198,103.91,1692.909034488,0,10,Assisted_Takeoff,
288500,2025-09-03 05:41:41,48.1487074079938,11.5721330471168,0,,,1692.909034488,0.328084,0,11.0732943176,0.71982285768,7,0,16.084,1692.909034488,0,0,11.6804793764,0,0,0,187.2, -0.5, -0.3,0,0,1024,1024,1024,1024,0,0,0,0,100.8,1.1,1.4,75,4.034,4.04,4.04,4.032,0,0,2.198,103.91,1692.909034488,0,10,Assisted_Takeoff,
288600,2025-09-03 05:41:41,48.1487074279781,11.5721330832014,0,,,1692.909034488,0.328084,0,11.0619098028,0.73124018088,7,0,16.084,1692.909034488,0,0,11.6804793764,0,0,0,187.2, -0.5, -0.3,0,0,1024,1024,1024,1024,0,0,0,0,100.8,1.1,1.4,75,4.034,4.04,4.04,4.032,0,0,2.198,103.91,1692.909034488,0,10,Assisted_Takeoff,
288700,2025-09-03 05:41:41,48.1487074481903,11.5721331194401,0,,,1692.909034488,0.328084,0,11.0504268628,0.74273624424,7,0,16.084,1692.909034488,0,0,11.6804793764,0,0,0,187.2, -0.5, -0.3,0,0,1024,1024,1024,1024,0,0,0,0,100.7,1.1,1.3,75,4.034,4.04,4.04,4.032,0,0,2.198,103.91,1692.909034488,0,10,Assisted_Takeoff,
288800,2025-09-03 05:41:41,48.1487074685784,11.5721331561089,0,,,1692.909034488,0.328084,0,11.0388454976,0.75435697952,6,0,16.084,1692.909034488,0,0,11.6804793764,0,0,0,187.2, -0.5, -0.3,0,0,1024,1024,1024,1024,0,0,0,0,100.7,1.1,1.3,75,4.034,4.04,4.04,4.032,0,0,2.198,103.91,1692.909034488,0,10,Assisted_Takeoff,
288900,2025-09-03 05:41:41,48.1487074885432,11.5721331931822,0,,,1692.909034488,0.328084,0,11.0272969408,0.76595474892,6,0,16.084,1692.909034488,0,0,11.6804793764,0,0,0,187.2, -0.5, -0.3,0,0,1024,1024,1024,1024,0,0,0,0,100.6,1.1,1.3,75,4.034,4.04,4.04,4.032,0,0,2.198,103.91,1692.909034488,0,10,Assisted_Takeoff,
289000,2025-09-03 05:41:42,48.1487075084753,11.5721332307947,0,,,1692.909034488,0.328084,0,11.0156499588,0.77764766268,6,0,16.086,1692.909034488,0,0,11.6804793764,0,0,0,187.2, -0.5, -0.3,0,0,1024,1024,1024,1024,0,0,0,0,100.5,1.2,1.3,75,4.034,4.04,4.04,4.033,0,0,2.2,103.91,1692.909034488,0,10,Assisted_Takeoff,
289100,2025-09-03 05:41:42,48.148707528427,11.5721332689143,0,,,1692.909034488,0.328084,0,11.0039045516,0.78943900164,6,0,16.086,1692.909034488,0,0,11.6804793764,0,0,0,187.2, -0.5, -0.3,0,0,1024,1024,1024,1024,0,0,0,0,100.5,1.2,1.2,75,4.034,4.04,4.04,4.033,0,0,2.2,103.91,1692.909034488,0,10,Assisted_Takeoff,
289200,2025-09-03 05:41:42,48.1487075483787,11.5721333074576,0,,,1692.909034488,0.328084,0,10.992126336,0.80131564244,6,0,16.086,1692.909034488,0,0,11.6804793764,0,0,0,187.2, -0.5, -0.3,0,0,1024,1024,1024,1024,0,0,0,0,100.4,1.2,1.1,75,4.034,4.04,4.04,4.033,0,0,2.2,103.91,1692.909034488,0,10,Assisted_Takeoff,
289300,2025-09-03 05:41:42,48.1487075681285,11.5721333454296,0,,,1692.909034488,0.328084,0,10.9804465456,0.81303480292,6,0,16.086,1692.909034488,0,0,11.6804793764,0,0,0,187.2, -0.5, -0.3,0,0,1024,1024,1024,1024,0,0,0,0,100.4,1.2,1.2,75,4.034,4.04,4.04,4.033,0,0,2.2,103.91,1692.909034488,0,10,Assisted_Takeoff,
289400,2025-09-03 05:41:42,48.1487075879629,11.5721333834465,0,,,1692.909034488,0.328084,0,10.9687667552,0.82478349096,6,0,16.086,1692.909034488,0,0,11.6804793764,0,0,0,187.2, -0.6, -0.3,0,0,1024,1024,1024,1024,0,0,0,0,100.3,1.2,1.1,75,4.034,4.04,4.04,4.033,0,0,2.2,103.91,1692.909034488,0,10,Assisted_Takeoff,
289500,2025-09-03 05:41:42,48.1487076075499,11.5721334213415,0,,,1692.909034488,0.328084,0,10.95718539,0.83645343884,6,0,16.086,1692.909034488,0,0,11.6804793764,0,0,0,187.2, -0.5, -0.3,0,0,1024,1024,1024,1024,0,0,0,0,100.2,1.2,1.1,75,4.034,4.04,4.04,4.033,0,0,2.2,103.91,1692.909034488,0,10,Assisted_Takeoff,
289600,2025-09-03 05:41:42,48.1487076268762,11.5721334597628,0,,,1692.909034488,0.328084,0,10.945538408,0.84816603764,6,0,16.086,1692.909034488,0,0,11.6804793764,0,0,0,187.2, -0.5, -0.3,0,0,1024,1024,1024,1024,0,0,0,0,100.2,1.2,1.1,75,4.034,4.04,4.04,4.033,0,0,2.2,103.91,1692.909034488,0,10,Assisted_Takeoff,
289700,2025-09-03 05:41:42,48.1487076453232,11.5721334982933,0,,,1692.909034488,0.328084,0,10.9341210848,0.85970803276,6,0,16.086,1692.909034488,0,0,11.6804793764,0,0,0,187.2, -0.5, -0.3,0,0,1024,1024,1024,1024,0,0,0,0,100.1,1.2,0.9,75,4.034,4.04,4.04,4.033,0,0,2.2,103.91,1692.909034488,0,10,Assisted_Takeoff,
289800,2025-09-03 05:41:42,48.1487076636465,11.572133537132,0,,,1692.909034488,0.328084,0,10.9227037616,0.87128939796,6,0,16.086,1692.909034488,0,0,11.6804793764,0,0,0,187.2, -0.5, -0.3,0,0,1024,1024,1024,1024,0,0,0,0,100.1,1.3,1,75,4.034,4.04,4.04,4.033,0,0,2.2,103.91,1692.909034488,0,10,Assisted_Takeoff,
289900,2025-09-03 05:41:42,48.1487076825951,11.5721335759834,0,,,1692.909034488,0.328084,0,10.911089588,0.8830052776,6,0,16.086,1692.909034488,0,0,11.6804793764,0,0,0,187.2, -0.5, -0.4,0,0,1024,1024,1024,1024,0,0,0,0,100.1,1.3,1,75,4.034,4.04,4.04,4.033,0,0,2.2,103.91,1692.909034488,0,10,Assisted_Takeoff,
290000,2025-09-03 05:41:43,48.1487077010942,11.5721336147001,0,,,1692.909034488,0.328084,0,10.899606648,0.89459648532,6,0,16.086,1692.909034488,0,0,11.6804793764,0,0,0,187.2, -0.5, -0.3,0,0,1024,1024,1024,1024,0,0,0,0,100,1.2,1,75,4.034,4.04,4.04,4.033,0,0,2.2,103.91,1692.909034488,0,10,Assisted_Takeoff,
290100,2025-09-03 05:41:43,48.1487077191439,11.5721336542834,0,,,1692.909034488,0.328084,0,10.888123708,0.9062664332,6,0,16.086,1692.909034488,0,0,11.6804793764,0,0,0,187.2, -0.5, -0.3,0,0,1024,1024,1024,1024,0,0,0,0,99.9,1.3,1,75,4.034,4.04,4.04,4.033,0,0,2.2,103.91,1692.909034488,0,10,Assisted_Takeoff,
290200,2025-09-03 05:41:43,48.1487077370242,11.5721336943225,0,,,1692.909034488,0.328084,0,10.8765751512,0.9179954362,6,0,16.086,1692.909034488,0,0,11.6804793764,0,0,0,187.2, -0.6, -0.4,0,0,1024,1024,1024,1024,0,0,0,0,99.8,1.3,1,75,4.034,4.04,4.04,4.033,0,0,2.2,103.91,1692.909034488,0,10,Assisted_Takeoff,
290300,2025-09-03 05:41:43,48.1487077542271,11.5721337349073,0,,,1692.909034488,0.328084,0,10.8651250196,0.92970147332,6,0,16.086,1692.909034488,0,0,11.6804793764,0,0,0,187.2, -0.5, -0.4,0,0,1024,1024,1024,1024,0,0,0,0,99.8,1.3,0.8,75,4.034,4.04,4.04,4.033,0,0,2.2,103.91,1692.909034488,0,10,Assisted_Takeoff,
290400,2025-09-03 05:41:43,48.1487077710196,11.5721337758772,0,,,1692.909034488,0.328084,0,10.8537076964,0.9414042296,6,0,16.086,1692.909034488,0,0,11.6804793764,0,0,0,187.2, -0.6, -0.3,0,0,1024,1024,1024,1024,0,0,0,0,99.7,1.3,0.8,75,4.034,4.04,4.04,4.033,0,0,2.2,103.91,1692.909034488,0,10,Assisted_Takeoff,
290500,2025-09-03 05:41:43,48.1487077874994,11.5721338170397,0,,,1692.909034488,0.328084,0,10.8423231816,0.95309058168,6,0,16.086,1692.909034488,0,0,11.6804793764,0,0,0,187.2, -0.5, -0.3,0,0,1024,1024,1024,1024,0,0,0,0,99.6,1.3,0.8,75,4.034,4.04,4.04,4.033,0,0,2.2,103.91,1692.909034488,0,10,Assisted_Takeoff,
290600,2025-09-03 05:41:43,48.148707804064,11.5721338587415,0,,,1692.909034488,0.328084,0,10.8308074332,0.96490488652,6,0,16.086,1692.909034488,0,0,11.6804793764,0,0,0,187.2, -0.5, -0.4,0,0,1024,1024,1024,1024,0,0,0,0,99.6,1.3,0.8,75,4.034,4.04,4.04,4.033,0,0,2.2,103.91,1692.909034488,0,10,Assisted_Takeoff,
290700,2025-09-03 05:41:43,48.1487078201269,11.572133900623,0,,,1692.909034488,0.328084,0,10.8194229184,0.97666341708,6,0,16.086,1692.909034488,0,0,11.6804793764,0,0,0,187.2, -0.5, -0.4,0,0,1024,1024,1024,1024,0,0,0,0,99.5,1.3,0.8,75,4.034,4.04,4.04,4.033,0,0,2.2,103.91,1692.909034488,0,10,Assisted_Takeoff,
290800,2025-09-03 05:41:43,48.1487078365026,11.5721339426779,0,,,1692.909034488,0.328084,0,10.80790717,0.988517092,5,0,16.086,1692.909034488,0,0,11.6804793764,0,0,0,187.2, -0.6, -0.4,0,0,1024,1024,1024,1024,0,0,0,0,99.5,1.4,0.6,75,4.034,4.04,4.04,4.033,0,0,2.2,103.91,1692.909034488,0,10,Assisted_Takeoff,
290900,2025-09-03 05:41:43,48.1487078526632,11.5721339848804,0,,,1692.909034488,0.328084,0,10.7964570384,1.0003609244,5,0,16.086,1692.909034488,0,0,11.6804793764,0,0,0,187.2, -0.5, -0.4,0,0,1024,1024,1024,1024,0,0,0,0,99.4,1.4,0.6,75,4.034,4.04,4.04,4.033,0,0,2.2,103.91,1692.909034488,0,10,Assisted_Takeoff,
291000,2025-09-03 05:41:43,48.1487078685829,11.5721340282513,0,,,1692.909034488,0.328084,0,10.7848428648,1.01241144972,6,0,16.083,1692.909034488,0,0,11.6804793764,0,0,0,187.2, -0.5, -0.4,0,0,1024,1024,1024,1024,0,0,0,0,99.4,1.4,0.6,75,4.034,4.04,4.04,4.032,0,0,2.194,103.91,1692.909034488,0,10,Assisted_Takeoff,
291100,2025-09-03 05:41:44,48.1487078843593,11.5721340719174,0,,,1692.909034488,0.328084,0,10.7731958828,1.02450134512,6,0,16.083,1692.909034488,0,0,11.6804793764,0,0,0,187.2, -0.5, -0.4,0,0,1024,1024,1024,1024,0,0,0,0,99.4,1.4,0.6,75,4.034,4.04,4.04,4.032,0,0,2.194,103.91,1692.909034488,0,10,Assisted_Takeoff,
291200,2025-09-03 05:41:44,48.1487078996732,11.5721341162192,0,,,1692.909034488,0.328084,0,10.7615817092,1.0366470148,6,0,16.083,1692.909034488,0,0,11.6804793764,0,0,0,187.2, -0.5, -0.4,0,0,1024,1024,1024,1024,0,0,0,0,99.3,1.4,0.5,75,4.034,4.04,4.04,4.032,0,0,2.194,103.91,1692.909034488,0,10,Assisted_Takeoff,
291300,2025-09-03 05:41:44,48.1487079150848,11.5721341612784,0,,,1692.909034488,0.328084,0,10.7498034936,1.04897313068,6,0,16.083,1692.909034488,0,0,11.6804793764,0,0,0,187.2, -0.6, -0.4,0,0,1024,1024,1024,1024,0,0,0,0,99.3,1.4,0.4,75,4.034,4.04,4.04,4.032,0,0,2.194,103.91,1692.909034488,0,10,Assisted_Takeoff,
291400,2025-09-03 05:41:44,48.1487079298059,11.5721342067035,0,,,1692.909034488,0.328084,0,10.7381237032,1.06126643816,6,0,16.083,1692.909034488,0,0,11.6804793764,0,0,0,187.2, -0.5, -0.4,0,0,1024,1024,1024,1024,0,0,0,0,99.2,1.4,0.5,75,4.034,4.04,4.04,4.032,0,0,2.194,103.91,1692.909034488,0,10,Assisted_Takeoff,
291500,2025-09-03 05:41:44,48.1487079452045,11.5721342525781,0,,,1692.909034488,0.328084,0,10.726214254,1.07376643856,6,0,16.083,1692.909034488,0,0,11.6804793764,0,0,0,187.3, -0.5, -0.4,0,0,1024,1024,1024,1024,0,0,0,0,99.2,1.4,0.4,75,4.034,4.04,4.04,4.032,0,0,2.194,103.91,1692.909034488,0,10,Assisted_Takeoff,
291600,2025-09-03 05:41:44,48.1487079600103,11.5721342988699,0,,,1692.909034488,0.328084,0,10.7143704216,1.08626315812,5,0,16.083,1692.909034488,0,0,11.6804793764,0,0,0,187.3, -0.6, -0.4,0,0,1024,1024,1024,1024,0,0,0,0,99.1,1.4,0.4,75,4.034,4.04,4.04,4.032,0,0,2.194,103.91,1692.909034488,0,10,Assisted_Takeoff,
291700,2025-09-03 05:41:44,48.1487079744643,11.572134345611,0,,,1692.909034488,0.328084,0,10.7025593976,1.0988025286,5,0,16.083,1692.909034488,0,0,11.6804793764,0,0,0,187.2, -0.6, -0.4,0,0,1024,1024,1024,1024,0,0,0,0,99,1.4,0.3,75,4.034,4.04,4.04,4.032,0,0,2.194,103.91,1692.909034488,0,10,Assisted_Takeoff,
291800,2025-09-03 05:41:44,48.1487079885536,11.5721343932959,0,,,1692.909034488,0.328084,0,10.6906827568,1.1114993794,5,0,16.083,1692.909034488,0,0,11.6804793764,0,0,0,187.3, -0.6, -0.4,0,0,1024,1024,1024,1024,0,0,0,0,99,1.4,0.3,75,4.034,4.04,4.04,4.032,0,0,2.194,103.91,1692.909034488,0,10,Assisted_Takeoff,
291900,2025-09-03 05:41:44,48.1487080028644,11.5721344415778,0,,,1692.909034488,0.328084,0,10.6786092656,1.1243602722,5,0,16.083,1692.909034488,0,0,11.6804793764,0,0,0,187.3, -0.5, -0.4,0,0,1024,1024,1024,1024,0,0,0,0,98.9,1.5,0.3,75,4.034,4.04,4.04,4.032,0,0,2.194,103.91,1692.909034488,0,10,Assisted_Takeoff,
292000,2025-09-03 05:41:45,48.1487080167648,11.572134490707,0,,,1692.909034488,0.328084,0,10.6665357744,1.13734911776,5,0,16.084,1692.909034488,0,0,11.6804793764,0,0,0,187.3, -0.6, -0.4,0,0,1024,1024,1024,1024,0,0,0,0,98.9,1.4,0.2,75,4.034,4.04,4.04,4.032,0,0,2.194,103.91,1692.909034488,0,10,Assisted_Takeoff,
292100,2025-09-03 05:41:45,48.1487080307499,11.5721345409854,0,,,1692.909034488,0.328084,0,10.6542326244,1.15061027304,5,0,16.084,1692.909034488,0,0,11.6804793764,0,0,0,187.3, -0.6, -0.4,0,0,1024,1024,1024,1024,0,0,0,0,98.8,1.4,0.2,75,4.034,4.04,4.04,4.032,0,0,2.194,103.91,1692.909034488,0,10,Assisted_Takeoff,
292200,2025-09-03 05:41:45,48.1487080445982,11.5721345921882,0,,,1692.909034488,0.328084,0,10.6417982408,1.1640584362,5,0,16.084,1692.909034488,0,0,11.6804793764,0,0,0,187.3, -0.5, -0.4,0,0,1024,1024,1024,1024,0,0,0,0,98.8,1.4,0.1,75,4.034,4.04,4.04,4.032,0,0,2.194,103.91,1692.909034488,0,10,Assisted_Takeoff,
292300,2025-09-03 05:41:45,48.14870805872,11.5721346444374,0,,,1692.909034488,0.328084,0,10.62910139,1.17778218992,5,0,16.084,1692.909034488,0,0,11.6804793764,0,0,0,187.3, -0.5, -0.4,0,0,1024,1024,1024,1024,0,0,0,0,98.7,1.4,0.1,75,4.034,4.04,4.04,4.032,0,0,2.194,103.91,1692.909034488,0,10,Assisted_Takeoff,
292400,2025-09-03 05:41:45,48.1487080729852,11.5721346976174,0,,,1692.909034488,0.328084,0,10.6162404972,1.1917323216,5,0,16.084,1692.909034488,0,0,11.6804793764,0,0,0,187.3, -0.6, -0.4,0,0,1024,1024,1024,1024,0,0,0,0,98.6,1.4,0.1,75,4.034,4.04,4.04,4.032,0,0,2.194,103.91,1692.909034488,0,10,Assisted_Takeoff,
292500,2025-09-03 05:41:45,48.1487080869768,11.5721347520108,0,,,1692.909034488,0.328084,0,10.6032155624,1.20592523544,5,0,16.084,1692.909034488,0,0,11.6804793764,0,0,0,187.3, -0.6, -0.4,0,0,1024,1024,1024,1024,0,0,0,0,98.6,1.4,0.1,75,4.034,4.04,4.04,4.032,0,0,2.194,103.91,1692.909034488,0,10,Assisted_Takeoff,
292600,2025-09-03 05:41:45,48.1487081003691,11.5721348080026,0,,,1692.909034488,0.328084,0,10.5900922024,1.22040358236,5,0,16.084,1692.909034488,0,0,11.6804793764,0,0,0,187.3, -0.6, -0.4,0,0,1024,1024,1024,1024,0,0,0,0,98.6,1.5,0,75,4.034,4.04,4.04,4.032,0,0,2.194,103.91,1692.909034488,0,10,Assisted_Takeoff,
292700,2025-09-03 05:41:45,48.1487081134748,11.5721348646171,0,,,1692.909034488,0.328084,0,10.5769032256,1.234990197,5,0,16.084,1692.909034488,0,0,11.6804793764,0,0,0,187.3, -0.6, -0.4,0,0,1024,1024,1024,1024,0,0,0,0,98.5,1.5,0,75,4.034,4.04,4.04,4.032,0,0,2.194,103.91,1692.909034488,0,10,Assisted_Takeoff,
292800,2025-09-03 05:41:45,48.148708126574,11.5721349226119,0,,,1692.909034488,0.328084,0,10.5635173984,1.24989505312,5,0,16.084,1692.909034488,0,0,11.6804793764,0,0,0,187.3, -0.6, -0.4,0,0,1024,1024,1024,1024,0,0,0,0,98.5,1.5,0,75,4.034,4.04,4.04,4.032,0,0,2.194,103.91,1692.909034488,0,10,Assisted_Takeoff,
292900,2025-09-03 05:41:45,48.1487081392238,11.5721349812678,0,,,1692.909034488,0.328084,0,10.5501315712,1.26490161528,5,0,16.084,1692.909034488,0,0,11.6804793764,0,0,0,187.3, -0.6, -0.4,0,0,1024,1024,1024,1024,0,0,0,0,98.4,1.4,0,75,4.034,4.04,4.04,4.032,0,0,2.194,103.91,1692.909034488,0,10,Assisted_Takeoff,
293000,2025-09-03 05:41:45,48.1487081517172,11.5721350400008,0,,,1692.909034488,0.328084,0,10.536745744,1.27990817744,5,0,16.087,1692.909034488,0,0,11.6804793764,0,0,0,187.3, -0.6, -0.4,0,0,1024,1024,1024,1024,0,0,0,0,98.3,1.4,0,75,4.034,4.04,4.04,4.032,0,0,2.212,103.91,1692.909034488,0,10,Assisted_Takeoff,
293100,2025-09-03 05:41:46,48.1487081637742,11.5721350997546,0,,,1692.909034488,0.328084,0,10.5233271084,1.29510502832,5,0,16.087,1692.909034488,0,0,11.6804793764,0,0,0,187.3, -0.6, -0.4,0,0,1024,1024,1024,1024,0,0,0,0,98.3,1.5,-0.1,75,4.034,4.04,4.04,4.032,0,0,2.212,103.91,1692.909034488,0,10,Assisted_Takeoff,
293200,2025-09-03 05:41:46,48.1487081751668,11.5721351593991,0,,,1692.909034488,0.328084,0,10.5101053232,1.31020673484,5,0,16.087,1692.909034488,0,0,11.6804793764,0,0,0,187.3, -0.6, -0.4,0,0,1024,1024,1024,1024,0,0,0,0,98.2,1.5,0,75,4.034,4.04,4.04,4.032,0,0,2.212,103.91,1692.909034488,0,10,Assisted_Takeoff,
293300,2025-09-03 05:41:46,48.1487081861946,11.5721352209247,0,,,1692.909034488,0.328084,0,10.4966538792,1.32571526552,5,0,16.087,1692.909034488,0,0,11.6804793764,0,0,0,187.3, -0.6, -0.4,0,0,1024,1024,1024,1024,0,0,0,0,98.2,1.5,-0.1,75,4.034,4.04,4.04,4.032,0,0,2.212,103.91,1692.909034488,0,10,Assisted_Takeoff,
293400,2025-09-03 05:41:46,48.1487081967665,11.5721352838497,0,,,1692.909034488,0.328084,0,10.4830712016,1.34150922928,5,0,16.087,1692.909034488,0,0,11.6804793764,0,0,0,187.3, -0.6, -0.4,0,0,1024,1024,1024,1024,0,0,0,0,98.1,1.5,-0.1,75,4.034,4.04,4.04,4.032,0,0,2.212,103.91,1692.909034488,0,10,Assisted_Takeoff,
293500,2025-09-03 05:41:46,48.1487082063092,11.5721353476798,0,,,1692.909034488,0.328084,0,10.4696197576,1.35743442664,5,0,16.087,1692.909034488,0,0,11.6804793764,0,0,0,187.3, -0.6, -0.4,0,0,1024,1024,1024,1024,0,0,0,0,98,1.5,-0.3,75,4.034,4.04,4.04,4.032,0,0,2.212,103.91,1692.909034488,0,10,Assisted_Takeoff,
293600,2025-09-03 05:41:46,48.1487082152135,11.5721354114009,0,,,1692.909034488,0.328084,0,10.456365164,1.37328088384,5,0,16.087,1692.909034488,0,0,11.6804793764,0,0,0,187.3, -0.6, -0.4,0,0,1024,1024,1024,1024,0,0,0,0,98,1.5,-0.3,75,4.034,4.04,4.04,4.032,0,0,2.212,103.91,1692.909034488,0,10,Assisted_Takeoff,
293700,2025-09-03 05:41:46,48.1487082235251,11.5721354759886,0,,,1692.909034488,0.328084,0,10.4431105704,1.38929466388,5,0,16.087,1692.909034488,0,0,11.6804793764,0,0,0,187.3, -0.6, -0.4,0,0,1024,1024,1024,1024,0,0,0,0,98,1.5,-0.3,75,4.034,4.04,4.04,4.032,0,0,2.212,103.91,1692.909034488,0,10,Assisted_Takeoff,
293800,2025-09-03 05:41:46,48.1487082314263,11.5721355415199,0,,,1692.909034488,0.328084,0,10.42979036,1.40550529432,5,0,16.087,1692.909034488,0,0,11.6804793764,0,0,0,187.3, -0.6, -0.4,0,0,1024,1024,1024,1024,0,0,0,0,97.9,1.5,-0.2,75,4.034,4.04,4.04,4.032,0,0,2.212,103.91,1692.909034488,0,10,Assisted_Takeoff,
293900,2025-09-03 05:41:46,48.1487082389497,11.5721356076355,0,,,1692.909034488,0.328084,0,10.416502958,1.42183075416,5,0,16.087,1692.909034488,0,0,11.6804793764,0,0,0,187.3, -0.6, -0.4,0,0,1024,1024,1024,1024,0,0,0,0,97.9,1.5,-0.3,75,4.034,4.04,4.04,4.032,0,0,2.212,103.91,1692.909034488,0,10,Assisted_Takeoff,
294000,2025-09-03 05:41:46,48.1487082459715,11.5721356738088,0,,,1692.909034488,0.328084,0,10.4033467896,1.43814309064,5,0,16.083,1692.909034488,0,0,11.6804793764,0,0,0,187.3, -0.6, -0.4,0,0,1024,1024,1024,1024,0,0,0,0,97.8,1.5,-0.4,75,4.034,4.04,4.04,4.032,0,0,2.212,103.91,1692.909034488,0,10,Assisted_Takeoff,
294100,2025-09-03 05:41:47,48.1487082519968,11.5721357410253,0,,,1692.909034488,0.328084,0,10.390256238,1.45465227752,5,0,16.083,1692.909034488,0,0,11.6804793764,0,0,0,187.3, -0.6, -0.4,0,0,1024,1024,1024,1024,0,0,0,0,97.8,1.5,-0.5,75,4.034,4.04,4.04,4.032,0,0,2.212,103.91,1692.909034488,0,10,Assisted_Takeoff,
294200,2025-09-03 05:41:47,48.1487082575074,11.5721358095771,0,,,1692.909034488,0.328084,0,10.3771000696,1.47146002084,5,0,16.083,1692.909034488,0,0,11.6804793764,0,0,0,187.3, -0.6, -0.4,0,0,1024,1024,1024,1024,0,0,0,0,97.7,1.5,-0.5,75,4.034,4.04,4.04,4.032,0,0,2.212,103.91,1692.909034488,0,10,Assisted_Takeoff,
294300,2025-09-03 05:41:47,48.1487082625231,11.5721358789763,0,,,1692.909034488,0.328084,0,10.3639110928,1.4884514912,5,0,16.083,1692.909034488,0,0,11.6804793764,0,0,0,187.3, -0.6, -0.4,0,0,1024,1024,1024,1024,0,0,0,0,97.6,1.5,-0.5,75,4.034,4.04,4.04,4.032,0,0,2.212,103.91,1692.909034488,0,10,Assisted_Takeoff,
294400,2025-09-03 05:41:47,48.1487082667179,11.5721359487863,0,,,1692.909034488,0.328084,0,10.350886158,1.50551514004,5,0,16.083,1692.909034488,0,0,11.6804793764,0,0,0,187.3, -0.6, -0.4,0,0,1024,1024,1024,1024,0,0,0,0,97.6,1.5,-0.5,75,4.034,4.04,4.04,4.032,0,0,2.212,103.91,1692.909034488,0,10,Assisted_Takeoff,
294500,2025-09-03 05:41:47,48.1487082701833,11.5721360196235,0,,,1692.909034488,0.328084,0,10.33792684,1.52280516684,5,0,16.083,1692.909034488,0,0,11.6804793764,0,0,0,187.3, -0.6, -0.4,0,0,1024,1024,1024,1024,0,0,0,0,97.5,1.6,-0.6,75,4.034,4.04,4.04,4.032,0,0,2.212,103.91,1692.909034488,0,10,Assisted_Takeoff,
294600,2025-09-03 05:41:47,48.1487082731145,11.5721360917061,0,,,1692.909034488,0.328084,0,10.3248690968,1.54038390756,5,0,16.083,1692.909034488,0,0,11.6804793764,0,0,0,187.3, -0.6, -0.4,0,0,1024,1024,1024,1024,0,0,0,0,97.5,1.5,-0.6,75,4.034,4.04,4.04,4.032,0,0,2.212,103.91,1692.909034488,0,10,Assisted_Takeoff,
294700,2025-09-03 05:41:47,48.1487082756874,11.5721361649763,0,,,1692.909034488,0.328084,0,10.3117129284,1.55824480052,5,0,16.083,1692.909034488,0,0,11.6804793764,0,0,0,187.3, -0.6, -0.4,0,0,1024,1024,1024,1024,0,0,0,0,97.4,1.5,-0.7,75,4.034,4.04,4.04,4.032,0,0,2.212,103.91,1692.909034488,0,10,Assisted_Takeoff,
294800,2025-09-03 05:41:47,48.1487082779021,11.5721362390521,0,,,1692.909034488,0.328084,0,10.29855676,1.5762959822,5,0,16.083,1692.909034488,0,0,11.6804793764,0,0,0,187.3, -0.6, -0.4,0,0,1024,1024,1024,1024,0,0,0,0,97.3,1.6,-0.7,75,4.034,4.04,4.04,4.032,0,0,2.212,103.91,1692.909034488,0,10,Assisted_Takeoff,
294900,2025-09-03 05:41:47,48.1487082801233,11.572136314001,0,,,1692.909034488,0.328084,0,10.2852365496,1.59455713764,5,0,16.083,1692.909034488,0,0,11.6804793764,0,0,0,187.3, -0.6, -0.4,0,0,1024,1024,1024,1024,0,0,0,0,97.3,1.6,-0.7,75,4.034,4.04,4.04,4.032,0,0,2.212,103.91,1692.909034488,0,10,Assisted_Takeoff,
295000,2025-09-03 05:41:48,48.1487082811069,11.5721363911134,0,,,1692.909034488,0.328084,0,10.2718835308,1.61333338496,5,0,16.085,1692.909034488,0,0,11.6804793764,0,0,0,187.3, -0.6, -0.4,0,0,1024,1024,1024,1024,0,0,0,0,97.2,1.6,-0.7,75,4.034,4.039,4.039,4.032,0,0,2.2,103.91,1692.909034488,0,10,Assisted_Takeoff,
295100,2025-09-03 05:41:48,48.1487082813023,11.5721364693716,0,,,1692.909034488,0.328084,0,10.2585961288,1.632381942,5,0,16.085,1692.909034488,0,0,11.6804793764,0,0,0,187.3, -0.6, -0.4,0,0,1024,1024,1024,1024,0,0,0,0,97.2,1.6,-0.7,75,4.034,4.039,4.039,4.032,0,0,2.2,103.91,1692.909034488,0,10,Assisted_Takeoff,
295200,2025-09-03 05:41:48,48.1487082807747,11.5721365482076,0,,,1692.909034488,0.328084,0,10.245407152,1.651574856,5,0,16.085,1692.909034488,0,0,11.6804793764,0,0,0,187.3, -0.6, -0.4,0,0,1024,1024,1024,1024,0,0,0,0,97.2,1.6,-0.8,75,4.034,4.039,4.039,4.032,0,0,2.2,103.91,1692.909034488,0,10,Assisted_Takeoff,
295300,2025-09-03 05:41:48,48.1487082800842,11.5721366280387,0,,,1692.909034488,0.328084,0,10.2320869416,1.67101055216,5,0,16.085,1692.909034488,0,0,11.6804793764,0,0,0,187.3, -0.6, -0.4,0,0,1024,1024,1024,1024,0,0,0,0,97.1,1.6,-0.7,75,4.034,4.039,4.039,4.032,0,0,2.2,103.91,1692.909034488,0,10,Assisted_Takeoff,
295400,2025-09-03 05:41:48,48.14870827856,11.5721367095805,0,,,1692.909034488,0.328084,0,10.2187339228,1.69086619584,5,0,16.085,1692.909034488,0,0,11.6804793764,0,0,0,187.3, -0.6, -0.4,0,0,1024,1024,1024,1024,0,0,0,0,97,1.6,-0.8,75,4.034,4.039,4.039,4.032,0,0,2.2,103.91,1692.909034488,0,10,Assisted_Takeoff,
295500,2025-09-03 05:41:48,48.148708276228,11.5721367920436,0,,,1692.909034488,0.328084,0,10.2054793292,1.71095806,5,0,16.085,1692.909034488,0,0,11.6804793764,0,0,0,187.3, -0.6, -0.4,0,0,1024,1024,1024,1024,0,0,0,0,97,1.6,-0.9,75,4.034,4.039,4.039,4.032,0,0,2.2,103.91,1692.909034488,0,10,Assisted_Takeoff,
295600,2025-09-03 05:41:48,48.1487082732056,11.5721368760763,0,,,1692.909034488,0.328084,0,10.1921263104,1.73144362496,5,0,16.085,1692.909034488,0,0,11.6804793764,0,0,0,187.3, -0.6, -0.4,0,0,1024,1024,1024,1024,0,0,0,0,96.9,1.6,-1,75,4.034,4.039,4.039,4.032,0,0,2.2,103.91,1692.909034488,0,10,Assisted_Takeoff,
295700,2025-09-03 05:41:48,48.1487082697924,11.5721369608761,0,,,1692.909034488,0.328084,0,10.1788061,1.75212275948,5,0,16.085,1692.909034488,0,0,11.6804793764,0,0,0,187.3, -0.6, -0.4,0,0,1024,1024,1024,1024,0,0,0,0,96.9,1.6,-1,75,4.034,4.039,4.039,4.032,0,0,2.2,103.91,1692.909034488,0,10,Assisted_Takeoff,
295800,2025-09-03 05:41:48,48.1487082654803,11.5721370472102,0,,,1692.909034488,0.328084,0,10.1654858896,1.77319887564,5,0,16.085,1692.909034488,0,0,11.6804793764,0,0,0,187.3, -0.6, -0.4,0,0,1024,1024,1024,1024,0,0,0,0,96.8,1.6,-1,75,4.034,4.039,4.039,4.032,0,0,2.2,103.91,1692.909034488,0,10,Assisted_Takeoff,
295900,2025-09-03 05:41:48,48.1487082604842,11.572137134488,0,,,1692.909034488,0.328084,0,10.1521984876,1.7945210548,5,0,16.085,1692.909034488,0,0,11.6804793764,0,0,0,187.3, -0.6, -0.4,0,0,1024,1024,1024,1024,0,0,0,0,96.8,1.6,-1.1,75,4.034,4.039,4.039,4.032,0,0,2.2,103.91,1692.909034488,0,10,Assisted_Takeoff,
296000,2025-09-03 05:41:48,48.1487082546414,11.5721372227031,0,,,1692.909034488,0.328084,0,10.1390095108,1.81610242032,5,0,16.084,1692.909034488,0,0,11.6804793764,0,0,0,187.3, -0.6, -0.4,0,0,1024,1024,1024,1024,0,0,0,0,96.7,1.6,-1.2,75,4.034,4.039,4.04,4.032,0,0,2.192,103.91,1692.909034488,0,10,Assisted_Takeoff,
296100,2025-09-03 05:41:49,48.1487082488311,11.5721373105458,0,,,1692.909034488,0.328084,0,10.1259189592,1.83758864148,5,0,16.084,1692.909034488,0,0,11.6804793764,0,0,0,187.3, -0.6, -0.4,0,0,1024,1024,1024,1024,0,0,0,0,96.7,1.6,-1.2,75,4.034,4.039,4.04,4.032,0,0,2.192,103.91,1692.909034488,0,10,Assisted_Takeoff,
296200,2025-09-03 05:41:49,48.1487082419135,11.5721373994734,0,,,1692.909034488,0.328084,0,10.1129596412,1.8593832616,5,0,16.084,1692.909034488,0,0,11.6804793764,0,0,0,187.3, -0.6, -0.4,0,0,1024,1024,1024,1024,0,0,0,0,96.6,1.6,-1.2,75,4.034,4.039,4.04,4.032,0,0,2.192,103.91,1692.909034488,0,10,Assisted_Takeoff,
296300,2025-09-03 05:41:49,48.1487082344226,11.572137488921,0,,,1692.909034488,0.328084,0,10.1000987484,1.88132880036,5,0,16.084,1692.909034488,0,0,11.6804793764,0,0,0,187.3, -0.6, -0.4,0,0,1024,1024,1024,1024,0,0,0,0,96.5,1.6,-1.3,75,4.034,4.039,4.04,4.032,0,0,2.192,103.91,1692.909034488,0,10,Assisted_Takeoff,
296400,2025-09-03 05:41:49,48.1487082265735,11.5721375792257,0,,,1692.909034488,0.328084,0,10.0872378556,1.90349743624,5,0,16.084,1692.909034488,0,0,11.6804793764,0,0,0,187.3, -0.6, -0.4,0,0,1024,1024,1024,1024,0,0,0,0,96.5,1.6,-1.3,75,4.034,4.039,4.04,4.032,0,0,2.192,103.91,1692.909034488,0,10,Assisted_Takeoff,
296500,2025-09-03 05:41:49,48.1487082182619,11.5721376702493,0,,,1692.909034488,0.328084,0,10.0743769628,1.92586292252,5,0,16.084,1692.909034488,0,0,11.6804793764,0,0,0,187.3, -0.6, -0.4,0,0,1024,1024,1024,1024,0,0,0,0,96.5,1.6,-1.3,75,4.034,4.039,4.04,4.032,0,0,2.192,103.91,1692.909034488,0,10,Assisted_Takeoff,
296600,2025-09-03 05:41:49,48.1487082098266,11.5721377606759,0,,,1692.909034488,0.328084,0,10.0617129204,1.94808733268,5,0,16.084,1692.909034488,0,0,11.6804793764,0,0,0,187.3, -0.6, -0.4,0,0,1024,1024,1024,1024,0,0,0,0,96.4,1.6,-1.4,75,4.034,4.039,4.04,4.032,0,0,2.192,103.91,1692.909034488,0,10,Assisted_Takeoff,
296700,2025-09-03 05:41:49,48.1487082006422,11.5721378525373,0,,,1692.909034488,0.328084,0,10.049048878,1.97069888196,5,0,16.084,1692.909034488,0,0,11.6804793764,0,0,0,187.3, -0.6, -0.4,0,0,1024,1024,1024,1024,0,0,0,0,96.4,1.6,-1.4,75,4.034,4.039,4.04,4.032,0,0,2.192,103.91,1692.909034488,0,10,Assisted_Takeoff,
296800,2025-09-03 05:41:49,48.1487081912884,11.5721379451754,0,,,1692.909034488,0.328084,0,10.0363192188,1.99350728164,5,0,16.084,1692.909034488,0,0,11.6804793764,0,0,0,187.3, -0.6, -0.4,0,0,1024,1024,1024,1024,0,0,0,0,96.3,1.6,-1.4,75,4.034,4.039,4.04,4.032,0,0,2.192,103.91,1692.909034488,0,10,Assisted_Takeoff,
296900,2025-09-03 05:41:49,48.1487081817848,11.5721380382919,0,,,1692.909034488,0.328084,0,10.0235895596,2.0164370724,5,0,16.084,1692.909034488,0,0,11.6804793764,0,0,0,187.3, -0.6, -0.4,0,0,1024,1024,1024,1024,0,0,0,0,96.3,1.7,-1.5,75,4.034,4.039,4.04,4.032,0,0,2.192,103.91,1692.909034488,0,10,Assisted_Takeoff,
297000,2025-09-03 05:41:49,48.1487081722161,11.5721381319572,0,,,1692.909034488,0.328084,0,10.010827092,2.03950465844,5,0,16.087,1692.909034488,0,0,11.6804793764,0,0,0,187.3, -0.6, -0.4,0,0,1024,1024,1024,1024,0,0,0,0,96.2,1.7,-1.5,75,4.034,4.039,4.04,4.032,0,0,2.188,103.91,1692.909034488,0,10,Assisted_Takeoff,
297100,2025-09-03 05:41:50,48.1487081619243,11.5721382262805,0,,,1692.909034488,0.328084,0,9.998195858,2.06276909488,5,0,16.087,1692.909034488,0,0,11.6804793764,0,0,0,187.3, -0.6, -0.4,0,0,1024,1024,1024,1024,0,0,0,0,96.1,1.7,-1.5,75,4.034,4.039,4.04,4.032,0,0,2.188,103.91,1692.909034488,0,10,Assisted_Takeoff,
297200,2025-09-03 05:41:50,48.1487081507923,11.5721383210724,0,,,1692.909034488,0.328084,0,9.9857614744,2.08620085416,5,0,16.087,1692.909034488,0,0,11.6804793764,0,0,0,187.3, -0.6, -0.4,0,0,1024,1024,1024,1024,0,0,0,0,96.1,1.7,-1.6,75,4.034,4.039,4.04,4.032,0,0,2.188,103.91,1692.909034488,0,10,Assisted_Takeoff,
297300,2025-09-03 05:41:50,48.1487081393671,11.5721384164935,0,,,1692.909034488,0.328084,0,9.9733270908,2.10979993628,5,0,16.087,1692.909034488,0,0,11.6804793764,0,0,0,187.3, -0.6, -0.4,0,0,1024,1024,1024,1024,0,0,0,0,96,1.7,-1.6,75,4.034,4.039,4.04,4.032,0,0,2.188,103.91,1692.909034488,0,10,Assisted_Takeoff,
297400,2025-09-03 05:41:50,48.1487081280201,11.5721385120686,0,,,1692.909034488,0.328084,0,9.9608927072,2.13342854596,5,0,16.087,1692.909034488,0,0,11.6804793764,0,0,0,187.3, -0.6, -0.4,0,0,1024,1024,1024,1024,0,0,0,0,96,1.7,-1.8,75,4.034,4.039,4.04,4.032,0,0,2.188,103.91,1692.909034488,0,10,Assisted_Takeoff,
297500,2025-09-03 05:41:50,48.148708115696,11.5721386089662,0,,,1692.909034488,0.328084,0,9.9485567488,2.15744101392,5,0,16.087,1692.909034488,0,0,11.6804793764,0,0,0,187.3, -0.6, -0.4,0,0,1024,1024,1024,1024,0,0,0,0,95.9,1.7,-1.8,75,4.034,4.039,4.04,4.032,0,0,2.188,103.91,1692.909034488,0,10,Assisted_Takeoff,
297600,2025-09-03 05:41:50,48.1487081028053,11.5721387063934,0,,,1692.909034488,0.328084,0,9.936352024,2.18162080472,5,0,16.087,1692.909034488,0,0,11.6804793764,0,0,0,187.4, -0.6, -0.4,0,0,1024,1024,1024,1024,0,0,0,0,95.9,1.7,-1.8,75,4.034,4.039,4.04,4.032,0,0,2.188,103.91,1692.909034488,0,10,Assisted_Takeoff,
297700,2025-09-03 05:41:50,48.1487080893152,11.5721388041512,0,,,1692.909034488,0.328084,0,9.9242785328,2.2059219866,5,0,16.087,1692.909034488,0,0,11.6804793764,0,0,0,187.4, -0.6, -0.4,0,0,1024,1024,1024,1024,0,0,0,0,95.9,1.7,-1.8,75,4.034,4.039,4.04,4.032,0,0,2.188,103.91,1692.909034488,0,10,Assisted_Takeoff,
297800,2025-09-03 05:41:50,48.1487080754474,11.5721389024867,0,,,1692.909034488,0.328084,0,9.91223785,2.23038721048,5,0,16.087,1692.909034488,0,0,11.6804793764,0,0,0,187.4, -0.6, -0.4,0,0,1024,1024,1024,1024,0,0,0,0,95.8,1.7,-1.7,75,4.034,4.039,4.04,4.032,0,0,2.188,103.91,1692.909034488,0,10,Assisted_Takeoff,
297900,2025-09-03 05:41:50,48.1487080609412,11.5721390017242,0,,,1692.909034488,0.328084,0,9.9002955924,2.2551181824,5,0,16.087,1692.909034488,0,0,11.6804793764,0,0,0,187.4, -0.6, -0.4,0,0,1024,1024,1055,1024,0,0,5,0,95.7,1.7,-1.7,75,4.034,4.039,4.04,4.032,0,0,2.188,103.91,1692.909034488,0,10,Assisted_Takeoff,
298000,2025-09-03 05:41:51,48.1487080462527,11.5721391011576,0,,,1692.909034488,0.328084,0,9.8884189516,2.27990820944,5,0,16.085,1692.909034488,0,0,11.6804793764,0,0,0,187.4, -0.6, -0.4,0,0,1024,1024,1105,1024,0,0,12,0,95.6,1.7,-1.8,75,4.034,4.039,4.04,4.032,0,0,2.204,103.91,1692.909034488,0,10,Assisted_Takeoff,
298100,2025-09-03 05:41:51,48.1487080308802,11.5721392006262,0,,,1692.909034488,0.328084,0,9.8767719696,2.30476385328,5,0,16.085,1692.909034488,0,0,11.6804793764,0,0,0,187.4, -0.6, -0.3,0,0,1024,1024,1124,1024,0,0,15,0,95.6,1.7,-1.9,75,4.034,4.039,4.04,4.032,0,0,2.204,103.91,1692.909034488,0,10,Assisted_Takeoff,
298200,2025-09-03 05:41:51,48.148708015221,11.5721393005313,0,,,1692.909034488,0.328084,0,9.8651906044,2.32974416904,5,0,16.085,1692.909034488,0,0,11.6804793764,0,0,0,187.4, -0.6, -0.4,0,0,1024,1024,1161,1024,0,0,21,0,95.5,1.7,-1.9,75,4.034,4.039,4.04,4.032,0,0,2.204,103.91,1692.909034488,0,10,Assisted_Takeoff,
298300,2025-09-03 05:41:51,48.1487079996727,11.5721394008409,0,,,1692.909034488,0.328084,0,9.8535764308,2.35481306748,5,0,16.085,1692.909034488,0,0,11.6804793764,0,0,0,187.4, -0.6, -0.4,0,0,1024,1024,1163,1024,0,0,21,0,95.5,1.7,-1.9,75,4.034,4.039,4.04,4.032,0,0,2.204,103.91,1692.909034488,0,10,Assisted_Takeoff,
298400,2025-09-03 05:41:51,48.1487079836488,11.5721395018021,0,,,1692.909034488,0.328084,0,9.842027874,2.38007553548,5,0,16.085,1692.909034488,0,0,11.6804793764,0,0,0,187.4, -0.6, -0.4,0,0,1024,1024,1162,1024,0,0,21,0,95.4,1.7,-1.8,75,4.034,4.039,4.04,4.032,0,0,2.204,103.91,1692.909034488,0,10,Assisted_Takeoff,
298500,2025-09-03 05:41:51,48.1487079661528,11.5721396024841,0,,,1692.909034488,0.328084,0,9.8309714432,2.40540033944,5,0,16.085,1692.909034488,0,0,11.6804793764,0,0,0,187.4, -0.6, -0.4,0,0,1024,1024,1168,1024,0,0,22,0,95.3,1.7,-1.8,75,4.034,4.039,4.04,4.032,0,0,2.204,103.91,1692.909034488,0,10,Assisted_Takeoff,
298600,2025-09-03 05:41:51,48.1487079484548,11.5721397036025,0,,,1692.909034488,0.328084,0,9.8199806292,2.43084981532,5,0,16.085,1692.909034488,0,0,11.6804793764,0,0,0,187.4, -0.6, -0.4,0,0,1024,1024,1171,1024,0,0,22,0,95.2,1.7,-1.8,75,4.034,4.039,4.04,4.032,0,0,2.204,103.91,1692.909034488,0,10,Assisted_Takeoff,
298700,2025-09-03 05:41:51,48.148707930568,11.5721398060948,0,,,1692.909034488,0.328084,0,9.8088585816,2.45663721772,5,0,16.085,1692.909034488,0,0,11.6804793764,0,0,0,187.4, -0.7, -0.4,0,0,1024,1024,1173,1024,0,0,23,0,95.2,1.6,-1.7,75,4.034,4.039,4.04,4.032,0,0,2.204,103.91,1692.909034488,0,10,Assisted_Takeoff,
298800,2025-09-03 05:41:51,48.1487079104339,11.5721399068473,0,,,1692.909034488,0.328084,0,9.7986879776,2.48224089308,5,0,16.085,1692.909034488,0,0,11.6804793764,0,0,0,187.4, -0.7, -0.4,0,0,1024,1024,1175,1024,0,0,23,0,95.2,1.7,-1.6,75,4.034,4.039,4.04,4.032,0,0,2.204,103.91,1692.909034488,0,10,Assisted_Takeoff,
298900,2025-09-03 05:41:51,48.1487078892055,11.5721400101645,0,,,1692.909034488,0.328084,0,9.7884845652,2.50855651072,5,0,16.085,1692.909034488,0,0,11.6804793764,0,0,0,187.4, -0.8, -0.4,0,0,1024,1024,1180,1024,0,0,24,0,95,1.5,-1.4,75,4.034,4.039,4.04,4.032,0,0,2.204,103.91,1692.909034488,0,10,Assisted_Takeoff,
299000,2025-09-03 05:41:51,48.1487078688174,11.5721401116682,0,,,1692.909034488,0.328084,0,9.7784123864,2.53436031732,5,0,16.01,1692.909034488,0,0,11.6804793764,0,0,0,187.4, -0.9, -0.3,0,0,1024,1024,1182,1024,0,0,24,0,95,1.5,-1.4,75,4.033,4.039,4.04,4.032,0,0,2.204,103.91,1692.909034488,0,10,Assisted_Takeoff,
299100,2025-09-03 05:41:52,48.1487078420653,11.5721402127288,0,,,1692.909034488,0.328084,0,9.7702430948,2.5608268536,5,0,16.01,1692.909034488,0,0,11.6804793764,0,0,0,187.4, -1.4, -0.4,0,0,1024,1024,1184,1024,0,0,24,0,95.1,1.2,-0.9,75,4.033,4.039,4.04,4.032,0,0,2.204,103.91,1692.909034488,0,10,Assisted_Takeoff,
299200,2025-09-03 05:41:52,48.148707796534,11.5721403177504,0,,,1692.909034488,0.328084,0,9.7667982128,2.59131569972,5,0,16.01,1692.909034488,0,0,11.6804793764,0,0,0,187.6, -2.7, -0.5,0,0,1024,1024,1178,1024,0,0,23,0,95,-0.2,-0.6,75,4.033,4.039,4.04,4.032,0,0,2.204,103.91,1692.909034488,0,10,Assisted_Takeoff,
299300,2025-09-03 05:41:52,48.1487077174112,11.5721404202555,0,,,1692.909034488,0.656168,0,9.7733598928,2.62947186892,5,0,16.01,1692.909034488,0,0,11.6804793764,0,0,-0.223694,187.8, -3.3, -0.5,0,0,1024,1024,1176,1024,0,0,23,0,95.1,-1.1,-0.8,75,4.033,4.039,4.04,4.032,0,0,2.204,103.91,1692.909034488,0,10,Assisted_Takeoff,
299400,2025-09-03 05:41:52,48.1487075950695,11.5721405175319,0,,,1692.909034488,0.656168,0.223694,9.793143358,2.68000008576,5,0,16.01,1692.909034488,0,0.223694,11.6804793764,-0.223694,0,-0.447388,187.8, -2.8, 0.2,0,0,1024,1024,1171,1024,0,0,22,0,95.6,-0.3,0.4,75,4.033,4.039,4.04,4.032,0,0,2.204,103.91,1692.909034488,0,6,P-GPS,
299500,2025-09-03 05:41:52,48.148707429144,11.5721405924679,0,,,1692.909034488,0.656168,0.223694,9.8289373224,2.74322843424,5,0,16.01,1692.909034488,0,0.223694,11.6804793764,-0.223694,0,-0.671082,187.7, -0.7, 1,0,0,1024,1024,1168,1024,0,0,22,0,95,2.7,0.9,75,4.033,4.039,4.04,4.032,0,0,2.204,103.91,1692.909034488,0,6,P-GPS,
299600,2025-09-03 05:41:52,48.1487072404074,11.5721406393279,0.328084,,,1693.237118488,0.984252,0.223694,9.8757877176,2.81302830524,5,0,16.01,1693.237118488,0.328084,0.223694,11.6804793764,-0.223694,0,-1.11847,187.6, 1, 0.9,0,0,1024,1024,1145,1024,0,0,18,0,94.1,4,0.8,75,4.033,4.039,4.04,4.032,0,0,2.204,103.91,1693.237118488,0.328084,6,P-GPS,
299700,2025-09-03 05:41:52,48.1487070559698,11.5721406550206,0.328084,,,1693.237118488,0.984252,0.223694,9.926345462,2.88042660136,5,0,16.01,1693.237118488,0.328084,0.223694,11.6804793764,-0.223694,0,-1.11847,187.6, 2.2, -0.3,0,0,1024,1024,1128,1024,0,0,16,0,94.9,5,-1.3,75,4.033,4.039,4.04,4.032,0,0,2.204,103.91,1693.237118488,0.328084,6,P-GPS,
299800,2025-09-03 05:41:52,48.1487069005251,11.5721406645056,0.656168,,,1693.565202488,1.312336,0.223694,9.9696853584,2.9371884142,6,0,16.01,1693.565202488,0.656168,0.223694,11.6804793764,-0.223694,0,-1.11847,187.6, 2.1, -1.6,0,0,1024,1024,1129,1024,0,0,16,0,94.8,4.2,-2.3,75,4.033,4.039,4.04,4.032,0,0,2.204,103.91,1693.565202488,0.656168,6,P-GPS,
299900,2025-09-03 05:41:52,48.1487067724512,11.5721406919911,0.656168,,,1693.565202488,1.312336,0.223694,10.0025265668,2.98439314012,6,0,16.01,1693.565202488,0.656168,0.223694,11.6804793764,-0.223694,0,-1.11847,187.7, 2.5, -1.2,0,0,1024,1024,1142,1024,0,0,18,0,94.3,4.8,-0.9,75,4.033,4.039,4.04,4.032,0,0,2.204,103.91,1693.565202488,0.656168,6,P-GPS,
300000,2025-09-03 05:41:52,48.148706681356,11.5721407258193,0.984252,,,1693.893286488,1.312336,0,10.0238848352,3.01863198636,6,0,16.091,1693.893286488,0.984252,0.223694,11.6804793764,0,0,-0.894776,187.7, 2.1, -0.1,0,0,1024,1024,1157,1024,0,0,20,0,94,3.8,-1.2,75,4.033,4.039,4.04,4.032,0,0,2.204,103.91,1693.893286488,0.984252,6,P-GPS,
300100,2025-09-03 05:41:53,48.1487066196901,11.5721407589444,0.984252,,,1693.893286488,1.64042,0,10.0368441532,3.04253290576,6,0,16.091,1693.893286488,0.984252,0.223694,11.6804793764,0,0,-0.894776,187.8, 1.3, -0.4,0,0,1024,1024,1160,1024,0,0,21,0,94.6,3.2,-0.6,75,4.033,4.039,4.04,4.032,0,0,2.204,103.91,1693.893286488,0.984252,6,P-GPS,
300200,2025-09-03 05:41:53,48.1487065831869,11.5721407796316,1.312336,,,1694.221370488,1.64042,0,10.0443900852,3.05677175136,8,0,16.091,1694.221370488,1.312336,0.223694,11.6804793764,0,0,-0.671082,187.9, 0.8, -0.3,0,0,1024,1024,1154,1024,0,0,20,0,94.7,3,-1.8,75,4.033,4.039,4.04,4.032,0,0,2.204,103.91,1694.221370488,1.312336,6,P-GPS,
300300,2025-09-03 05:41:53,48.1487065663097,11.5721407838814,1.312336,,,1694.221370488,1.968504,0,10.0486551772,3.06301518988,8,0,16.091,1694.221370488,1.312336,0.223694,11.6804793764,0,0,-0.894776,187.9, 0.8, -0.9,0,0,1024,1024,1154,1024,0,0,20,0,94.1,2.9,-1.9,75,4.033,4.039,4.04,4.032,0,0,2.204,103.91,1694.221370488,1.312336,6,P-GPS,
300400,2025-09-03 05:41:53,48.1487065587212,11.5721407841703,1.64042,,,1694.549454488,1.968504,0,10.0508205316,3.06578421884,9,0,16.091,1694.549454488,1.64042,0.223694,11.6804793764,0,0,-0.894776,187.9, 0.5, -1.1,0,0,1024,1024,1145,1024,0,0,18,0,94.1,2.9,-1.9,75,4.033,4.039,4.04,4.032,0,0,2.204,103.91,1694.549454488,1.64042,6,P-GPS,
300500,2025-09-03 05:41:53,48.1487065683616,11.5721407896623,1.64042,,,1694.549454488,2.296588,0,10.0472116076,3.06954734232,9,0,16.091,1694.549454488,1.64042,0.223694,11.6804793764,0,0,-0.671082,187.9, 0.8, -1.7,0,0,1024,1024,1145,1024,0,0,18,0,93.8,3.1,-2.2,75,4.033,4.039,4.04,4.032,0,0,2.204,103.91,1694.549454488,1.64042,6,P-GPS,
300600,2025-09-03 05:41:53,48.1487065881569,11.5721408102307,1.968504,,,1694.877538488,2.296588,0,10.0384517648,3.07833671268,8,0,16.091,1694.877538488,1.968504,0.223694,11.6804793764,0,0,-0.671082,187.9, 1, -2,0,0,1024,1024,1154,1024,0,0,20,0,94.2,3,-2.4,75,4.033,4.039,4.04,4.032,0,0,2.204,103.91,1694.877538488,1.968504,6,P-GPS,
300700,2025-09-03 05:41:53,48.1487117215726,11.5721445890209,1.968504,,,1694.877538488,2.296588,0,8.0009188912,5.1649607952,8,0,16.091,1694.877538488,1.968504,0.223694,11.6804793764,0,0,-0.671082,187.9, 0.5, -1.3,0,0,1024,1024,1162,1024,0,0,21,0,93.8,2.2,-1.6,75,4.033,4.039,4.04,4.032,0,0,2.204,103.91,1694.877538488,1.968504,6,P-GPS,
300800,2025-09-03 05:41:53,48.1487179423133,11.5721490836264,1.968504,,,1694.877538488,2.296588,0,5.5955710452,7.68454749,9,0,16.091,1694.877538488,1.968504,0.223694,11.6804793764,0,0,-0.671082,188, 0, -0.9,0,0,1024,1024,1164,1024,0,0,21,0,93.7,2.2,-1.3,75,4.033,4.039,4.04,4.032,0,0,2.204,103.91,1694.877538488,1.968504,6,P-GPS,
300900,2025-09-03 05:41:53,48.1487193543925,11.5721501606249,1.968504,,,1694.877538488,2.624672,0,5.0546589544,8.2625986896,9,0,16.091,1694.877538488,1.968504,0.223694,11.6804793764,0,0,-0.671082,188.1, 0.1, -1,0,0,1024,1024,1166,1024,0,0,22,0,94.2,2.5,-1.8,75,4.033,4.039,4.04,4.032,0,0,2.204,103.91,1694.877538488,1.968504,6,P-GPS,
