time(millisecond),datetime(utc),latitude,longitude,height_above_takeoff(feet),height_above_ground_at_drone_location(feet),ground_elevation_at_drone_location(feet),altitude_above_seaLevel(feet),height_sonar(feet),speed(mph),distance(feet),mileage(feet),satellites,gpslevel,voltage(v),max_altitude(feet),max_ascent(feet),max_speed(mph),max_distance(feet), xSpeed(mph), ySpeed(mph), zSpeed(mph), compass_heading(degrees), pitch(degrees), roll(degrees),isPhoto,isVideo,rc_elevator,rc_aileron,rc_throttle,rc_rudder,rc_elevator(percent),rc_aileron(percent),rc_throttle(percent),rc_rudder(percent),gimbal_heading(degrees),gimbal_pitch(degrees),gimbal_roll(degrees),battery_percent,voltageCell1,voltageCell2,voltageCell3,voltageCell4,voltageCell5,voltageCell6,current(A),battery_temperature(f),altitude(feet),ascent(feet),flycStateRaw,flycState,message
318100,2025-09-03 16:23:07,48.1487647983108,11.5722010098028,0,Available with any HD 360 subscription,Available with any HD 360 subscription,1692.9717116554,0.656168,0,0,0,11,4,15.95,1692.9717116554,0,0,0,0,0,0,269.2, -6, -1.8,0,0,365,364,364,1684,-100,-100,-100,100,8.8,-7.6,-4.1,69,3.997,4.002,3.998,3.995,0,0,1.738,118.31,1692.9717116554,0,41,Motors_Started,"Setting new Return-To-Home altitude to 100m (328 ft). Data Recorder File Index is 245. Setting new Maximum Flight Altitude to 500m (1640 ft)"
318200,2025-09-03 16:23:07,48.1487647929548,11.5722010538192,0,,,1692.9717116554,0.656168,0,1.38111552976,0.0108915029732,11,4,15.95,1692.9717116554,0,0,1.38111552976,0,0,0,269.1, -6, -1.8,0,0,365,364,364,1684,-100,-100,-100,100,8.8,-7.7,-4.1,69,3.997,4.002,3.998,3.995,0,0,1.738,118.31,1692.9717116554,0,41,Motors_Started,
318300,2025-09-03 16:23:08,48.1487647926183,11.5722011017391,0,,,1692.9717116554,0.656168,0,1.3719324586,0.0225571529528,11,4,15.95,1692.9717116554,0,0,1.38111552976,0,0,0,269.2, -5.9, -1.8,0,0,366,364,364,1684,-100,-100,-100,100,8.7,-7.6,-4.2,69,3.997,4.002,3.998,3.995,0,0,1.738,118.31,1692.9717116554,0,41,Motors_Started,
318400,2025-09-03 16:23:08,48.1487648409261,11.5722012057627,0,,,1692.9717116554,0.656168,0,1.34111880932,0.053409450528,11,4,15.95,1692.9717116554,0,0,1.38111552976,0,0,0,269.3, -5.9, -1.8,0,0,534,465,364,1684,-74,-85,-100,100,8.7,-7.6,-4.2,69,3.997,4.002,3.998,3.995,0,0,1.738,118.31,1692.9717116554,0,41,Motors_Started,
318500,2025-09-03 16:23:08,48.1487648078109,11.5722012203444,0,,,1692.9717116554,0.656168,0,1.34574807456,0.066001970616,11,4,15.95,1692.9717116554,0,0,1.38111552976,0,0,0,269.2, -6, -1.8,0,0,1023,956,787,1351,-0,-10,-36,50,8.6,-7.6,-4.3,69,3.997,4.002,3.998,3.995,0,0,1.738,118.31,1692.9717116554,0,41,Motors_Started,
318600,2025-09-03 16:23:08,48.1487648073551,11.5722012193024,0,,,1692.9717116554,0.656168,0,1.34604991184,0.066305448316,11,4,15.95,1692.9717116554,0,0,1.38111552976,0,0,0,269.2, -6, -1.8,0,0,1024,1024,1024,1024,0,0,0,0,8.6,-7.6,-4.2,69,3.997,4.002,3.998,3.995,0,0,1.738,118.31,1692.9717116554,0,41,Motors_Started,
318700,2025-09-03 16:23:08,48.148764808365,11.5722012166042,0,,,1692.9717116554,0.656168,0,1.34633862576,0.067058401096,11,4,15.95,1692.9717116554,0,0,1.38111552976,0,0,0,269.2, -6, -1.8,0,0,1024,1024,1024,1024,0,0,0,0,8.5,-7.6,-4.4,69,3.997,4.002,3.998,3.995,0,0,1.738,118.31,1692.9717116554,0,41,Motors_Started,
318800,2025-09-03 16:23:08,48.1487649132962,11.5722011595508,0,,,1692.9717116554,0.656168,0,1.33416670936,0.1077837961,11,4,15.95,1692.9717116554,0,0,1.38111552976,0,0,0,269.2, -6, -1.8,0,0,1024,1024,1024,1024,0,0,0,0,8.5,-7.6,-4.3,69,3.997,4.002,3.998,3.995,0,0,1.738,118.31,1692.9717116554,0,41,Motors_Started,
318900,2025-09-03 16:23:08,48.1487649233419,11.5722011502328,0,,,1692.9717116554,0.656168,0,1.33381565948,0.112094163692,11,4,15.95,1692.9717116554,0,0,1.38111552976,0,0,0,269.2, -6, -1.8,0,0,1024,1024,1024,1024,0,0,0,0,8.4,-7.7,-4.3,69,3.997,4.002,3.998,3.995,0,0,1.738,118.31,1692.9717116554,0,41,Motors_Started,
319000,2025-09-03 16:23:08,48.148764933354,11.5722011884306,0,,,1692.9717116554,0.656168,0,1.3241634282,0.122084321492,11,4,15.95,1692.9717116554,0,0,1.38111552976,0,0,0,269.2, -6, -1.8,0,0,1024,1024,1024,1024,0,0,0,0,8.3,-7.6,-4.4,69,3.997,4.002,3.998,3.995,0,0,1.738,118.31,1692.9717116554,0,41,Motors_Started,
319100,2025-09-03 16:23:08,48.1487649424415,11.5722012309315,0,,,1692.9717116554,0.656168,0,1.31387471396,0.132948495068,11,4,15.964,1692.9717116554,0,0,1.38111552976,0,0,0,269.2, -6, -1.8,0,0,1024,1024,1024,1024,0,0,0,0,8.4,-7.5,-4.5,69,3.979,3.987,3.984,3.978,0,0,4.288,118.31,1692.9717116554,0,41,Motors_Started,
319200,2025-09-03 16:23:08,48.1487649486799,11.5722012439156,0,,,1692.9717116554,0.656168,0,1.30998035688,0.136843180232,11,4,15.964,1692.9717116554,0,0,1.38111552976,0,0,0,269.2, -6, -1.8,0,0,1024,1024,1024,1024,0,0,0,0,8.1,-7.6,-4.6,69,3.979,3.987,3.984,3.978,0,0,4.288,118.31,1692.9717116554,0,41,Motors_Started,
319300,2025-09-03 16:23:09,48.1487650010732,11.5722013158805,0,,,1692.9717116554,0.656168,0,1.284530881,0.162771986836,11,4,15.964,1692.9717116554,0,0,1.38111552976,0,0,0,269.2, -6, -1.8,0,0,1024,1024,1024,1024,0,0,0,0,8.1,-7.6,-4.5,69,3.979,3.987,3.984,3.978,0,0,4.288,118.31,1692.9717116554,0,41,Motors_Started,
319400,2025-09-03 16:23:09,48.1487650034878,11.5722013106208,0,,,1692.9717116554,0.656168,0,1.2850394112,0.164326120744,11,4,15.964,1692.9717116554,0,0,1.38111552976,0,0,0,269.2, -6, -1.8,0,0,1024,1024,1024,1024,0,0,0,0,8.1,-7.5,-4.6,69,3.979,3.987,3.984,3.978,0,0,4.288,118.31,1692.9717116554,0,41,Motors_Started,
319500,2025-09-03 16:23:09,48.14876500524,11.5722013025297,0,,,1692.9717116554,0.656168,0,1.28625004116,0.166396986952,11,4,15.964,1692.9717116554,0,0,1.38111552976,0,0,0,269.2, -6, -1.8,0,0,1024,1024,1024,1024,0,0,0,0,8.1,-7.5,-4.6,69,3.979,3.987,3.984,3.978,0,0,4.288,118.31,1692.9717116554,0,41,Motors_Started,
319600,2025-09-03 16:23:09,48.1487650057802,11.572201335626,0,,,1692.9717116554,0.656168,0,1.2796424294,0.174455714244,11,4,15.964,1692.9717116554,0,0,1.38111552976,0,0,0,269.2, -6, -1.8,0,0,1024,1024,1024,1024,0,0,0,0,7.9,-7.5,-4.6,69,3.979,3.987,3.984,3.978,0,0,4.288,118.31,1692.9717116554,0,10,Assisted_Takeoff,
319700,2025-09-03 16:23:09,48.1487650250175,11.5722014191281,0,,,1692.9717116554,0.656168,0,1.25913389856,0.195960308108,11,4,15.964,1692.9717116554,0,0,1.38111552976,0,0,0,269.2, -6, -1.8,0,0,1024,1024,1024,1024,0,0,0,0,8,-7.5,-4.6,69,3.979,3.987,3.984,3.978,0,0,4.288,118.31,1692.9717116554,0,10,Assisted_Takeoff,
319800,2025-09-03 16:23:09,48.1487650749118,11.5722014296406,0,,,1692.9717116554,0.656168,0,1.24626972492,0.214343182712,11,4,15.964,1692.9717116554,0,0,1.38111552976,0,0,0,269.2, -6, -1.8,0,0,1024,1024,1024,1024,0,0,0,0,7.8,-7.5,-4.7,69,3.979,3.987,3.984,3.978,0,0,4.288,118.31,1692.9717116554,0,10,Assisted_Takeoff,
319900,2025-09-03 16:23:09,48.1487651291408,11.5722014342495,0,,,1692.9717116554,0.656168,0,1.23379597124,0.23416011248,11,4,15.964,1692.9717116554,0,0,1.38111552976,0,0,0,269.2, -6, -1.8,0,0,1024,1024,1024,1024,0,0,0,0,7.8,-7.5,-4.7,69,3.979,3.987,3.984,3.978,0,0,4.288,118.31,1692.9717116554,0,10,Assisted_Takeoff,
320000,2025-09-03 16:23:09,48.1487651499065,11.5722014268317,0,,,1692.9717116554,0.656168,0,1.23089898952,0.24194882664,11,4,15.964,1692.9717116554,0,0,1.38111552976,0,0,0,269.2, -6, -1.8,0,0,1024,1024,1024,1024,0,0,0,0,7.7,-7.5,-4.7,69,3.979,3.987,3.984,3.978,0,0,4.288,118.31,1692.9717116554,0,10,Assisted_Takeoff,
320100,2025-09-03 16:23:09,48.1487652189668,11.5722013869383,0,,,1692.9717116554,0.656168,0,1.22464898932,0.268952108344,11,4,15.884,1692.9717116554,0,0,1.38111552976,0,0,0,269.2, -6, -1.8,0,0,1024,1024,1024,1024,0,0,0,0,7.6,-7.5,-4.8,69,3.979,3.987,3.984,3.978,0,0,4.288,118.31,1692.9717116554,0,10,Assisted_Takeoff,
320200,2025-09-03 16:23:09,48.1487652166704,11.5722013764956,0,,,1692.9717116554,0.656168,0,1.22722772956,0.271628617616,11,4,15.884,1692.9717116554,0,0,1.38111552976,0,0,0,269.2, -6, -1.8,0,0,1024,1024,1024,1024,0,0,0,0,7.6,-7.4,-4.8,69,3.979,3.987,3.984,3.978,0,0,4.288,118.31,1692.9717116554,0,10,Assisted_Takeoff,
320300,2025-09-03 16:23:10,48.1487652144484,11.5722013663695,0,,,1692.9717116554,0.656168,0,1.22972772964,0.274223433972,11,4,15.884,1692.9717116554,0,0,1.38111552976,0,0,0,269.2, -6, -1.8,0,0,1024,1024,1024,1024,0,0,0,0,7.4,-7.4,-4.9,69,3.979,3.987,3.984,3.978,0,0,4.288,118.31,1692.9717116554,0,10,Assisted_Takeoff,
320400,2025-09-03 16:23:10,48.1487652070502,11.5722014055378,0,,,1692.9717116554,0.656168,0,1.2233268108,0.284132883108,11,4,15.884,1692.9717116554,0,0,1.38111552976,0,0,0,269.2, -6, -1.8,0,0,1024,1024,1024,1024,0,0,0,0,7.4,-7.4,-4.8,69,3.979,3.987,3.984,3.978,0,0,4.288,118.31,1692.9717116554,0,10,Assisted_Takeoff,
320500,2025-09-03 16:23:10,48.148765138633,11.572201497641,0,,,1692.9717116554,0.656168,0,1.2192257608,0.31768537762,11,4,15.884,1692.9717116554,0,0,1.38111552976,0,0,0,269.2, -6, -1.8,0,0,1024,1024,1024,1024,0,0,0,0,7.3,-7.4,-5,69,3.979,3.987,3.984,3.978,0,0,4.288,118.31,1692.9717116554,0,10,Assisted_Takeoff,
320600,2025-09-03 16:23:10,48.1487651308954,11.5722014621407,0,,,1692.9717116554,0.656168,0,1.22789374008,0.32677658526,11,4,15.884,1692.9717116554,0,0,1.38111552976,0,0,0,269.2, -6, -1.8,0,0,1024,1024,1024,1024,0,0,0,0,7.3,-7.4,-5,69,3.979,3.987,3.984,3.978,0,0,4.288,118.31,1692.9717116554,0,10,Assisted_Takeoff,
320700,2025-09-03 16:23:10,48.1487651232291,11.572201416996,0,,,1692.9717116554,0.656168,0,1.2384678874,0.33811680872,11,4,15.884,1692.9717116554,0,0,1.38111552976,0,0,0,269.2, -6, -1.8,0,0,1024,1024,1024,1024,0,0,0,0,7.2,-7.4,-5,69,3.979,3.987,3.984,3.978,0,0,4.288,118.31,1692.9717116554,0,10,Assisted_Takeoff,
320800,2025-09-03 16:23:10,48.1487651187749,11.5722013905312,0,,,1692.9717116554,0.656168,0,1.24466539416,0.34476050972,11,4,15.884,1692.9717116554,0,0,1.38111552976,0,0,0,269.2, -6, -1.8,0,0,1024,1024,1024,1024,0,0,0,0,7.1,-7.4,-5,69,3.979,3.987,3.984,3.978,0,0,4.288,118.31,1692.9717116554,0,10,Assisted_Takeoff,
320900,2025-09-03 16:23:10,48.1487651145603,11.5722013645579,0,,,1692.9717116554,0.656168,0,1.25071526312,0.35126641544,11,4,15.884,1692.9717116554,0,0,1.38111552976,0,0,0,269.2, -6, -1.8,0,0,1024,1024,1024,1024,0,0,0,0,7.1,-7.4,-5,69,3.979,3.987,3.984,3.978,0,0,4.288,118.31,1692.9717116554,0,10,Assisted_Takeoff,
321000,2025-09-03 16:23:10,48.1487651452766,11.5722012529484,0,,,1692.9717116554,0.656168,0,1.26671920064,0.38065618016,11,4,15.884,1692.9717116554,0,0,1.38111552976,0,0,0,269.2, -6, -1.8,0,0,1024,1024,1024,1024,0,0,0,0,7.1,-7.4,-5.1,69,3.979,3.987,3.984,3.978,0,0,4.288,118.31,1692.9717116554,0,10,Assisted_Takeoff,
321100,2025-09-03 16:23:10,48.1487651959053,11.5722012413983,0,,,1692.9717116554,0.656168,0,1.2588254996,0.39934056396,11,4,15.948,1692.9717116554,0,0,1.38111552976,0,0,0,269.2, -6, -1.8,0,0,1024,1024,1024,1024,0,0,0,0,7,-7.4,-5.3,69,3.979,3.987,3.984,3.978,0,0,3.142,118.31,1692.9717116554,0,10,Assisted_Takeoff,
321200,2025-09-03 16:23:10,48.1487652147326,11.5722012841894,0,,,1692.9717116554,0.656168,0,1.24634846508,0.41181759848,11,4,15.948,1692.9717116554,0,0,1.38111552976,0,0,0,269.2, -6, -1.8,0,0,1024,1024,1024,1024,0,0,0,0,6.8,-7.4,-5.1,69,3.979,3.987,3.984,3.978,0,0,3.142,118.31,1692.9717116554,0,10,Assisted_Takeoff,
321300,2025-09-03 16:23:11,48.1487652303419,11.572201331501,0,,,1692.9717116554,0.656168,0,1.23359584,0.42466536792,11,4,15.948,1692.9717116554,0,0,1.38111552976,0,0,0,269.2, -6, -1.8,0,0,1024,1024,1024,1024,0,0,0,0,6.9,-7.4,-5.3,69,3.979,3.987,3.984,3.978,0,0,3.142,118.31,1692.9717116554,0,10,Assisted_Takeoff,
321400,2025-09-03 16:23:11,48.1487652815322,11.5722014857166,0,,,1692.9717116554,0.656168,0,1.1919783846,0.46659778396,11,4,15.948,1692.9717116554,0,0,1.38111552976,0,0,0,269.2, -6, -1.8,0,0,1024,1024,1024,1024,0,0,0,0,6.7,-7.3,-5.3,69,3.979,3.987,3.984,3.978,0,0,3.142,118.31,1692.9717116554,0,10,Assisted_Takeoff,
321500,2025-09-03 16:23:11,48.1487652799823,11.5722015038187,0,,,1692.9717116554,0.656168,0,1.18862208528,0.47104004132,11,4,15.948,1692.9717116554,0,0,1.38111552976,0,0,0,269.2, -6, -1.8,0,0,1024,1024,1024,1024,0,0,0,0,6.7,-7.4,-5.3,69,3.979,3.987,3.984,3.978,0,0,3.142,118.31,1692.9717116554,0,10,Assisted_Takeoff,
321600,2025-09-03 16:23:11,48.1487652731428,11.5722015529948,0,,,1692.9717116554,0.656168,0,1.18008205876,0.483267732,11,4,15.948,1692.9717116554,0,0,1.38111552976,0,0,0,269.2, -6, -1.8,0,0,1024,1024,1024,1024,0,0,0,0,6.6,-7.4,-5.4,69,3.979,3.987,3.984,3.978,0,0,3.142,118.31,1692.9717116554,0,10,Assisted_Takeoff,
321700,2025-09-03 16:23:11,48.1487652658733,11.5722016060902,0,,,1692.9717116554,0.656168,0,1.17091211096,0.49645998964,11,4,15.948,1692.9717116554,0,0,1.38111552976,0,0,0,269.2, -6, -1.8,0,0,1024,1024,1024,1024,0,0,0,0,6.5,-7.4,-5.5,69,3.979,3.987,3.984,3.978,0,0,3.142,118.31,1692.9717116554,0,10,Assisted_Takeoff,
321800,2025-09-03 16:23:11,48.1487653328424,11.5722016525849,0,,,1692.9717116554,0.656168,0,1.147801874,0.52338912436,11,4,15.948,1692.9717116554,0,0,1.38111552976,0,0,0,269.2, -6, -1.8,0,0,1024,1024,1024,1024,0,0,0,0,6.5,-7.3,-5.5,69,3.979,3.987,3.984,3.978,0,0,3.142,118.31,1692.9717116554,0,10,Assisted_Takeoff,
321900,2025-09-03 16:23:11,48.1487653748412,11.5722016600629,0,,,1692.9717116554,0.656168,0,1.13780187368,0.53881891488,11,4,15.948,1692.9717116554,0,0,1.38111552976,0,0,0,269.2, -5.9, -1.8,0,0,1024,1024,1024,1024,0,0,0,0,6.4,-7.3,-5.5,69,3.979,3.987,3.984,3.978,0,0,3.142,118.31,1692.9717116554,0,10,Assisted_Takeoff,
322000,2025-09-03 16:23:11,48.1487653443588,11.5722016529781,0,,,1692.9717116554,0.656168,0,1.14538389492,0.55007547692,11,4,15.948,1692.9717116554,0,0,1.38111552976,0,0,0,269.2, -5.9, -1.8,0,0,1024,1024,1024,1024,0,0,0,0,6.4,-7.3,-5.5,69,3.979,3.987,3.984,3.978,0,0,3.142,118.31,1692.9717116554,0,10,Assisted_Takeoff,
322100,2025-09-03 16:23:11,48.1487653014546,11.5722016444689,0,,,1692.9717116554,0.656168,0,1.15586289788,0.56586615984,11,4,15.928,1692.9717116554,0,0,1.38111552976,0,0,0,269.2, -6, -1.8,0,0,1024,1024,1024,1024,0,0,0,0,6.4,-7.3,-5.6,69,3.991,3.996,3.992,3.987,0,0,3.142,118.31,1692.9717116554,0,10,Assisted_Takeoff,
322200,2025-09-03 16:23:11,48.1487653056173,11.5722018243176,0,,,1692.9717116554,0.656168,0,1.11910108568,0.60967193552,11,4,15.928,1692.9717116554,0,0,1.38111552976,0,0,0,269.2, -6, -1.8,0,0,1024,1024,1024,1024,0,0,0,0,6.3,-7.3,-5.5,69,3.991,3.996,3.992,3.987,0,0,3.142,118.31,1692.9717116554,0,10,Assisted_Takeoff,
322300,2025-09-03 16:23:12,48.1487653385153,11.5722019155076,0,,,1692.9717116554,0.656168,0,1.09406499564,0.63490487596,11,4,15.928,1692.9717116554,0,0,1.38111552976,0,0,0,269.2, -6, -1.8,0,0,1024,1024,1024,1024,0,0,0,0,6.2,-7.3,-5.6,69,3.991,3.996,3.992,3.987,0,0,3.142,118.31,1692.9717116554,0,10,Assisted_Takeoff,
322400,2025-09-03 16:23:12,48.1487653990116,11.5722019443168,0,,,1692.9717116554,0.656168,0,1.07557746224,0.65806432552,11,4,15.928,1692.9717116554,0,0,1.38111552976,0,0,0,269.2, -6, -1.8,0,0,1024,1024,1024,1024,0,0,0,0,6.2,-7.3,-5.7,69,3.991,3.996,3.992,3.987,0,0,3.142,118.31,1692.9717116554,0,10,Assisted_Takeoff,
322500,2025-09-03 16:23:12,48.1487654621401,11.5722019674639,0,,,1692.9717116554,0.656168,0,1.05787733044,0.68177823704,11,4,15.928,1692.9717116554,0,0,1.38111552976,0,0,0,269.2, -6, -1.8,0,0,1024,1024,1024,1024,0,0,0,0,6,-7.3,-5.6,69,3.991,3.996,3.992,3.987,0,0,3.142,118.31,1692.9717116554,0,10,Assisted_Takeoff,
322600,2025-09-03 16:23:12,48.1487654818965,11.5722019607293,0,,,1692.9717116554,0.656168,0,1.0552165692,0.68916996956,11,4,15.928,1692.9717116554,0,0,1.38111552976,0,0,0,269.2, -6, -1.8,0,0,1024,1024,1024,1024,0,0,0,0,6,-7.3,-5.7,69,3.991,3.996,3.992,3.987,0,0,3.142,118.31,1692.9717116554,0,10,Assisted_Takeoff,
322700,2025-09-03 16:23:12,48.1487655456336,11.5722018758726,0,,,1692.9717116554,0.656168,0,1.0599245746,0.72027233276,11,4,15.928,1692.9717116554,0,0,1.38111552976,0,0,0,269.2, -6, -1.8,0,0,1024,1024,1042,1024,0,0,3,0,5.9,-7.3,-5.8,69,3.991,3.996,3.992,3.987,0,0,3.142,118.31,1692.9717116554,0,10,Assisted_Takeoff,
322800,2025-09-03 16:23:12,48.1487655884747,11.5722019092044,0,,,1692.9717116554,0.656168,0,1.04478677884,0.73788388188,11,4,15.928,1692.9717116554,0,0,1.38111552976,0,0,0,269.2, -6, -1.8,0,0,1024,1024,1062,1024,0,0,6,0,5.8,-7.3,-6,69,3.991,3.996,3.992,3.987,0,0,3.142,118.31,1692.9717116554,0,10,Assisted_Takeoff,
322900,2025-09-03 16:23:12,48.1487656335069,11.5722019457335,0,,,1692.9717116554,0.656168,0,1.02864832688,0.75656498484,11,4,15.928,1692.9717116554,0,0,1.38111552976,0,0,0,269.2, -6, -1.8,0,0,1024,1024,1156,1024,0,0,20,0,5.8,-7.3,-6,69,3.991,3.996,3.992,3.987,0,0,3.142,118.31,1692.9717116554,0,10,Assisted_Takeoff,
323000,2025-09-03 16:23:12,48.1487656399299,11.5722019971357,0,,,1692.9717116554,0.656168,0,1.01672903516,0.76929792488,11,4,15.928,1692.9717116554,0,0,1.38111552976,0,0,0,269.2, -6, -1.8,0,0,1024,1024,1182,1024,0,0,24,0,5.7,-7.2,-6,69,3.991,3.996,3.992,3.987,0,0,3.142,118.31,1692.9717116554,0,10,Assisted_Takeoff,
323100,2025-09-03 16:23:12,48.1487656512769,11.5722021174398,0,,,1692.9717116554,0.656168,0,0.98962929676,0.79887469748,11,4,15.946,1692.9717116554,0,0,1.38111552976,0,0,0,269.2, -5.9, -1.8,0,0,1024,1024,1190,1024,0,0,25,0,5.7,-7.3,-6.1,69,3.992,3.998,3.994,3.991,0,0,2.268,118.31,1692.9717116554,0,10,Assisted_Takeoff,
323200,2025-09-03 16:23:12,48.1487656887755,11.5722021242566,0,,,1692.9717116554,0.656168,0,0.98103021512,0.81265422548,11,4,15.946,1692.9717116554,0,0,1.38111552976,0,0,0,269.2, -5.9, -1.8,0,0,1024,1024,1200,1024,0,0,27,0,5.5,-7.3,-6.2,69,3.992,3.998,3.994,3.991,0,0,2.268,118.31,1692.9717116554,0,10,Assisted_Takeoff,
323300,2025-09-03 16:23:13,48.1487657299761,11.5722021271871,0,,,1692.9717116554,0.656168,0,0.97267719648,0.82770343856,11,4,15.946,1692.9717116554,0,0,1.38111552976,0,0,0,269.2, -6, -1.8,0,0,1024,1024,1208,1024,0,0,28,0,5.5,-7.3,-6.2,69,3.992,3.998,3.994,3.991,0,0,2.268,118.31,1692.9717116554,0,10,Assisted_Takeoff,
323400,2025-09-03 16:23:13,48.1487657834139,11.5722021589421,0,,,1692.9717116554,0.656168,0,0.95617785212,0.84867784868,11,4,15.946,1692.9717116554,0,0,1.38111552976,0,0,0,269.2, -6, -1.8,0,0,1024,1024,1175,1024,0,0,23,0,5.6,-7.3,-6.2,69,3.992,3.998,3.994,3.991,0,0,2.268,118.31,1692.9717116554,0,10,Assisted_Takeoff,
323500,2025-09-03 16:23:13,48.1487659131621,11.5722021866747,0,,,1692.9717116554,0.656168,0,0.92751971472,0.89649609168,11,4,15.946,1692.9717116554,0,0,1.38111552976,0,0,0,269.2, -6.1, -1.9,0,0,1024,1024,1185,1024,0,0,24,0,5.4,-7.3,-6.3,69,3.992,3.998,3.994,3.991,0,0,2.268,118.31,1692.9717116554,0,10,Assisted_Takeoff,
323600,2025-09-03 16:23:13,48.1487659688072,11.572202230308,0,,,1692.9717116554,0.656168,0,0.9088090842,0.9194061974,11,4,15.946,1692.9717116554,0,0,1.38111552976,0,0,0,269.2, -6.2, -1.9,0,0,1024,1024,1179,1024,0,0,23,0,5.3,-7.6,-6.3,69,3.992,3.998,3.994,3.991,0,0,2.268,118.31,1692.9717116554,0,10,Assisted_Takeoff,
323700,2025-09-03 16:23:13,48.1487660268875,11.5722022724197,0,,,1692.9717116554,0.656168,0,0.89024281064,0.9429462244,11,4,15.946,1692.9717116554,0,0,1.38111552976,0,0,0,269.2, -6.4, -1.9,0,0,1024,1024,1170,1024,0,0,22,0,5.6,-7.8,-6.2,69,3.992,3.998,3.994,3.991,0,0,2.268,118.31,1692.9717116554,0,10,Assisted_Takeoff,
323800,2025-09-03 16:23:13,48.1487660341613,11.5722022624429,0,,,1692.9717116554,0.656168,0,0.89128283692,0.94654530588,11,4,15.946,1692.9717116554,0,0,1.38111552976,0,0,0,269.2, -7.1, -1.9,0,0,1024,1024,1176,1024,0,0,23,0,5.3,-8.7,-6.3,69,3.992,3.998,3.994,3.991,0,0,2.268,118.31,1692.9717116554,0,10,Assisted_Takeoff,
323900,2025-09-03 16:23:13,48.1487660074127,11.5722022183972,0,,,1692.9717116554,0.656168,0,0.90517391348,0.96104333784,11,4,15.946,1692.9717116554,0,0,1.38111552976,0,0,0,269.3, -8.3, -2,0,0,1024,1024,1180,1024,0,0,24,0,5.5,-10.1,-6.2,69,3.992,3.998,3.994,3.991,0,0,2.268,118.31,1692.9717116554,0,10,Assisted_Takeoff,
324000,2025-09-03 16:23:13,48.1487660344874,11.5722021685755,0,,,1692.9717116554,0.656168,0,0.91189635464,0.97668310212,11,4,15.946,1692.9717116554,0,0,1.38111552976,0,0,0,269.7, -10.5, -2,0,0,1024,1024,1180,1024,0,0,24,0,6.3,-12.7,-6,69,3.992,3.998,3.994,3.991,0,0,2.268,118.31,1692.9717116554,0,10,Assisted_Takeoff,
324100,2025-09-03 16:23:13,48.1487660662655,11.5722020373585,0,,,1692.9717116554,0.656168,0,0.93627955752,1.01066604284,11,4,15.878,1692.9717116554,0,0,1.38111552976,0,-0.223694,0,270, -13.1, -1.6,0,0,1024,1024,1176,1024,0,0,23,0,6.9,-15.1,-5,69,3.992,3.998,3.994,3.99,0,0,2.268,118.31,1692.9717116554,0,10,Assisted_Takeoff,
324200,2025-09-03 16:23:13,48.1487661546005,11.5722017801973,0,,,1692.9717116554,0.656168,0.671082,0.98237535952,1.08107615008,11,4,15.878,1692.9717116554,0,0.671082,1.38111552976,0,-0.671082,-0.223694,270, -14.2, -0.2,0,0,1024,1024,1180,1024,0,0,24,0,7,-12.8,-3.1,69,3.992,3.998,3.994,3.99,0,0,2.268,118.31,1692.9717116554,0,10,Assisted_Takeoff,
324300,2025-09-03 16:23:13,48.1487662640351,11.5722012917657,0,,,1692.9717116554,0.656168,0.671082,1.08291013964,1.2064961016,11,4,15.878,1692.9717116554,0,0.671082,1.38111552976,0,-0.894776,-0.447388,269.9, -8.4, 1,0,0,1024,1024,1181,1024,0,0,24,0,5.8,-3,-3.5,69,3.992,3.998,3.994,3.99,0,0,2.268,118.31,1692.9717116554,0,6,P-GPS,
324400,2025-09-03 16:23:14,48.1487664754119,11.5722007628569,0,,,1692.9717116554,0.656168,1.342164,1.1902559436,1.3565781274,11,4,15.878,1692.9717116554,0,1.342164,1.38111552976,0,-1.342164,-0.671082,269.8, 0, 0.6,0,0,1024,1024,1178,1024,0,0,23,0,4.9,2.4,-5.1,69,3.992,3.998,3.994,3.99,0,0,2.268,118.31,1692.9717116554,0,6,P-GPS,
324500,2025-09-03 16:23:14,48.1487665665824,11.5722000341978,0.328084,,,1693.2997956554,0.656168,1.342164,1.359826159,1.53704729328,11,4,15.878,1693.2997956554,0.328084,1.342164,1.38111552976,0,-1.342164,-0.894776,269.7, 4.9, -0.2,0,0,1024,1024,1177,1024,0,0,23,0,4.9,2.4,-5.1,69,3.992,3.998,3.994,3.99,0,0,2.268,118.31,1693.2997956554,0.328084,6,P-GPS,
324600,2025-09-03 16:23:14,48.1487666406396,11.5721993762377,0.328084,,,1693.2997956554,0.984252,1.342164,1.51542983852,1.69947512,11,4,15.878,1693.2997956554,0.328084,1.342164,1.51542983852,0,-1.11847,-1.11847,269.5, 6.9, -0.4,0,0,1024,1024,1175,1024,0,0,23,0,5.5,4.5,-4.4,69,3.992,3.998,3.994,3.99,0,0,2.268,118.31,1693.2997956554,0.328084,6,P-GPS,
324700,2025-09-03 16:23:14,48.1487667036855,11.5721988231932,0.656168,,,1693.6278796554,0.984252,0.894776,1.64721461964,1.83604992752,10,4,15.878,1693.6278796554,0.656168,1.342164,1.64721461964,0,-0.894776,-1.11847,269.4, 7, -0.8,0,0,1024,1024,1174,1024,0,0,23,0,4.9,4.1,-6.3,69,3.992,3.998,3.994,3.99,0,0,2.268,118.31,1693.6278796554,0.656168,6,P-GPS,
324800,2025-09-03 16:23:14,48.1487668820335,11.5721981518732,0.656168,,,1693.6278796554,1.312336,0.447388,1.80621396856,2.01194560244,10,4,15.878,1693.6278796554,0.656168,1.342164,1.80621396856,0,-0.447388,-0.894776,269.4, 5.8, 0.7,0,0,1024,1024,1175,1024,0,0,23,0,5,2.8,-4.5,69,3.992,3.998,3.994,3.99,0,0,2.268,118.31,1693.6278796554,0.656168,6,P-GPS,
324900,2025-09-03 16:23:14,48.1487669839337,11.5721977735831,0.984252,,,1693.9559636554,1.64042,0.223694,1.8971129216,2.11125662924,11,4,15.878,1693.9559636554,0.984252,1.342164,1.8971129216,0,-0.223694,-1.11847,269.5, 3.7, 0.8,0,0,1024,1024,1177,1024,0,0,23,0,5.7,0.2,-5.2,69,3.992,3.998,3.994,3.99,0,0,2.268,118.31,1693.9559636554,0.984252,6,P-GPS,
325000,2025-09-03 16:23:14,48.1487669705754,11.5721975187105,0.984252,,,1693.9559636554,1.64042,0,1.95924218868,2.17348760236,11,4,15.878,1693.9559636554,0.984252,1.342164,1.95924218868,0,0,-0.894776,269.6, 2.4, 0,0,0,1024,1024,1177,1024,0,0,23,0,5.6,-0.6,-5.7,69,3.992,3.998,3.994,3.99,0,0,2.268,118.31,1693.9559636554,0.984252,6,P-GPS,
325100,2025-09-03 16:23:14,48.1487669547191,11.5721973233284,1.312336,,,1694.2840476554,1.968504,0,2.00692591724,2.22140098972,10,4,15.783,1694.2840476554,1.312336,1.342164,2.00692591724,0,0,-0.894776,269.7, 1.5, -0.5,0,0,1024,1024,1163,1024,0,0,21,0,5.5,-1.5,-5.1,69,3.935,3.948,3.942,3.925,0,0,12.164,118.31,1694.2840476554,1.312336,6,P-GPS,
325200,2025-09-03 16:23:14,48.1487667280868,11.5721976163839,1.312336,,,1694.2840476554,1.968504,0,1.93945544264,2.33060702996,10,4,15.783,1694.2840476554,1.312336,1.342164,2.00692591724,0,0,-0.894776,269.9, 1, -0.7,0,0,1024,1024,1159,1024,0,0,20,0,5.5,-1.7,-4.9,69,3.935,3.948,3.942,3.925,0,0,12.164,118.31,1694.2840476554,1.312336,6,P-GPS,
325300,2025-09-03 16:23:15,48.1487667671147,11.5721977666218,1.64042,,,1694.6121316554,1.968504,0,1.90203746244,2.36985571888,10,4,15.783,1694.6121316554,1.64042,1.342164,2.00692591724,0,0,-0.894776,270, 0.8, -0.7,0,0,1024,1024,1162,1024,0,0,21,0,5.7,-1.7,-5,69,3.935,3.948,3.942,3.925,0,0,12.164,118.31,1694.6121316554,1.64042,6,P-GPS,
325400,2025-09-03 16:23:15,48.1487668366307,11.5721978510219,1.64042,,,1694.6121316554,2.296588,0,1.88012145124,2.4024935152,10,4,15.783,1694.6121316554,1.64042,1.342164,2.00692591724,0,0,-0.894776,269.9, 0.8, -1,0,0,1024,1024,1164,1024,0,0,21,0,6.2,-1.9,-5.5,69,3.935,3.948,3.942,3.925,0,0,12.164,118.31,1694.6121316554,1.64042,6,P-GPS,
325500,2025-09-03 16:23:15,48.1487669073003,11.5721979353867,1.968504,,,1694.9402156554,2.296588,0,1.85851711984,2.43545611468,10,4,15.783,1694.9402156554,1.968504,1.342164,2.00692591724,0,0,-0.894776,269.9, 0.5, -0.9,0,0,1024,1024,1162,1024,0,0,21,0,5.9,-2.1,-5.1,69,3.935,3.948,3.942,3.925,0,0,12.164,118.31,1694.9402156554,1.968504,6,P-GPS,
325600,2025-09-03 16:23:15,48.1487672932622,11.5721980942035,1.968504,,,1694.9402156554,2.624672,0,1.82021659368,2.58148630308,10,4,15.783,1694.9402156554,1.968504,1.342164,2.00692591724,0,0,-0.894776,270, 0.4, -0.4,0,0,1024,1024,1164,1024,0,0,21,0,5.6,-1.9,-5,69,3.935,3.948,3.942,3.925,0,0,12.164,118.31,1694.9402156554,1.968504,6,P-GPS,
325700,2025-09-03 16:23:15,48.1487674696402,11.572198191235,2.296588,,,1695.2682996554,2.624672,0,1.800442971,2.65003617404,9,4,15.783,1695.2682996554,2.296588,1.342164,2.00692591724,0,0,-0.894776,269.9, 0.7, -0.1,0,0,1024,1024,1162,1024,0,0,21,0,5.2,-1.8,-5.3,69,3.935,3.948,3.942,3.925,0,0,12.164,118.31,1695.2682996554,2.296588,6,P-GPS,
325800,2025-09-03 16:23:15,48.1487676594552,11.5721982877208,2.296588,,,1695.2682996554,2.952756,0,1.78378614632,2.7231628168,9,4,15.783,1695.2682996554,2.296588,1.342164,2.00692591724,0,0,-0.894776,269.9, 0.7, -0.5,0,0,1024,1024,1158,1024,0,0,20,0,5.2,-1.8,-5.3,69,3.935,3.948,3.942,3.925,0,0,12.164,118.31,1695.2682996554,2.296588,6,P-GPS,
325900,2025-09-03 16:23:15,48.1487678562909,11.5721983994788,2.296588,,,1695.2682996554,2.952756,0,1.76672577832,2.79995743868,9,4,15.783,1695.2682996554,2.296588,1.342164,2.00692591724,0,0,-0.894776,269.9, 0.8, -1,0,0,1024,1024,1163,1024,0,0,21,0,5.1,-1.9,-6,69,3.935,3.948,3.942,3.925,0,0,12.164,118.31,1695.2682996554,2.296588,6,P-GPS,
326000,2025-09-03 16:23:15,48.1487681743353,11.5721986108915,2.624672,,,1695.5963836554,2.952756,0,1.73865163044,2.92689641912,9,4,15.783,1695.5963836554,2.624672,1.342164,2.00692591724,0,0,-0.894776,269.9, 0.8, -1.4,0,0,1024,1024,1162,1024,0,0,21,0,6,-1.8,-6.6,69,3.935,3.948,3.942,3.925,0,0,12.164,118.31,1695.5963836554,2.624672,6,P-GPS,
326100,2025-09-03 16:23:15,48.1487689162583,11.5721990387987,2.624672,,,1695.5963836554,3.28084,0,1.72303811288,3.21693907932,9,4,15.539,1695.5963836554,2.624672,1.342164,2.00692591724,0,0,-0.894776,269.9, 0.2, -1.3,0,0,1024,1024,1163,1024,0,0,21,0,5.7,-2.4,-6.8,69,3.935,3.948,3.942,3.925,0,0,12.164,118.31,1695.5963836554,2.624672,6,P-GPS,
326200,2025-09-03 16:23:15,48.1487691679107,11.5721994233251,2.952756,,,1695.9244676554,3.28084,0,1.67663063108,3.3480644116,9,4,15.539,1695.9244676554,2.952756,1.342164,2.00692591724,0,0,-0.894776,270, 0.1, -1.2,0,0,1024,1024,1163,1024,0,0,21,0,4.9,-2.5,-6.2,69,3.935,3.948,3.942,3.925,0,0,12.164,118.31,1695.9244676554,2.952756,6,P-GPS,
326300,2025-09-03 16:23:16,48.1487694154121,11.5721998332687,2.952756,,,1695.9244676554,3.608924,0,1.6333497898,3.4826444684,10,4,15.539,1695.9244676554,2.952756,1.342164,2.00692591724,0,0,-0.894776,270, 0, -0.8,0,0,1024,1024,1166,1024,0,0,22,0,5,-2.6,-5.6,69,3.935,3.948,3.942,3.925,0,0,12.164,118.31,1695.9244676554,2.952756,6,P-GPS,
326400,2025-09-03 16:23:16,48.1487696058567,11.5722000959026,3.28084,,,1696.2525516554,3.608924,0,1.6175033326,3.5770670436,10,4,15.539,1696.2525516554,3.28084,1.342164,2.00692591724,0,0,-0.894776,269.9, 0, -0.7,0,0,1024,1024,1172,1024,0,0,22,0,5.4,-2.3,-5.6,69,3.935,3.948,3.942,3.925,0,0,12.164,118.31,1696.2525516554,3.28084,6,P-GPS,
326500,2025-09-03 16:23:16,48.1487699028808,11.5722005964127,3.28084,,,1696.2525516554,3.608924,0,1.58667655996,3.7401247916,10,4,15.539,1696.2525516554,3.28084,1.342164,2.00692591724,0,0,-0.894776,269.9, 0.2, -1,0,0,1024,1024,1181,1024,0,0,24,0,5.5,-1.9,-6.1,69,3.935,3.948,3.942,3.925,0,0,12.164,118.31,1696.2525516554,3.28084,6,P-GPS,
326600,2025-09-03 16:23:16,48.1487700727226,11.5722005997854,3.28084,,,1696.2525516554,3.937008,0,1.62685700744,3.8020998592,10,4,15.539,1696.2525516554,3.28084,1.342164,2.00692591724,0,0,-0.894776,269.9, 0.4, -1.1,0,0,1024,1024,1184,1024,0,0,24,0,5,-2,-6.1,69,3.935,3.948,3.942,3.925,0,0,12.164,118.31,1696.2525516554,3.28084,6,P-GPS,
326700,2025-09-03 16:23:16,48.1487702441996,11.5722005960046,3.608924,,,1696.5806356554,3.937008,0,1.67004270436,3.864665478,10,4,15.539,1696.5806356554,3.608924,1.342164,2.00692591724,0,0,-0.894776,270, 0.5, -1.2,0,0,1024,1024,1191,1024,0,0,25,0,5.4,-2,-6.5,69,3.935,3.948,3.942,3.925,0,0,12.164,118.31,1696.5806356554,3.608924,6,P-GPS,
326800,2025-09-03 16:23:16,48.1487703137447,11.5722005184081,3.608924,,,1696.5806356554,4.265092,0,1.70122708856,3.8962927756,10,4,15.539,1696.5806356554,3.608924,1.342164,2.00692591724,0,0,-1.11847,269.9, 0.4, -0.9,0,0,1024,1024,1196,1024,0,0,26,0,5.2,-2.1,-5.8,69,3.935,3.948,3.942,3.925,0,0,12.164,118.31,1696.5806356554,3.608924,6,P-GPS,
326900,2025-09-03 16:23:16,48.1487701372825,11.5721997369751,3.937008,,,1696.9087196554,4.265092,0,1.80288063512,4.097112992,9,4,15.539,1696.9087196554,3.937008,1.342164,2.00692591724,0,0,-1.11847,269.9, 0.4, -0.5,0,0,1024,1024,1202,1024,0,0,27,0,4.1,-2.4,-6,69,3.935,3.948,3.942,3.925,0,0,12.164,118.31,1696.9087196554,3.937008,6,P-GPS,
327000,2025-09-03 16:23:16,48.1487700739474,11.5721996318217,3.937008,,,1696.9087196554,4.593176,0,1.80908470356,4.1315946204,9,4,15.539,1696.9087196554,3.937008,1.342164,2.00692591724,0,0,-1.11847,269.9, 0.2, -0.4,0,0,1024,1024,1207,1024,0,0,28,0,4.1,-2.4,-6,69,3.935,3.948,3.942,3.925,0,0,12.164,118.31,1696.9087196554,3.937008,6,P-GPS,
327100,2025-09-03 16:23:16,48.148770006952,11.5721995283738,4.265092,,,1697.2368036554,4.92126,0,1.81480320768,4.1666996084,11,4,15.446,1697.2368036554,4.265092,1.342164,2.00692591724,0,0,-1.342164,269.9, 0.2, -0.4,0,0,1024,1024,1209,1024,0,0,28,0,5.1,-2.2,-5.7,69,3.883,3.906,3.901,3.88,0,0,18.788,118.31,1697.2368036554,4.265092,6,P-GPS,
327200,2025-09-03 16:23:16,48.1487700654156,11.57219961974,4.593176,,,1697.5648876554,4.92126,0,1.8095637062,4.197506696,11,4,15.446,1697.5648876554,4.593176,1.342164,2.00692591724,0,0,-1.342164,270, 0, -0.3,0,0,1024,1024,1212,1024,0,0,28,0,5.8,-2.3,-6.3,69,3.883,3.906,3.901,3.88,0,0,18.788,118.31,1697.5648876554,4.593176,6,P-GPS,
327300,2025-09-03 16:23:16,48.1487699259396,11.572199596499,4.593176,,,1697.5648876554,5.249344,0,1.78409126444,4.2487206084,11,4,15.446,1697.5648876554,4.593176,1.342164,2.00692591724,0,0,-1.565858,270, -0.1, -0.3,0,0,1024,1024,1214,1024,0,0,29,0,5.1,-2.5,-6.1,69,3.883,3.906,3.901,3.88,0,0,18.788,118.31,1697.5648876554,4.593176,6,P-GPS,
327400,2025-09-03 16:23:17,48.148769940941,11.5721996308022,4.92126,,,1697.8929716554,5.249344,0,1.78048890212,4.258694362,11,4,15.446,1697.8929716554,4.92126,1.342164,2.00692591724,0,0,-1.565858,270, -0.2, -0.5,0,0,1024,1024,1220,1024,0,0,30,0,4.5,-2.7,-6.6,69,3.883,3.906,3.901,3.88,0,0,18.788,118.31,1697.8929716554,4.92126,6,P-GPS,
327500,2025-09-03 16:23:17,48.1487699523273,11.5721996500317,5.249344,,,1698.2210556554,5.577428,0,1.77913063436,4.2649607664,10,4,15.446,1698.2210556554,5.249344,1.342164,2.00692591724,0,0,-1.565858,270, -0.1, -1,0,0,1024,1024,1228,1024,0,0,31,0,4.8,-2.5,-7,69,3.883,3.906,3.901,3.88,0,0,18.788,118.31,1698.2210556554,5.249344,6,P-GPS,
327600,2025-09-03 16:23:17,48.148769979332,11.5721994449503,5.577428,,,1698.5491396554,5.905512,0,1.82544625264,4.3158465948,10,4,15.446,1698.5491396554,5.577428,1.342164,2.00692591724,0,0,-1.565858,270, 0.1, -1,0,0,1024,1024,1230,1024,0,0,31,0,5.3,-2.2,-6.8,69,3.883,3.906,3.901,3.88,0,0,18.788,118.31,1698.5491396554,5.577428,6,P-GPS,
327700,2025-09-03 16:23:17,48.1487700036843,11.5721992015336,5.905512,,,1698.8772236554,6.233596,0,1.87913719924,4.3757547332,9,4,15.446,1698.8772236554,5.905512,1.342164,2.00692591724,0,0,-1.789552,270, 0, -0.7,0,0,1024,1024,1230,1024,0,0,31,0,4.8,-2.3,-6.5,69,3.883,3.906,3.901,3.88,0,0,18.788,118.31,1698.8772236554,5.905512,6,P-GPS,
327800,2025-09-03 16:23:17,48.1487697512989,11.5721985977602,5.905512,,,1698.8772236554,6.233596,0,1.95466213604,4.5491799356,9,4,15.446,1698.8772236554,5.905512,1.342164,2.00692591724,0,0,-1.789552,270, 0, -0.4,0,0,1024,1024,1232,1024,0,0,32,0,4.6,-2.4,-6.4,69,3.883,3.906,3.901,3.88,0,0,18.788,118.31,1698.8772236554,5.905512,6,P-GPS,
327900,2025-09-03 16:23:17,48.1487696249492,11.5721984790168,6.233596,,,1699.2053076554,6.56168,0,1.95758536448,4.6036090712,10,4,15.446,1699.2053076554,6.233596,1.342164,2.00692591724,0,0,-1.789552,269.9, -0.1, -0.2,0,0,1024,1024,1234,1024,0,0,32,0,5.2,-2.2,-6.3,69,3.883,3.906,3.901,3.88,0,0,18.788,118.31,1699.2053076554,6.233596,6,P-GPS,
328000,2025-09-03 16:23:17,48.1487695020309,11.5721983413967,6.56168,,,1699.5333916554,6.889764,0,1.9666831338,4.6595802016,10,4,15.446,1699.5333916554,6.56168,1.342164,2.00692591724,0,0,-2.013246,269.9, 0, -0.4,0,0,1024,1024,1236,1024,0,0,32,0,5.1,-2,-6.3,69,3.883,3.906,3.901,3.88,0,0,18.788,118.31,1699.5333916554,6.56168,6,P-GPS,
328100,2025-09-03 16:23:17,48.148769383681,11.5721981971458,6.889764,,,1699.8614756554,7.217848,0,1.979494814,4.715223248,9,4,15.412,1699.8614756554,6.889764,1.342164,2.00692591724,0,0,-2.013246,270, 0.3, -0.4,0,0,1024,1024,1240,1024,0,0,33,0,5,-1.9,-6.6,69,3.872,3.895,3.89,3.867,0,0,19.316,118.31,1699.8614756554,6.889764,6,P-GPS,
328200,2025-09-03 16:23:17,48.1487687632889,11.5721972880142,7.217848,,,1700.1895596554,7.545932,0,2.10555781016,5.0317914996,9,4,15.412,1700.1895596554,7.217848,1.342164,2.10555781016,0,0,-2.013246,269.9, 0.5, -0.3,0,0,1024,1024,1244,1024,0,0,33,0,5,-1.9,-6.6,69,3.872,3.895,3.89,3.867,0,0,19.316,118.31,1700.1895596554,7.217848,6,P-GPS,
328300,2025-09-03 16:23:18,48.1487686206396,11.5721969110593,7.545932,,,1700.5176436554,7.874016,0,2.17960636896,5.137303314,8,3,15.412,1700.5176436554,7.545932,1.342164,2.17960636896,0,0,-2.013246,270, 0.5, 0,0,0,1024,1024,1247,1024,0,0,34,0,5,-1.8,-5.9,69,3.872,3.895,3.89,3.867,0,0,19.316,118.31,1700.5176436554,7.545932,6,P-GPS,
328400,2025-09-03 16:23:18,48.1487684967468,11.5721968268413,7.874016,,,1700.8457276554,8.2021,0,2.18837605428,5.1869424232,8,3,15.412,1700.8457276554,7.874016,1.342164,2.18837605428,0,0,-2.013246,269.9, 0.4, 0.1,0,0,1024,1024,1247,1024,0,0,34,0,4.5,-1.8,-6.1,69,3.872,3.895,3.89,3.867,0,0,19.316,118.31,1700.8457276554,7.874016,6,P-GPS,
328500,2025-09-03 16:23:18,48.1487683766698,11.5721967723157,8.2021,,,1701.1738116554,8.530184,0,2.19146660556,5.2327101412,10,3,15.412,1701.1738116554,8.2021,1.342164,2.19146660556,0,0,-2.013246,269.9, 0.5, 0,0,0,1024,1024,1249,1024,0,0,34,0,4.3,-1.8,-6.3,69,3.872,3.895,3.89,3.867,0,0,19.316,118.31,1701.1738116554,8.2021,6,P-GPS,
328600,2025-09-03 16:23:18,48.1487684633312,11.5721969884299,8.530184,,,1701.5018956554,8.858268,0,2.1472769716,5.2940946576,10,3,15.412,1701.5018956554,8.530184,1.342164,2.19146660556,0,0,-2.23694,269.9, 0.6, -0.2,0,0,1024,1024,1252,1024,0,0,35,0,4.6,-1.8,-6.6,69,3.872,3.895,3.89,3.867,0,0,19.316,118.31,1701.5018956554,8.530184,6,P-GPS,
328700,2025-09-03 16:23:18,48.1487684693964,11.5721969363188,8.858268,,,1701.8299796554,9.186352,0,2.16012802188,5.3069555504,10,3,15.412,1701.8299796554,8.858268,1.342164,2.19146660556,0,0,-2.23694,269.9, 0.5, -0.1,0,0,1024,1024,1252,1024,0,0,35,0,4.4,-2,-6.5,69,3.872,3.895,3.89,3.867,0,0,19.316,118.31,1701.8299796554,8.858268,6,P-GPS,
328800,2025-09-03 16:23:18,48.1487684230202,11.5721970549305,9.186352,,,1702.1580636554,9.514436,0,2.12812670852,5.3404201184,10,3,15.412,1702.1580636554,9.186352,1.342164,2.19146660556,0,0,-2.23694,269.9, 0.2, 0,0,0,1024,1024,1254,1024,0,0,35,0,4.1,-2.3,-6.8,69,3.872,3.895,3.89,3.867,0,0,19.316,118.31,1702.1580636554,9.186352,6,P-GPS,
328900,2025-09-03 16:23:18,48.1487683716181,11.5721971892534,9.514436,,,1702.4861476554,9.514436,0,2.09203418768,5.37811697,10,3,15.412,1702.4861476554,9.514436,1.342164,2.19146660556,0,0,-2.23694,269.9, -0.1, -0.1,0,0,1024,1024,1253,1024,0,0,35,0,4,-2.5,-7.3,69,3.872,3.895,3.89,3.867,0,0,19.316,118.31,1702.4861476554,9.514436,6,P-GPS,
329000,2025-09-03 16:23:18,48.1487689156319,11.5721984079848,9.84252,,,1702.8142316554,9.84252,0,1.86549218568,5.735072362,10,3,15.412,1702.8142316554,9.84252,1.342164,2.19146660556,0,0,-2.23694,269.9, -0.3, -0.5,0,0,1024,1024,1251,1024,0,0,34,0,4.5,-2.8,-7.6,69,3.872,3.895,3.89,3.867,0,0,19.316,118.31,1702.8142316554,9.84252,6,P-GPS,
329100,2025-09-03 16:23:18,48.1487691011896,11.5721987529387,10.170604,,,1703.1423156554,10.170604,0,1.81365819452,5.8429135728,9,3,15.401,1703.1423156554,10.170604,1.342164,2.19146660556,0,0,-2.23694,269.9, -0.5, -1.1,0,0,1024,1024,1252,1024,0,0,35,0,4.2,-2.9,-8.1,69,3.863,3.887,3.881,3.858,0,0,19.58,120.11,1703.1423156554,10.170604,6,P-GPS,
329200,2025-09-03 16:23:18,48.1487692779149,11.5721988184644,10.498688,,,1703.4703996554,10.826772,0,1.82635504532,5.9093505828,9,3,15.401,1703.4703996554,10.498688,1.342164,2.19146660556,0,0,-2.23694,269.9, -0.5, -1.4,0,0,1024,1024,1251,1024,0,0,34,0,3.9,-2.9,-7.8,69,3.863,3.887,3.881,3.858,0,0,19.58,120.11,1703.4703996554,10.498688,6,P-GPS,
329300,2025-09-03 16:23:19,48.1487694421448,11.5721988441597,10.826772,,,1703.7984836554,10.826772,0,1.84780517724,5.9695868052,8,3,15.401,1703.7984836554,10.826772,1.342164,2.19146660556,0,0,-2.23694,269.9, -0.5, -1.3,0,0,1024,1024,1251,1024,0,0,34,0,4.2,-2.7,-6.8,69,3.863,3.887,3.881,3.858,0,0,19.58,120.11,1703.7984836554,10.826772,6,P-GPS,
329400,2025-09-03 16:23:19,48.1487695107791,11.5721989527945,11.154856,,,1704.1265676554,11.48294,0,1.8363517648,6.0060041292,8,3,15.401,1704.1265676554,11.154856,1.342164,2.19146660556,0,0,-2.23694,270, -0.4, -1.1,0,0,1024,1024,1251,1024,0,0,34,0,4.2,-2.7,-6.8,69,3.863,3.887,3.881,3.858,0,0,19.58,120.11,1704.1265676554,11.154856,6,P-GPS,
329500,2025-09-03 16:23:19,48.1487696849478,11.5721991761051,11.811024,,,1704.7827356554,11.811024,0,1.8211286672,6.0896327408,10,3,15.401,1704.7827356554,11.811024,1.342164,2.19146660556,0,0,-2.23694,270, -0.5, -0.7,0,0,1024,1024,1250,1024,0,0,34,0,4.4,-2.8,-7.2,69,3.863,3.887,3.881,3.858,0,0,19.58,120.11,1704.7827356554,11.811024,6,P-GPS,
329600,2025-09-03 16:23:19,48.1487695772906,11.5721992806563,12.139108,,,1705.1108196554,12.139108,0,1.77907486008,6.1364503276,10,3,15.401,1705.1108196554,12.139108,1.342164,2.19146660556,0,0,-2.23694,270, -0.6, 0,0,0,1024,1024,1251,1024,0,0,34,0,4.3,-2.7,-6.6,69,3.863,3.887,3.881,3.858,0,0,19.58,120.11,1705.1108196554,12.139108,6,P-GPS,
329700,2025-09-03 16:23:19,48.1487694648699,11.5721993699546,12.467192,,,1705.4389036554,12.467192,0,1.73961291656,6.1828742136,10,3,15.401,1705.4389036554,12.467192,1.342164,2.19146660556,0,0,-2.23694,270, -0.4, 0,0,0,1024,1024,1253,1024,0,0,35,0,4,-2.5,-6.5,69,3.863,3.887,3.881,3.858,0,0,19.58,120.11,1705.4389036554,12.467192,6,P-GPS,
329800,2025-09-03 16:23:19,48.1487694706299,11.5721992760844,12.795276,,,1705.7669876554,12.795276,0,1.760498744,6.2058072852,10,3,15.401,1705.7669876554,12.795276,1.342164,2.19146660556,0,0,-2.23694,270, -0.1, 0,0,0,1024,1024,1258,1024,0,0,35,0,4.1,-2.1,-6.6,69,3.863,3.887,3.881,3.858,0,0,19.58,120.11,1705.7669876554,12.795276,6,P-GPS,
329900,2025-09-03 16:23:19,48.1487693775951,11.5721989022225,13.12336,,,1706.0950716554,13.12336,0,1.82440294552,6.3029529576,10,3,15.401,1706.0950716554,13.12336,1.342164,2.19146660556,0,0,-2.23694,270, 0, 0,0,0,1024,1024,1254,1024,0,0,35,0,3.8,-1.9,-6.7,69,3.863,3.887,3.881,3.858,0,0,19.58,120.11,1706.0950716554,13.12336,6,P-GPS,
330000,2025-09-03 16:23:19,48.1487693470849,11.5721987901427,13.451444,,,1706.4231556554,13.451444,0,1.84369756556,6.3324149008,10,3,15.401,1706.4231556554,13.451444,1.342164,2.19146660556,0,0,-2.23694,270, 0.1, 0,0,0,1024,1024,1257,1024,0,0,35,0,3.9,-1.8,-6.7,69,3.863,3.887,3.881,3.858,0,0,19.58,120.11,1706.4231556554,13.451444,6,P-GPS,
330100,2025-09-03 16:23:19,48.1487693084547,11.5721986905844,13.779528,,,1706.7512396554,13.779528,0,1.85922578128,6.3604332744,11,3,15.391,1706.7512396554,13.779528,1.342164,2.19146660556,0,0,-2.23694,270, 0.1, 0.2,0,0,1024,1024,1253,1024,0,0,35,0,4,-1.7,-6.4,69,3.863,3.887,3.881,3.858,0,0,19.142,120.11,1706.7512396554,13.779528,6,P-GPS,
330200,2025-09-03 16:23:19,48.148769263408,11.57219843225,14.107612,,,1707.0793236554,14.107612,0,1.90913391936,6.4254267148,11,3,15.391,1707.0793236554,14.107612,1.342164,2.19146660556,0,0,-2.23694,270, 0.4, 0.3,0,0,1024,1024,1253,1024,0,0,35,0,3.7,-1.7,-6.6,69,3.863,3.887,3.881,3.858,0,0,19.142,120.11,1707.0793236554,14.107612,6,P-GPS,
330300,2025-09-03 16:23:19,48.1487691018963,11.5721976534675,14.435696,,,1707.4074076554,14.435696,0,2.06132224444,6.6239503432,11,3,15.391,1707.4074076554,14.435696,1.342164,2.19146660556,0,0,-2.23694,269.9, 0.2, -0.1,0,0,1024,1024,1262,1024,0,0,36,0,3.8,-1.8,-7.2,69,3.863,3.887,3.881,3.858,0,0,19.142,120.11,1707.4074076554,14.435696,6,P-GPS,
330400,2025-09-03 16:23:20,48.1487691556348,11.5721974981389,14.76378,,,1707.7354916554,14.76378,0,2.1036417996,6.6665684548,11,3,15.391,1707.7354916554,14.76378,1.342164,2.19146660556,0,0,-2.23694,270, 0.2, -0.3,0,0,1024,1024,1263,1024,0,0,36,0,3.9,-1.6,-7.1,69,3.863,3.887,3.881,3.858,0,0,19.142,120.11,1707.7354916554,14.76378,6,P-GPS,
330500,2025-09-03 16:23:20,48.1487692283253,11.5721973597909,15.091864,,,1708.0635756554,15.091864,0,2.14462605288,6.7094162252,11,3,15.391,1708.0635756554,15.091864,1.342164,2.19146660556,0,0,-2.23694,270, 0.5, 0.1,0,0,1024,1024,1262,1024,0,0,36,0,3.7,-1.6,-6.8,69,3.863,3.887,3.881,3.858,0,0,19.142,120.11,1708.0635756554,15.091864,6,P-GPS,
330600,2025-09-03 16:23:20,48.148769058462,11.5721971472516,15.748032,,,1708.7197436554,15.419948,0,2.17160111936,6.7901576976,11,3,15.391,1708.7197436554,15.748032,1.342164,2.19146660556,0,0,-2.23694,270, 0.5, 0.3,0,0,1024,1024,1258,1024,0,0,35,0,3.7,-1.6,-6.8,69,3.863,3.887,3.881,3.858,0,0,19.142,120.11,1708.7197436554,15.748032,6,P-GPS,
330700,2025-09-03 16:23:20,48.148768606131,11.5721966996073,16.076116,,,1709.0478276554,15.748032,0,2.22807421828,6.9879267328,10,3,15.391,1709.0478276554,16.076116,1.342164,2.22807421828,0,0,-2.460634,270, 0.2, 0.1,0,0,1024,1024,1264,1024,0,0,36,0,3.7,-1.8,-6.9,69,3.863,3.887,3.881,3.858,0,0,19.142,120.11,1709.0478276554,16.076116,6,P-GPS,
330800,2025-09-03 16:23:20,48.148768738785,11.5721967017105,16.4042,,,1709.3759116554,16.076116,0,2.24010177772,7.0363191228,10,3,15.391,1709.3759116554,16.4042,1.342164,2.24010177772,0,0,-2.460634,270, 0, -0.2,0,0,1024,1024,1264,1024,0,0,36,0,3.8,-2,-7.2,69,3.863,3.887,3.881,3.858,0,0,19.142,120.11,1709.3759116554,16.4042,6,P-GPS,
330900,2025-09-03 16:23:20,48.1487689063893,11.572196721929,16.732284,,,1709.7039956554,16.4042,0,2.25260177812,7.0976708308,9,3,15.391,1709.7039956554,16.732284,1.342164,2.25260177812,0,0,-2.460634,270, -0.1, -0.3,0,0,1024,1024,1265,1024,0,0,37,0,3.6,-2.1,-7.6,69,3.863,3.887,3.881,3.858,0,0,19.142,120.11,1709.7039956554,16.732284,6,P-GPS,
331000,2025-09-03 16:23:20,48.1487691427994,11.5721968037396,17.060368,,,1710.0320796554,17.060368,0,2.2606956104,7.186187894,9,3,15.391,1710.0320796554,17.060368,1.342164,2.2606956104,0,0,-2.460634,270.1, 0, -0.4,0,0,1024,1024,1262,1024,0,0,36,0,3.7,-1.9,-7.7,69,3.863,3.887,3.881,3.858,0,0,19.142,120.11,1710.0320796554,17.060368,6,P-GPS,
331100,2025-09-03 16:23:20,48.148769386584,11.5721968865661,17.388452,,,1710.3601636554,17.388452,0,2.27296923284,7.277395246,8,3,15.367,1710.3601636554,17.388452,1.342164,2.27296923284,0,0,-2.460634,270.1, 0, -0.5,0,0,1024,1024,1259,1024,0,0,36,0,3.3,-2,-7.9,69,3.857,3.881,3.875,3.854,0,0,19.142,120.11,1710.3601636554,17.388452,6,P-GPS,
331200,2025-09-03 16:23:20,48.1487701057173,11.5721973387675,17.716536,,,1710.6882476554,17.716536,0,2.28522317024,7.5619096908,8,3,15.367,1710.6882476554,17.716536,1.342164,2.28522317024,0,0,-2.460634,270, -0.1, -0.6,0,0,1024,1024,1258,1024,0,0,35,0,3.1,-2.1,-7.9,69,3.857,3.881,3.875,3.854,0,0,19.142,120.11,1710.6882476554,17.716536,6,P-GPS,
331300,2025-09-03 16:23:21,48.1487702202077,11.5721973418826,18.372704,,,1711.3444156554,18.04462,0,2.30497710788,7.6037075924,8,3,15.367,1711.3444156554,18.372704,1.342164,2.30497710788,0,0,-2.460634,269.9, -0.1, -0.6,0,0,1024,1024,1261,1024,0,0,36,0,3,-2.1,-7.9,69,3.857,3.881,3.875,3.854,0,0,19.142,120.11,1711.3444156554,18.372704,6,P-GPS,
331400,2025-09-03 16:23:21,48.1487702175823,11.5721972952876,18.700788,,,1711.6724996554,18.372704,0,2.31436359112,7.6150921072,8,3,15.367,1711.6724996554,18.700788,1.342164,2.31436359112,0,0,-2.460634,269.9, -0.1, -0.6,0,0,1024,1024,1257,1024,0,0,35,0,3.1,-1.9,-7.9,69,3.857,3.881,3.875,3.854,0,0,19.142,120.11,1711.6724996554,18.700788,6,P-GPS,
331500,2025-09-03 16:23:21,48.1487702013117,11.5721972375409,19.028872,,,1712.0005836554,18.700788,0,2.32369430008,7.6303480132,9,3,15.367,1712.0005836554,19.028872,1.342164,2.32369430008,0,0,-2.460634,269.9, 0.2, -0.3,0,0,1024,1024,1256,1024,0,0,35,0,2.9,-1.8,-7.7,69,3.857,3.881,3.875,3.854,0,0,19.142,120.11,1712.0005836554,19.028872,6,P-GPS,
331600,2025-09-03 16:23:21,48.1487695814428,11.572197009109,19.356956,,,1712.3286676554,19.356956,0,2.27277894412,7.8632548448,9,3,15.367,1712.3286676554,19.356956,1.342164,2.32369430008,0,0,-2.460634,269.9, 0.3, 0,0,0,1024,1024,1254,1024,0,0,35,0,2.8,-1.7,-7.2,69,3.857,3.881,3.875,3.854,0,0,19.142,120.11,1712.3286676554,19.356956,6,P-GPS,
331700,2025-09-03 16:23:21,48.1487694200101,11.572196897538,19.68504,,,1712.6567516554,19.68504,0,2.27501975784,7.9280842432,11,3,15.367,1712.6567516554,19.68504,1.342164,2.32369430008,0,0,-2.460634,269.9, 0, 0.1,0,0,1024,1024,1254,1024,0,0,35,0,3.5,-1.8,-7.3,69,3.857,3.881,3.875,3.854,0,0,19.142,120.11,1712.6567516554,19.68504,6,P-GPS,
331800,2025-09-03 16:23:21,48.1487694756545,11.5721970584404,20.013124,,,1712.9848356554,20.013124,0,2.24653222412,7.9722115412,11,3,15.367,1712.9848356554,20.013124,1.342164,2.32369430008,0,0,-2.23694,269.9, 0, 0,0,0,1024,1024,1262,1024,0,0,36,0,3,-2,-7.4,69,3.857,3.881,3.875,3.854,0,0,19.142,120.11,1712.9848356554,20.013124,6,P-GPS,
331900,2025-09-03 16:23:21,48.1487695568868,11.5721972435143,20.341208,,,1713.3129196554,20.341208,0,2.21694888984,8.0261485508,10,3,15.367,1713.3129196554,20.341208,1.342164,2.32369430008,0,0,-2.23694,269.9, 0, 0.1,0,0,1024,1024,1255,1024,0,0,35,0,3,-2,-7.4,69,3.857,3.881,3.875,3.854,0,0,19.142,120.11,1713.3129196554,20.341208,6,P-GPS,
332000,2025-09-03 16:23:21,48.1487696477795,11.5721973505467,20.669292,,,1713.6410036554,20.669292,0,2.20699154044,8.0683073448,10,3,15.367,1713.6410036554,20.669292,1.342164,2.32369430008,0,0,-2.23694,270, 0.2, 0.2,0,0,1024,1024,1253,1024,0,0,35,0,2.9,-1.7,-7.4,69,3.857,3.881,3.875,3.854,0,0,19.142,120.11,1713.6410036554,20.669292,6,P-GPS,
332100,2025-09-03 16:23:21,48.148769643271,11.5721972718087,20.997376,,,1713.9690876554,20.997376,0,2.22368445436,8.0875658756,10,3,15.355,1713.9690876554,20.997376,1.342164,2.32369430008,0,0,-2.23694,270, 0.2, 0,0,0,1024,1024,1257,1024,0,0,35,0,3.3,-1.5,-7.5,69,3.851,3.877,3.871,3.849,0,0,19.29,120.11,1713.9690876554,20.997376,6,P-GPS,
332200,2025-09-03 16:23:21,48.1487696558348,11.5721972393857,21.32546,,,1714.2971716554,21.653544,0,2.23277238116,8.0966866108,10,3,15.355,1714.2971716554,21.32546,1.342164,2.32369430008,0,0,-2.23694,270, 0.2, 0,0,0,1024,1024,1260,1024,0,0,36,0,2.9,-1.6,-7.6,69,3.851,3.877,3.871,3.849,0,0,19.29,120.11,1714.2971716554,21.32546,6,P-GPS,
332300,2025-09-03 16:23:22,48.148769672857,11.5721972143918,21.981628,,,1714.9533396554,21.981628,0,2.24090230268,8.1053808368,10,3,15.355,1714.9533396554,21.981628,1.342164,2.32369430008,0,0,-2.23694,270, 0.3, 0,0,0,1024,1024,1264,1024,0,0,36,0,2.4,-1.7,-7.7,69,3.851,3.877,3.871,3.849,0,0,19.29,120.11,1714.9533396554,21.981628,6,P-GPS,
332400,2025-09-03 16:23:22,48.1487694032842,11.5721968421794,22.309712,,,1715.2814236554,22.309712,0,2.28525925948,8.2391078752,10,3,15.355,1715.2814236554,22.309712,1.342164,2.32369430008,0,0,-2.23694,270, 0.4, 0.1,0,0,1024,1024,1265,1024,0,0,37,0,2.7,-1.5,-7.5,69,3.851,3.877,3.871,3.849,0,0,19.29,120.11,1715.2814236554,22.309712,6,P-GPS,
332500,2025-09-03 16:23:22,48.1487693228282,11.572196701408,22.637796,,,1715.6095076554,22.637796,0,2.30659784284,8.2842194252,9,3,15.355,1715.6095076554,22.637796,1.342164,2.32369430008,0,0,-2.460634,270, 0.4, 0.4,0,0,1024,1024,1266,1024,0,0,37,0,2.4,-1.5,-7.2,69,3.851,3.877,3.871,3.849,0,0,19.29,120.11,1715.6095076554,22.637796,6,P-GPS,
332600,2025-09-03 16:23:22,48.1487693108264,11.5721966296585,22.96588,,,1715.9375916554,22.96588,0,2.32141083544,8.3022312368,9,3,15.355,1715.9375916554,22.96588,1.342164,2.32369430008,0,0,-2.460634,270, 0.3, 0.4,0,0,1024,1024,1263,1024,0,0,36,0,2.2,-1.7,-7.4,69,3.851,3.877,3.871,3.849,0,0,19.29,120.11,1715.9375916554,22.96588,6,P-GPS,
332700,2025-09-03 16:23:22,48.1487693139921,11.5721965690719,23.293964,,,1716.2656756554,23.293964,0,2.33563983852,8.3170278252,10,3,15.355,1716.2656756554,23.293964,1.342164,2.33563983852,0,0,-2.460634,270, 0, 0,0,0,1024,1024,1263,1024,0,0,36,0,2.5,-1.8,-8.1,69,3.851,3.877,3.871,3.849,0,0,19.29,120.11,1716.2656756554,23.293964,6,P-GPS,
332800,2025-09-03 16:23:22,48.1487694853391,11.5721965899934,23.622048,,,1716.5937596554,23.950132,0,2.35337277872,8.379757486,10,3,15.355,1716.5937596554,23.622048,1.342164,2.35337277872,0,0,-2.460634,270, 0, -0.3,0,0,1024,1024,1266,1024,0,0,37,0,2.1,-1.8,-7.9,69,3.851,3.877,3.871,3.849,0,0,19.29,120.11,1716.5937596554,23.622048,6,P-GPS,
332900,2025-09-03 16:23:22,48.1487699199968,11.5721966072212,23.950132,,,1716.9218436554,24.278216,0,2.41300204572,8.5383861,10,3,15.355,1716.9218436554,23.950132,1.342164,2.41300204572,0,0,-2.460634,270, 0.3, 0,0,0,1024,1024,1263,1024,0,0,36,0,1.5,-1.5,-7.6,69,3.851,3.877,3.871,3.849,0,0,19.29,120.11,1716.9218436554,23.950132,6,P-GPS,
333000,2025-09-03 16:23:22,48.1487698194753,11.5721963136272,24.6063,,,1717.5780116554,24.6063,0,2.4627133334,8.6187010632,10,3,15.355,1717.5780116554,24.6063,1.342164,2.4627133334,0,0,-2.460634,270, 0.5, 0.1,0,0,1024,1024,1261,1024,0,0,36,0,1.6,-1.4,-8,69,3.851,3.877,3.871,3.849,0,0,19.29,120.11,1717.5780116554,24.6063,6,P-GPS,
333100,2025-09-03 16:23:22,48.1487696925436,11.5721959942176,24.934384,,,1717.9060956554,24.934384,0,2.51616149784,8.7092194388,11,3,15.339,1717.9060956554,24.934384,1.342164,2.51616149784,0,0,-2.460634,270, 0.5, 0.1,0,0,1024,1024,1259,1024,0,0,36,0,1.6,-1.4,-8,69,3.845,3.87,3.864,3.843,0,0,19.29,120.11,1717.9060956554,24.934384,6,P-GPS,
333200,2025-09-03 16:23:22,48.1487696779379,11.5721958531622,25.262468,,,1718.2341796554,25.590552,0,2.54600729932,8.7439635344,11,3,15.339,1718.2341796554,25.262468,1.342164,2.54600729932,0,0,-2.460634,270, 0.4, 0.1,0,0,1024,1024,1266,1024,0,0,37,0,2.5,-1.4,-8.1,69,3.845,3.87,3.864,3.843,0,0,19.29,120.11,1718.2341796554,25.262468,6,P-GPS,
333300,2025-09-03 16:23:23,48.1487694707989,11.5721953999633,25.590552,,,1718.5622636554,25.918636,0,2.62275927028,8.8776905728,11,3,15.339,1718.5622636554,25.590552,1.342164,2.62275927028,0,0,-2.460634,270, 0.2, -0.1,0,0,1024,1024,1256,1024,0,0,35,0,2.2,-1.6,-8.3,69,3.845,3.87,3.864,3.843,0,0,19.29,120.11,1718.5622636554,25.590552,6,P-GPS,
333400,2025-09-03 16:23:23,48.1487695749255,11.5721954315477,25.918636,,,1718.8903476554,26.24672,0,2.62837606836,8.9164372932,11,3,15.339,1718.8903476554,25.918636,1.342164,2.62837606836,0,0,-2.460634,270, 0.1, -0.3,0,0,1024,1024,1253,1024,0,0,35,0,1.5,-1.8,-8.7,69,3.845,3.87,3.864,3.843,0,0,19.29,120.11,1718.8903476554,25.918636,6,P-GPS,
333500,2025-09-03 16:23:23,48.1487696867618,11.5721954699297,26.24672,,,1719.2184316554,26.574804,0,2.63401911316,8.9583008116,10,3,15.339,1719.2184316554,26.24672,1.342164,2.63401911316,0,0,-2.460634,270, 0, -0.5,0,0,1024,1024,1247,1024,0,0,34,0,1.4,-2,-9.1,69,3.845,3.87,3.864,3.843,0,0,19.29,120.11,1719.2184316554,26.24672,6,P-GPS,
333600,2025-09-03 16:23:23,48.1487697173703,11.5721954813967,26.574804,,,1719.5465156554,26.902888,0,2.63545940192,8.96981656,10,3,15.339,1719.5465156554,26.574804,1.342164,2.63545940192,0,0,-2.23694,270, -0.1, -0.7,0,0,1024,1024,1250,1024,0,0,34,0,1.7,-2,-9.3,69,3.845,3.87,3.864,3.843,0,0,19.29,120.11,1719.5465156554,26.574804,6,P-GPS,
333700,2025-09-03 16:23:23,48.1487698160876,11.5721957867538,26.902888,,,1719.8745996554,27.559056,0,2.58004601432,9.0524281112,11,3,15.339,1719.8745996554,26.902888,1.342164,2.63545940192,0,0,-2.23694,270, -0.1, -0.3,0,0,1024,1024,1258,1024,0,0,35,0,1.8,-1.9,-8.8,69,3.845,3.87,3.864,3.843,0,0,19.29,120.11,1719.8745996554,26.902888,6,P-GPS,
333800,2025-09-03 16:23:23,48.1487698303375,11.5721958877919,27.230972,,,1720.2026836554,27.88714,0,2.5593996882,9.0775593456,11,3,15.339,1720.2026836554,27.230972,1.342164,2.63545940192,0,0,-2.23694,270, -0.1, -0.2,0,0,1024,1024,1256,1024,0,0,35,0,1.2,-2.1,-8.9,69,3.845,3.87,3.864,3.843,0,0,19.29,120.11,1720.2026836554,27.230972,6,P-GPS,
333900,2025-09-03 16:23:23,48.148769842529,11.5721959888926,27.559056,,,1720.5307676554,28.215224,0,2.53852042244,9.1025593464,11,3,15.339,1720.5307676554,27.559056,1.342164,2.63545940192,0,0,-2.23694,270, -0.1, -0.2,0,0,1024,1024,1264,1024,0,0,36,0,1.2,-2,-9,69,3.845,3.87,3.864,3.843,0,0,19.29,120.11,1720.5307676554,27.559056,6,P-GPS,
334000,2025-09-03 16:23:23,48.1487700004203,11.5721960528013,27.88714,,,1720.8588516554,28.543308,0,2.54772317864,9.162237826,11,3,15.339,1720.8588516554,27.88714,1.342164,2.63545940192,0,0,-2.23694,270.1, 0, -0.4,0,0,1024,1024,1265,1024,0,0,37,0,1.2,-2.1,-9.2,69,3.845,3.87,3.864,3.843,0,0,19.29,120.11,1720.8588516554,27.88714,6,P-GPS,
334100,2025-09-03 16:23:23,48.1487704734713,11.5721964134063,28.215224,,,1721.1869356554,28.871392,0,2.54727370356,9.3558730028,11,3,15.296,1721.1869356554,28.215224,1.342164,2.63545940192,0,0,-2.23694,270.1, -0.2, -0.5,0,0,1024,1024,1264,1024,0,0,36,0,1.2,-1.8,-9.4,68,3.845,3.87,3.864,3.843,0,0,19.198,120.11,1721.1869356554,28.215224,6,P-GPS,
334200,2025-09-03 16:23:23,48.1487706473166,11.5721964381009,28.543308,,,1721.5150196554,29.199476,0,2.57343184088,9.4195869156,11,3,15.296,1721.5150196554,28.543308,1.342164,2.63545940192,0,0,-2.23694,270.1, 0, -0.7,0,0,1024,1024,1268,1024,0,0,37,0,1.4,-1.6,-9.4,68,3.845,3.87,3.864,3.843,0,0,19.198,120.11,1721.5150196554,28.543308,6,P-GPS,
334300,2025-09-03 16:23:24,48.1487708142228,11.5721964564264,28.871392,,,1721.8431036554,29.52756,0,2.60088262916,9.480643348,11,3,15.296,1721.8431036554,28.871392,1.342164,2.63545940192,0,0,-2.23694,270.1, 0.1, -0.8,0,0,1024,1024,1268,1024,0,0,37,0,0.9,-1.6,-9.6,68,3.845,3.87,3.864,3.843,0,0,19.198,120.11,1721.8431036554,28.871392,6,P-GPS,
334400,2025-09-03 16:23:24,48.1487708194672,11.5721962472734,29.199476,,,1722.1711876554,29.855644,0,2.6454069088,9.5315947932,11,3,15.296,1722.1711876554,29.199476,1.342164,2.6454069088,0,0,-2.460634,270, 0.3, -0.6,0,0,1024,1024,1268,1024,0,0,37,0,0.9,-1.6,-9.6,68,3.845,3.87,3.864,3.843,0,0,19.198,120.11,1722.1711876554,29.199476,6,P-GPS,
334500,2025-09-03 16:23:24,48.1487708023989,11.5721960180632,29.855644,,,1722.8273556554,30.183728,0,2.69025927244,9.5877299656,11,3,15.296,1722.8273556554,29.855644,1.342164,2.69025927244,0,0,-2.460634,270, 0.4, -0.3,0,0,1024,1024,1269,1024,0,0,37,0,0.5,-1.6,-9.2,68,3.845,3.87,3.864,3.843,0,0,19.198,120.11,1722.8273556554,29.855644,6,P-GPS,
334600,2025-09-03 16:23:24,48.148770734131,11.5721954978678,30.183728,,,1723.1554396554,30.839896,0,2.78841216272,9.7167982112,11,3,15.296,1723.1554396554,30.183728,1.342164,2.78841216272,0,0,-2.460634,270, 0.3, 0,0,0,1024,1024,1269,1024,0,0,37,0,0.7,-1.6,-8.8,68,3.845,3.87,3.864,3.843,0,0,19.198,120.11,1723.1554396554,30.183728,6,P-GPS,
334700,2025-09-03 16:23:24,48.1487706505452,11.5721953206965,30.511812,,,1723.4835236554,31.16798,0,2.81216872516,9.7696197352,11,3,15.296,1723.4835236554,30.511812,1.342164,2.81216872516,0,0,-2.460634,269.9, 0, 0.3,0,0,1024,1024,1268,1024,0,0,37,0,1.2,-1.7,-8.6,68,3.845,3.87,3.864,3.843,0,0,19.198,120.11,1723.4835236554,30.511812,6,P-GPS,
334800,2025-09-03 16:23:24,48.148770581591,11.5721952891706,30.839896,,,1723.8116076554,31.496064,0,2.80746728144,9.7958992636,11,3,15.296,1723.8116076554,30.839896,1.342164,2.81216872516,0,0,-2.460634,270, 0, 0.2,0,0,1024,1024,1268,1024,0,0,37,0,0.9,-1.6,-8.8,68,3.845,3.87,3.864,3.843,0,0,19.198,120.11,1723.8116076554,30.839896,6,P-GPS,
334900,2025-09-03 16:23:24,48.1487705159942,11.5721952645603,31.16798,,,1724.1396916554,31.824148,0,2.80204405292,9.8205711804,11,3,15.296,1724.1396916554,31.16798,1.342164,2.81216872516,0,0,-2.460634,269.9, 0, 0,0,0,1024,1024,1266,1024,0,0,37,0,0.6,-1.7,-9.1,68,3.845,3.87,3.864,3.843,0,0,19.198,120.11,1724.1396916554,31.16798,6,P-GPS,
335000,2025-09-03 16:23:24,48.1487701451352,11.5721951939311,31.496064,,,1724.4677756554,32.152232,0,2.76004602008,9.9569885076,11,3,15.296,1724.4677756554,31.496064,1.342164,2.81216872516,0,0,-2.460634,269.9, 0, -0.1,0,0,1024,1024,1266,1024,0,0,37,0,0.5,-1.7,-9.2,68,3.845,3.87,3.864,3.843,0,0,19.198,120.11,1724.4677756554,31.496064,6,P-GPS,
335100,2025-09-03 16:23:24,48.148770066263,11.5721951111832,31.824148,,,1724.7958596554,32.480316,0,2.76705717516,9.9920934956,11,3,15.309,1724.7958596554,31.824148,1.342164,2.81216872516,0,0,-2.460634,269.9, 0, 0,0,0,1024,1024,1269,1024,0,0,37,0,0.5,-1.7,-9.1,68,3.848,3.87,3.862,3.836,0,0,18.992,120.11,1724.7958596554,31.824148,6,P-GPS,
335200,2025-09-03 16:23:24,48.148769913829,11.5721950076905,32.152232,,,1725.1239436554,32.8084,0,2.7690617684,10.053149928,11,3,15.309,1725.1239436554,32.152232,1.342164,2.81216872516,0,0,-2.460634,269.9, 0, 0.1,0,0,1024,1024,1271,1024,0,0,37,0,0.4,-1.7,-8.9,68,3.848,3.87,3.862,3.836,0,0,18.992,120.11,1725.1239436554,32.152232,6,P-GPS,
335300,2025-09-03 16:23:25,48.1487697450101,11.5721948950201,32.480316,,,1725.4520276554,33.136484,0,2.77240494436,10.12057119,11,3,15.309,1725.4520276554,32.480316,1.342164,2.81216872516,0,0,-2.460634,269.9, 0.1, 0.1,0,0,1024,1024,1269,1024,0,0,37,0,0.5,-1.6,-9,68,3.848,3.87,3.862,3.836,0,0,18.992,120.11,1725.4520276554,32.480316,6,P-GPS,
335400,2025-09-03 16:23:25,48.1487693345682,11.5721948456044,32.8084,,,1725.7801116554,33.792652,0,2.73514116364,10.2708008536,11,3,15.309,1725.7801116554,32.8084,1.342164,2.81216872516,0,0,-2.460634,269.9, 0.1, 0,0,0,1024,1024,1266,1024,0,0,37,0,0.3,-1.8,-8.9,68,3.848,3.87,3.862,3.836,0,0,18.992,120.11,1725.7801116554,32.8084,6,P-GPS,
335500,2025-09-03 16:23:25,48.1487691911491,11.5721947696252,33.136484,,,1726.1081956554,34.120736,0,2.73767069128,10.3263126664,11,3,15.309,1726.1081956554,33.136484,1.342164,2.81216872516,0,0,-2.460634,269.9, 0.1, -0.1,0,0,1024,1024,1264,1024,0,0,36,0,359.9,-1.9,-9.3,68,3.848,3.87,3.862,3.836,0,0,18.992,120.11,1726.1081956554,33.136484,6,P-GPS,
335600,2025-09-03 16:23:25,48.1487691176525,11.5721946203527,33.464568,,,1726.4362796554,34.120736,0,2.76526911736,10.3714570248,11,3,15.309,1726.4362796554,33.464568,1.342164,2.81216872516,0,0,-2.460634,269.9, 0, 0,0,0,1024,1024,1266,1024,0,0,37,0,359.9,-1.9,-9.3,68,3.848,3.87,3.862,3.836,0,0,18.992,120.11,1726.4362796554,33.464568,6,P-GPS,
335700,2025-09-03 16:23:25,48.1487690448518,11.5721944540746,33.792652,,,1726.7643636554,34.120736,0,2.79739510264,10.4198822232,12,3,15.309,1726.7643636554,33.792652,1.342164,2.81216872516,0,0,-2.23694,269.8, 0, 0.3,0,0,1024,1024,1265,1024,0,0,37,0,0,-1.8,-8.8,68,3.848,3.87,3.862,3.836,0,0,18.992,120.11,1726.7643636554,33.792652,6,P-GPS,
