time(millisecond),datetime(utc),latitude,longitude,height_above_takeoff(feet),height_above_ground_at_drone_location(feet),ground_elevation_at_drone_location(feet),altitude_above_seaLevel(feet),height_sonar(feet),speed(mph),distance(feet),mileage(feet),satellites,gpslevel,voltage(v),max_altitude(feet),max_ascent(feet),max_speed(mph),max_distance(feet), xSpeed(mph), ySpeed(mph), zSpeed(mph), compass_heading(degrees), pitch(degrees), roll(degrees),isPhoto,isVideo,rc_elevator,rc_aileron,rc_throttle,rc_rudder,rc_elevator(percent),rc_aileron(percent),rc_throttle(percent),rc_rudder(percent),gimbal_heading(degrees),gimbal_pitch(degrees),gimbal_roll(degrees),battery_percent,voltageCell1,voltageCell2,voltageCell3,voltageCell4,voltageCell5,voltageCell6,current(A),battery_temperature(f),altitude(feet),ascent(feet),flycStateRaw,flycState,message
320300,2025-09-03 06:12:12,48.1487636455278,11.5721658431223,0,Available with any HD 360 subscription,Available with any HD 360 subscription,1692.8769951169,0.328084,0,0,0,11,4,0,1692.8769951169,0,0,0,0,0,0,112, 5.7, -3,0,0,1024,1024,1024,1024,0,0,0,0,47.9,4.3,-3.7,66,3.925,3.93,3.926,3.903,0,0,0,116.51,1692.8769951169,0,6,P-GPS,
320400,2025-09-03 06:12:13,48.1487639131007,11.5721655634706,0,,,1692.8769951169,0.328084,0,0.119015095672,0.119015095672,11,4,0,1692.8769951169,0,0,0.119015095672,0,0,0,111.9, 5.7, -3,0,0,1024,1024,1024,1024,0,0,0,0,47.9,4.4,-3.7,66,3.925,3.93,3.926,3.903,0,0,0,116.51,1692.8769951169,0,41,Motors_Started,
320500,2025-09-03 06:12:13,48.1487640736655,11.5721655353535,0,,,1692.8769951169,0.328084,0,0.17324311578,0.17799541252,11,4,0,1692.8769951169,0,0,0.17324311578,0,0,0,112.1, 5.7, -2.9,0,0,366,364,364,1684,-100,-100,-100,100,47.8,4.4,-3.2,66,3.925,3.93,3.926,3.903,0,0,0,116.51,1692.8769951169,0,41,Motors_Started,
320600,2025-09-03 06:12:13,48.1487642221529,11.572165508741,0,,,1692.8769951169,0.328084,0,0.22557907546,0.232557094056,11,4,0,1692.8769951169,0,0,0.22557907546,0,0,0,112, 5.7, -2.9,0,0,372,364,364,1684,-99,-100,-100,100,47.8,4.4,-3.2,66,3.925,3.93,3.926,3.903,0,0,0,116.51,1692.8769951169,0,41,Motors_Started,
320700,2025-09-03 06:12:13,48.1487643630707,11.5721654823701,0,,,1692.8769951169,0.328084,0,0.276131242432,0.28437008784,11,4,0,1692.8769951169,0,0,0.276131242432,0,0,0,112, 5.7, -2.9,0,0,391,364,369,1650,-96,-100,-99,95,47.7,4.4,-3.1,66,3.925,3.93,3.926,3.903,0,0,0,116.51,1692.8769951169,0,41,Motors_Started,
320800,2025-09-03 06:12:13,48.1487645852406,11.5721653310046,0,,,1692.8769951169,0.328084,0,0.3648130038,0.3734088046,11,4,0,1692.8769951169,0,0,0.3648130038,0,0,0,112, 5.7, -3,0,0,820,642,788,1382,-31,-58,-36,54,47.6,4.4,-3.1,66,3.925,3.93,3.926,3.903,0,0,0,116.51,1692.8769951169,0,41,Motors_Started,
320900,2025-09-03 06:12:13,48.148764711846,11.5721653082623,0,,,1692.8769951169,0.328084,0,0.4102526378,0.4199311158,10,4,0,1692.8769951169,0,0,0.4102526378,0,0,0,112.1, 5.7, -3,0,0,1024,1024,1024,1024,0,0,0,0,47.6,4.5,-3.7,66,3.925,3.93,3.926,3.903,0,0,0,116.51,1692.8769951169,0,41,Motors_Started,
321000,2025-09-03 06:12:13,48.148764803577,11.5721653153656,0,,,1692.8769951169,0.328084,0,0.44161418736,0.4534448964,10,4,0,1692.8769951169,0,0,0.44161418736,0,0,0,112, 5.7, -3,0,0,1024,1024,1024,1024,0,0,0,0,47.4,4.4,-3.4,66,3.925,3.93,3.926,3.903,0,0,0,116.51,1692.8769951169,0,41,Motors_Started,
321100,2025-09-03 06:12:13,48.1487648713158,11.572165356106,0,,,1692.8769951169,0.328084,0,0.46267389932,0.48007547468,11,4,15.703,1692.8769951169,0,0,0.46267389932,0,0,0,112, 5.7, -2.9,0,0,1024,1024,1024,1024,0,0,0,0,47.3,4.5,-3.3,66,3.925,3.93,3.926,3.903,0,0,2.576,116.51,1692.8769951169,0,41,Motors_Started,"Setting new Return-To-Home altitude to 100m (328 ft). Data Recorder File Index is 233. Setting new Maximum Flight Altitude to 150m (492 ft)"
321200,2025-09-03 06:12:13,48.1487649472127,11.5721654292647,0,,,1692.8769951169,0.328084,0,3.9892061644,0.51299870408,11,4,15.703,1692.8769951169,0,0,3.9892061644,0,0,0,112, 5.8, -2.9,0,0,1024,1024,1024,1024,0,0,0,0,47.4,4.5,-3.4,66,3.925,3.93,3.926,3.903,0,0,2.576,116.51,1692.8769951169,0,41,Motors_Started,
321300,2025-09-03 06:12:14,48.1487649165275,11.5721657845715,0,,,1692.8769951169,0.328084,0,3.972112988,0.60020999296,11,4,15.703,1692.8769951169,0,0,3.9892061644,0,0,0,111.9, 5.8, -2.9,0,0,1024,1024,1024,1024,0,0,0,0,47.3,4.6,-3.5,66,3.925,3.93,3.926,3.903,0,0,2.576,116.51,1692.8769951169,0,41,Motors_Started,
321400,2025-09-03 06:12:14,48.1487649616257,11.5721659035236,0,,,1692.8769951169,0.328084,0,3.9869751932,0.63351708064,11,4,15.703,1692.8769951169,0,0,3.9892061644,0,0,0,111.9, 5.8, -2.9,0,0,1024,1024,1024,1024,0,0,0,0,47.2,4.5,-3.5,66,3.925,3.93,3.926,3.903,0,0,2.576,116.51,1692.8769951169,0,41,Motors_Started,
321500,2025-09-03 06:12:14,48.1487649634911,11.572166033775,0,,,1692.8769951169,0.328084,0,3.9861877916,0.66522968008,11,4,15.703,1692.8769951169,0,0,3.9892061644,0,0,0,111.9, 5.8, -2.9,0,0,1024,1024,1024,1024,0,0,0,0,47.2,4.6,-3.6,66,3.925,3.93,3.926,3.903,0,0,2.576,116.51,1692.8769951169,0,41,Motors_Started,
321600,2025-09-03 06:12:14,48.1487649726673,11.5721661820286,0,,,1692.8769951169,0.328084,0,3.9881562956,0.70147311956,11,4,15.703,1692.8769951169,0,0,3.9892061644,0,0,0,111.9, 5.8, -3,0,0,1024,1024,1024,1024,0,0,0,0,47.1,4.6,-3.4,66,3.925,3.93,3.926,3.903,0,0,2.576,116.51,1692.8769951169,0,41,Motors_Started,
321700,2025-09-03 06:12:14,48.1487647997465,11.572166656391,0,,,1692.8769951169,0.328084,0,3.9228675796,0.83305776944,11,4,15.703,1692.8769951169,0,0,3.9892061644,0,0,0,111.9, 5.8, -3,0,0,1024,1024,1024,1024,0,0,0,0,47,4.6,-3.5,66,3.925,3.93,3.926,3.903,0,0,2.576,116.51,1692.8769951169,0,41,Motors_Started,
321800,2025-09-03 06:12:14,48.148764860174,11.5721668626024,0,,,1692.8769951169,0.328084,0,3.9450132496,0.88788388668,11,4,15.703,1692.8769951169,0,0,3.9892061644,0,0,0,111.8, 5.8, -2.9,0,0,1024,1024,1024,1024,0,0,0,0,47,4.6,-3.9,66,3.925,3.93,3.926,3.903,0,0,2.576,116.51,1692.8769951169,0,41,Motors_Started,
321900,2025-09-03 06:12:14,48.1487649597925,11.5721670998045,0,,,1692.8769951169,0.328084,0,3.9822507836,0.95611223532,11,4,15.703,1692.8769951169,0,0,3.9892061644,0,0,0,111.8, 5.8, -2.9,0,0,1024,1024,1024,1024,0,0,0,0,47,4.6,-3.9,66,3.925,3.93,3.926,3.903,0,0,2.576,116.51,1692.8769951169,0,10,Assisted_Takeoff,
322000,2025-09-03 06:12:14,48.1487650411805,11.5721672569974,0,,,1692.8769951169,0.328084,0,4.012959446,1.00454727624,11,4,15.703,1692.8769951169,0,0,4.012959446,0,0,0,111.8, 5.8, -2.9,0,0,1024,1024,1024,1024,0,0,0,0,46.9,4.7,-3.7,66,3.925,3.93,3.926,3.903,0,0,2.576,116.51,1692.8769951169,0,10,Assisted_Takeoff,
322100,2025-09-03 06:12:14,48.1487651482018,11.5721674079392,0,,,1692.8769951169,0.328084,0,4.0533465864,1.05816276352,11,4,15.589,1692.8769951169,0,0,4.0533465864,0,0,0,111.8, 5.8, -2.9,0,0,1024,1024,1024,1024,0,0,0,0,46.8,4.6,-4.2,66,3.925,3.93,3.926,3.903,0,0,2.576,116.51,1692.8769951169,0,10,Assisted_Takeoff,
322200,2025-09-03 06:12:14,48.1487652292051,11.5721674510044,0,,,1692.8769951169,0.328084,0,4.0833006556,1.08952103224,11,4,15.589,1692.8769951169,0,0,4.0833006556,0,0,0,111.8, 5.8, -2.9,0,0,1024,1024,1024,1024,0,0,0,0,46.8,4.6,-4.2,66,3.925,3.93,3.926,3.903,0,0,2.576,116.51,1692.8769951169,0,10,Assisted_Takeoff,
322300,2025-09-03 06:12:14,48.1487653322579,11.5721674691357,0,,,1692.8769951169,0.328084,0,4.121063124,1.127378645,11,4,15.589,1692.8769951169,0,0,4.121063124,0,0,0,111.8, 5.8, -2.9,0,0,1024,1024,1024,1024,0,0,0,0,46.7,4.6,-4.2,66,3.925,3.93,3.926,3.903,0,0,2.576,116.51,1692.8769951169,0,10,Assisted_Takeoff,
322400,2025-09-03 06:12:15,48.1487654591625,11.5721675032897,0,,,1692.8769951169,0.328084,0,4.1676838604,1.17441932892,11,4,15.589,1692.8769951169,0,0,4.1676838604,0,0,0,111.8, 5.8, -2.9,0,0,1024,1024,1024,1024,0,0,0,0,46.6,4.6,-4.2,66,3.925,3.93,3.926,3.903,0,0,2.576,116.51,1692.8769951169,0,10,Assisted_Takeoff,
322500,2025-09-03 06:12:15,48.1487658268001,11.5721673884662,0,,,1692.8769951169,0.328084,0,4.3005578804,1.311433769,11,4,15.589,1692.8769951169,0,0,4.3005578804,0,0,0,111.8, 5.8, -2.9,0,0,1024,1024,1024,1024,0,0,0,0,46.6,4.6,-4.3,66,3.925,3.93,3.926,3.903,0,0,2.576,116.51,1692.8769951169,0,10,Assisted_Takeoff,
322600,2025-09-03 06:12:15,48.1487659744275,11.5721674105873,0,,,1692.8769951169,0.328084,0,4.3545605068,1.36556434816,11,4,15.589,1692.8769951169,0,0,4.3545605068,0,0,0,111.8, 5.8, -2.9,0,0,1024,1024,1024,1024,0,0,0,0,46.5,4.6,-4.3,66,3.925,3.93,3.926,3.903,0,0,2.576,116.51,1692.8769951169,0,10,Assisted_Takeoff,
322700,2025-09-03 06:12:15,48.1487661081382,11.572167386923,0,,,1692.8769951169,0.328084,0,4.4031169388,1.41468836548,11,4,15.589,1692.8769951169,0,0,4.4031169388,0,0,0,111.8, 5.8, -2.9,0,0,1024,1024,1024,1024,0,0,0,0,46.4,4.6,-4.4,66,3.925,3.93,3.926,3.903,0,0,2.576,116.51,1692.8769951169,0,10,Assisted_Takeoff,
322800,2025-09-03 06:12:15,48.1487662524676,11.5721673517316,0,,,1692.8769951169,0.328084,0,4.4554463368,1.46803810472,11,4,15.589,1692.8769951169,0,0,4.4554463368,0,0,0,111.8, 5.8, -3,0,0,1024,1024,1024,1024,0,0,0,0,46.4,4.6,-4.4,66,3.925,3.93,3.926,3.903,0,0,2.576,116.51,1692.8769951169,0,10,Assisted_Takeoff,
322900,2025-09-03 06:12:15,48.1487664216287,11.572167313043,0,,,1692.8769951169,0.328084,0,4.5167980448,1.53046920908,11,4,15.589,1692.8769951169,0,0,4.5167980448,0,0,0,111.8, 5.8, -3,0,0,1024,1024,1024,1024,0,0,0,0,46.3,4.6,-4.5,66,3.925,3.93,3.926,3.903,0,0,2.576,116.51,1692.8769951169,0,10,Assisted_Takeoff,
323000,2025-09-03 06:12:15,48.1487666356738,11.5721670629512,0,,,1692.8769951169,0.328084,0,4.5933728504,1.62949152196,11,4,15.589,1692.8769951169,0,0,4.5933728504,0,0,0,111.7, 5.9, -2.9,0,0,1024,1024,1024,1024,0,0,0,0,46.3,4.6,-4.5,66,3.925,3.93,3.926,3.903,0,0,2.576,116.51,1692.8769951169,0,10,Assisted_Takeoff,
323100,2025-09-03 06:12:15,48.1487667099985,11.5721670787699,0,,,1692.8769951169,0.328084,0,4.620571014,1.65687997428,11,4,15.572,1692.8769951169,0,0,4.620571014,0,0,0,111.7, 5.9, -2.9,0,0,1024,1024,1024,1024,0,0,0,0,46.2,4.6,-4.5,66,3.945,3.943,3.939,3.92,0,0,2.576,116.51,1692.8769951169,0,10,Assisted_Takeoff,
323200,2025-09-03 06:12:15,48.1487667376682,11.5721670118134,0,,,1692.8769951169,0.328084,0,4.6303807256,1.67605320324,11,4,15.572,1692.8769951169,0,0,4.6303807256,0,0,0,111.7, 5.9, -2.9,0,0,1024,1024,1024,1024,0,0,0,0,46.2,4.6,-4.5,66,3.945,3.943,3.939,3.92,0,0,2.576,116.51,1692.8769951169,0,10,Assisted_Takeoff,
323300,2025-09-03 06:12:15,48.1487667218275,11.5721668465767,0,,,1692.8769951169,0.328084,0,4.624179938,1.71668968748,10,4,15.572,1692.8769951169,0,0,4.6303807256,0,0,0,111.7, 5.9, -2.9,0,0,1024,1024,1024,1024,0,0,0,0,46.2,4.7,-4.6,66,3.945,3.943,3.939,3.92,0,0,2.576,116.51,1692.8769951169,0,10,Assisted_Takeoff,
323400,2025-09-03 06:12:16,48.1487663584032,11.572166433089,0,,,1692.8769951169,0.328084,0,4.4920933196,1.88315950908,10,4,15.572,1692.8769951169,0,0,4.6303807256,0,0,0,111.7, 5.8, -2.9,0,0,1024,1024,1024,1024,0,0,0,0,46.1,4.7,-4.6,66,3.945,3.943,3.939,3.92,0,0,2.576,116.51,1692.8769951169,0,10,Assisted_Takeoff,
323500,2025-09-03 06:12:16,48.1487663205679,11.5721663129396,0,,,1692.8769951169,0.328084,0,4.478838726,1.9155020298,11,4,15.572,1692.8769951169,0,0,4.6303807256,0,0,0,111.7, 5.8, -2.9,0,0,1024,1024,1024,1024,0,0,0,0,46,4.7,-4.7,66,3.945,3.943,3.939,3.92,0,0,2.576,116.51,1692.8769951169,0,10,Assisted_Takeoff,
323600,2025-09-03 06:12:16,48.1487662813965,11.572166187401,0,,,1692.8769951169,0.328084,0,4.4653544736,1.94923890752,11,4,15.572,1692.8769951169,0,0,4.6303807256,0,0,0,111.7, 5.8, -2.9,0,0,1024,1024,1024,1024,0,0,0,0,46,4.7,-4.7,66,3.945,3.943,3.939,3.92,0,0,2.576,116.51,1692.8769951169,0,10,Assisted_Takeoff,
323700,2025-09-03 06:12:16,48.1487662506144,11.5721660530788,0,,,1692.8769951169,0.328084,0,4.455216678,1.9838091186,11,4,15.572,1692.8769951169,0,0,4.6303807256,0,0,0,111.7, 5.8, -2.9,0,0,1024,1024,1024,1024,0,0,0,0,45.9,4.7,-4.8,66,3.945,3.943,3.939,3.92,0,0,2.576,116.51,1692.8769951169,0,10,Assisted_Takeoff,
323800,2025-09-03 06:12:16,48.1487658290473,11.5721660826635,0,,,1692.8769951169,0.328084,0,4.3012468568,2.13778550148,11,4,15.572,1692.8769951169,0,0,4.6303807256,0,0,0,111.7, 5.7, -2.9,0,0,1024,1024,1024,1024,0,0,0,0,45.9,4.7,-4.8,66,3.945,3.943,3.939,3.92,0,0,2.576,116.51,1692.8769951169,0,10,Assisted_Takeoff,
323900,2025-09-03 06:12:16,48.148765760958,11.5721661229546,0,,,1692.8769951169,0.328084,0,4.276082814,2.16449481992,11,4,15.572,1692.8769951169,0,0,4.6303807256,0,0,0,111.7, 5.7, -3,0,0,1024,1024,1024,1024,0,0,0,0,45.8,4.7,-4.9,66,3.945,3.943,3.939,3.92,0,0,2.576,116.51,1692.8769951169,0,10,Assisted_Takeoff,
324000,2025-09-03 06:12:16,48.1487656925259,11.5721661900619,0,,,1692.8769951169,0.328084,0,4.2505906872,2.19433077888,11,4,15.572,1692.8769951169,0,0,4.6303807256,0,0,0,111.7, 5.8, -2.9,0,0,1024,1024,1024,1024,0,0,0,0,45.7,4.7,-4.9,66,3.945,3.943,3.939,3.92,0,0,2.576,116.51,1692.8769951169,0,10,Assisted_Takeoff,
324100,2025-09-03 06:12:16,48.1487656222638,11.572166283712,0,,,1692.8769951169,0.328084,0,4.2243111588,2.22863852276,11,4,15.73,1692.8769951169,0,0,4.6303807256,0,0,0,111.7, 5.8, -2.9,0,0,1024,1024,1024,1024,0,0,0,0,45.7,4.7,-5,66,3.945,3.943,3.939,3.92,0,0,2.988,116.51,1692.8769951169,0,10,Assisted_Takeoff,
324200,2025-09-03 06:12:16,48.1487654179515,11.5721666223607,0,,,1692.8769951169,0.328084,0,4.148458138,2.3397802586,11,4,15.73,1692.8769951169,0,0,4.6303807256,0,0,0,111.7, 5.8, -2.9,0,0,1024,1024,1024,1024,0,0,0,0,45.6,4.7,-5,66,3.945,3.943,3.939,3.92,0,0,2.988,116.51,1692.8769951169,0,10,Assisted_Takeoff,
324300,2025-09-03 06:12:16,48.148765353334,11.5721666629214,0,,,1692.8769951169,0.328084,0,4.12483609,2.3653380022,11,4,15.73,1692.8769951169,0,0,4.6303807256,0,0,0,111.7, 5.8, -2.9,0,0,1024,1024,1024,1024,0,0,0,0,45.6,4.7,-5,66,3.945,3.943,3.939,3.92,0,0,2.988,116.51,1692.8769951169,0,10,Assisted_Takeoff,
324400,2025-09-03 06:12:17,48.148765295247,11.5721666882074,0,,,1692.8769951169,0.328084,0,4.1036418636,2.38740821288,11,4,15.73,1692.8769951169,0,0,4.6303807256,0,0,0,111.7, 5.7, -3,0,0,1024,1024,1024,1024,0,0,0,0,45.5,4.7,-5.1,66,3.945,3.943,3.939,3.92,0,0,2.988,116.51,1692.8769951169,0,10,Assisted_Takeoff,
324500,2025-09-03 06:12:17,48.1487652400444,11.5721666990116,0,,,1692.8769951169,0.328084,0,4.0834646976,2.40771989332,10,4,15.73,1692.8769951169,0,0,4.6303807256,0,0,0,111.7, 5.7, -3,0,0,1024,1024,1024,1024,0,0,0,0,45.5,4.7,-5.1,66,3.945,3.943,3.939,3.92,0,0,2.988,116.51,1692.8769951169,0,10,Assisted_Takeoff,
324600,2025-09-03 06:12:17,48.148765216594,11.572166728098,0,,,1692.8769951169,0.328084,0,4.0749345136,2.41882553672,10,4,15.73,1692.8769951169,0,0,4.6303807256,0,0,0,111.7, 5.8, -2.9,0,0,1024,1024,1024,1024,0,0,0,0,45.4,4.7,-5.1,66,3.945,3.943,3.939,3.92,0,0,2.988,116.51,1692.8769951169,0,10,Assisted_Takeoff,
324700,2025-09-03 06:12:17,48.1487652640143,11.5721668267241,0,,,1692.8769951169,0.328084,0,4.0922901572,2.44841871352,10,4,15.73,1692.8769951169,0,0,4.6303807256,0,0,0,111.7, 5.8, -2.9,0,0,1024,1024,1024,1024,0,0,0,0,45.4,4.7,-5.2,66,3.945,3.943,3.939,3.92,0,0,2.988,116.51,1692.8769951169,0,10,Assisted_Takeoff,
324800,2025-09-03 06:12:17,48.1487653025005,11.5721668749305,0,,,1692.8769951169,0.328084,0,4.1064305776,2.4667159582,10,4,15.73,1692.8769951169,0,0,4.6303807256,0,0,0,111.7, 5.8, -2.9,0,0,1024,1024,1024,1024,0,0,0,0,45.3,4.7,-5.2,66,3.945,3.943,3.939,3.92,0,0,2.988,116.51,1692.8769951169,0,10,Assisted_Takeoff,
324900,2025-09-03 06:12:17,48.1487653857132,11.57216693737,0,,,1692.8769951169,0.328084,0,4.1369423896,2.50066937136,10,4,15.73,1692.8769951169,0,0,4.6303807256,0,0,0,111.7, 5.8, -2.9,0,0,1024,1024,1024,1024,0,0,0,0,45.2,4.7,-5.3,66,3.945,3.943,3.939,3.92,0,0,2.988,116.51,1692.8769951169,0,10,Assisted_Takeoff,
325000,2025-09-03 06:12:17,48.1487654552026,11.5721670340092,0,,,1692.8769951169,0.328084,0,4.1626313668,2.53525598664,10,4,15.73,1692.8769951169,0,0,4.6303807256,0,0,0,111.7, 5.7, -3,0,0,1024,1024,1024,1024,0,0,0,0,45.2,4.7,-5.3,66,3.945,3.943,3.939,3.92,0,0,2.988,116.51,1692.8769951169,0,10,Assisted_Takeoff,
325100,2025-09-03 06:12:17,48.1487658154571,11.5721674729209,0,,,1692.8769951169,0.328084,0,4.2972114236,2.704642475,10,4,15.732,1692.8769951169,0,0,4.6303807256,0,0,0,111.7, 5.8, -3,0,0,1024,1024,1024,1024,0,0,0,0,45.1,4.7,-5.3,66,3.946,3.949,3.947,3.927,0,0,1.93,116.51,1692.8769951169,0,10,Assisted_Takeoff,
325200,2025-09-03 06:12:17,48.1487659027108,11.5721676488743,0,,,1692.8769951169,0.328084,0,4.331036884,2.75800861844,10,4,15.732,1692.8769951169,0,0,4.6303807256,0,0,0,111.7, 5.8, -3,0,0,1024,1024,1024,1024,0,0,0,0,45.1,4.7,-5.4,66,3.946,3.949,3.947,3.927,0,0,1.93,116.51,1692.8769951169,0,10,Assisted_Takeoff,
325300,2025-09-03 06:12:17,48.1487659893363,11.5721678432961,0,,,1692.8769951169,0.328084,0,4.3652888536,2.81491806908,10,4,15.732,1692.8769951169,0,0,4.6303807256,0,0,0,111.7, 5.8, -3,0,0,1024,1024,1024,1024,0,0,0,0,45,4.7,-5.4,66,3.946,3.949,3.947,3.927,0,0,1.93,116.51,1692.8769951169,0,10,Assisted_Takeoff,
325400,2025-09-03 06:12:18,48.1487660892743,11.5721679997034,0,,,1692.8769951169,0.328084,0,4.404199616,2.8676346062,10,4,15.732,1692.8769951169,0,0,4.6303807256,0,0,0,111.7, 5.8, -2.9,0,0,1024,1024,1024,1024,0,0,0,0,45,4.7,-5.5,66,3.946,3.949,3.947,3.927,0,0,1.93,116.51,1692.8769951169,0,10,Assisted_Takeoff,
325500,2025-09-03 06:12:18,48.1487663510027,11.5721682794683,0,,,1692.8769951169,0.328084,0,4.5046261284,2.9849246362,10,4,15.732,1692.8769951169,0,0,4.6303807256,0,0,0,111.7, 5.8, -2.8,0,0,1024,1024,1024,1024,0,0,0,0,44.9,4.7,-5.5,66,3.946,3.949,3.947,3.927,0,0,1.93,116.51,1692.8769951169,0,10,Assisted_Takeoff,
325600,2025-09-03 06:12:18,48.1487664219674,11.572168330907,0,,,1692.8769951169,0.328084,0,4.531496208,3.01368447964,10,4,15.732,1692.8769951169,0,0,4.6303807256,0,0,0,111.7, 5.7, -2.9,0,0,1024,1024,1024,1024,0,0,0,0,44.8,4.7,-5.5,66,3.946,3.949,3.947,3.927,0,0,1.93,116.51,1692.8769951169,0,10,Assisted_Takeoff,
325700,2025-09-03 06:12:18,48.1487664476443,11.5721683243494,0,,,1692.8769951169,0.328084,0,4.54068256,3.02318579228,9,3,15.732,1692.8769951169,0,0,4.6303807256,0,0,0,111.7, 5.7, -2.9,0,0,1024,1024,1024,1024,0,0,0,0,44.8,4.7,-5.5,66,3.946,3.949,3.947,3.927,0,0,1.93,116.51,1692.8769951169,0,10,Assisted_Takeoff,
325800,2025-09-03 06:12:18,48.1487664759817,11.5721684220213,0,,,1692.8769951169,0.328084,0,4.5530841352,3.0491142708,9,3,15.732,1692.8769951169,0,0,4.6303807256,0,0,0,111.7, 5.8, -2.9,0,0,1024,1024,1024,1024,0,0,0,0,44.8,4.7,-5.6,66,3.946,3.949,3.947,3.927,0,0,1.93,116.51,1692.8769951169,0,10,Assisted_Takeoff,
325900,2025-09-03 06:12:18,48.1487664093409,11.5721686985531,0,,,1692.8769951169,0.328084,0,4.5354988328,3.1206857954,9,3,15.732,1692.8769951169,0,0,4.6303807256,0,0,0,111.7, 5.8, -2.9,0,0,1024,1024,1024,1024,0,0,0,0,44.7,4.7,-5.6,66,3.946,3.949,3.947,3.927,0,0,1.93,116.51,1692.8769951169,0,10,Assisted_Takeoff,
326000,2025-09-03 06:12:18,48.1487664007574,11.5721688404569,0,,,1692.8769951169,0.328084,0,4.5361550008,3.15537083588,9,3,15.732,1692.8769951169,0,0,4.6303807256,0,0,0,111.7, 5.9, -2.9,0,0,1024,1024,1024,1024,0,0,0,0,44.7,4.7,-5.7,66,3.946,3.949,3.947,3.927,0,0,1.93,116.51,1692.8769951169,0,10,Assisted_Takeoff,
326100,2025-09-03 06:12:18,48.1487663485613,11.5721689241669,0,,,1692.8769951169,0.328084,0,4.5196195672,3.18326125672,9,3,15.733,1692.8769951169,0,0,4.6303807256,0,0,0,111.7, 5.9, -2.9,0,0,1024,1024,1024,1024,0,0,0,0,44.6,4.7,-5.7,66,3.947,3.95,3.947,3.927,0,0,1.93,116.51,1692.8769951169,0,10,Assisted_Takeoff,
326200,2025-09-03 06:12:18,48.1487663043262,11.5721689719722,0,,,1692.8769951169,0.328084,0,4.5049870208,3.20315955132,9,3,15.733,1692.8769951169,0,0,4.6303807256,0,0,0,111.7, 5.8, -2.9,0,0,1024,1024,1024,1024,0,0,0,0,44.6,4.7,-5.8,66,3.947,3.95,3.947,3.927,0,0,1.93,116.51,1692.8769951169,0,10,Assisted_Takeoff,
326300,2025-09-03 06:12:18,48.1487662750936,11.5721690025608,0,,,1692.8769951169,0.328084,0,4.4953085428,3.21616480108,9,3,15.733,1692.8769951169,0,0,4.6303807256,0,0,0,111.7, 5.8, -2.9,0,0,1024,1024,1024,1024,0,0,0,0,44.5,4.7,-5.8,66,3.947,3.95,3.947,3.927,0,0,1.93,116.51,1692.8769951169,0,10,Assisted_Takeoff,
326400,2025-09-03 06:12:19,48.1487659843052,11.5721689022287,0,,,1692.8769951169,0.328084,0,4.3870080144,3.3250329148,9,3,15.733,1692.8769951169,0,0,4.6303807256,0,0,0,111.7, 5.8, -2.9,0,0,1024,1024,1024,1024,0,0,0,0,44.4,4.7,-5.9,66,3.947,3.95,3.947,3.927,0,0,1.93,116.51,1692.8769951169,0,10,Assisted_Takeoff,
326500,2025-09-03 06:12:19,48.1487659204417,11.5721689710582,0,,,1692.8769951169,0.328084,0,4.3659450216,3.3537402648,9,3,15.733,1692.8769951169,0,0,4.6303807256,0,0,0,111.7, 5.8, -2.9,0,0,1024,1024,1024,1024,0,0,0,0,44.4,4.7,-5.9,66,3.947,3.95,3.947,3.927,0,0,1.93,116.51,1692.8769951169,0,10,Assisted_Takeoff,
326600,2025-09-03 06:12:19,48.14876582918,11.5721690476176,0,,,1692.8769951169,0.328084,0,4.335301976,3.391896434,9,3,15.733,1692.8769951169,0,0,4.6303807256,0,0,0,111.7, 5.8, -2.9,0,0,1024,1024,1024,1024,0,0,0,0,44.3,4.7,-6,66,3.947,3.95,3.947,3.927,0,0,1.93,116.51,1692.8769951169,0,10,Assisted_Takeoff,
326700,2025-09-03 06:12:19,48.1487657089235,11.5721691396788,0,,,1692.8769951169,0.328084,0,4.2948164104,3.4411746508,9,3,15.733,1692.8769951169,0,0,4.6303807256,0,0,0,111.7, 5.8, -2.9,0,0,1024,1024,1024,1024,0,0,0,0,44.2,4.7,-6,66,3.947,3.95,3.947,3.927,0,0,1.93,116.51,1692.8769951169,0,10,Assisted_Takeoff,
326800,2025-09-03 06:12:19,48.1487653841043,11.5721692787989,0,,,1692.8769951169,0.328084,0,4.1823164068,3.5644030012,9,3,15.733,1692.8769951169,0,0,4.6303807256,0,0,0,111.7, 5.8, -2.9,0,0,1024,1024,1024,1024,0,0,0,0,44.2,4.7,-6,66,3.947,3.95,3.947,3.927,0,0,1.93,116.51,1692.8769951169,0,10,Assisted_Takeoff,
326900,2025-09-03 06:12:19,48.1487653573701,11.5721694317003,0,,,1692.8769951169,0.328084,0,4.1783793988,3.6028872544,9,3,15.733,1692.8769951169,0,0,4.6303807256,0,0,0,111.7, 5.8, -2.9,0,0,1024,1024,1024,1024,0,0,0,0,44.1,4.7,-6.1,66,3.947,3.95,3.947,3.927,0,0,1.93,116.51,1692.8769951169,0,10,Assisted_Takeoff,
327000,2025-09-03 06:12:19,48.1487653273742,11.5721695358801,0,,,1692.8769951169,0.328084,0,4.1716536768,3.6305119272,9,3,15.733,1692.8769951169,0,0,4.6303807256,0,0,0,111.7, 5.8, -2.9,0,0,1024,1024,1043,1024,0,0,3,0,44.1,4.7,-6.1,66,3.947,3.95,3.947,3.927,0,0,1.93,116.51,1692.8769951169,0,10,Assisted_Takeoff,
327100,2025-09-03 06:12:19,48.1487652903096,11.5721696007582,0,,,1692.8769951169,0.328084,0,4.16092533,3.6513124528,9,3,15.736,1692.8769951169,0,0,4.6303807256,0,0,0,111.7, 5.8, -2.9,0,0,1024,1024,1076,1024,0,0,8,0,44.1,4.7,-6.1,66,3.947,3.95,3.947,3.927,0,0,1.924,116.51,1692.8769951169,0,10,Assisted_Takeoff,
327200,2025-09-03 06:12:19,48.1487652914935,11.5721696199721,0,,,1692.8769951169,0.328084,0,4.1621392408,3.656004054,9,3,15.736,1692.8769951169,0,0,4.6303807256,0,0,0,111.7, 5.8, -2.9,0,0,1024,1024,1099,1024,0,0,11,0,44,4.7,-6.1,66,3.947,3.95,3.947,3.927,0,0,1.924,116.51,1692.8769951169,0,10,Assisted_Takeoff,
327300,2025-09-03 06:12:19,48.1487652488901,11.5721696485666,0,,,1692.8769951169,0.328084,0,4.1480316288,3.6730316136,9,3,15.736,1692.8769951169,0,0,4.6303807256,0,0,0,111.7, 5.8, -2.9,0,0,1024,1024,1126,1024,0,0,15,0,44,4.7,-6.2,66,3.947,3.95,3.947,3.927,0,0,1.924,116.51,1692.8769951169,0,10,Assisted_Takeoff,
327400,2025-09-03 06:12:20,48.1487652540861,11.5721696968365,0,,,1692.8769951169,0.328084,0,4.15190302,3.6849410628,9,3,15.736,1692.8769951169,0,0,4.6303807256,0,0,0,111.7, 5.7, -2.9,0,0,1024,1024,1128,1024,0,0,16,0,43.9,4.7,-6.2,66,3.947,3.95,3.947,3.927,0,0,1.924,116.51,1692.8769951169,0,10,Assisted_Takeoff,
327500,2025-09-03 06:12:20,48.1487653131656,11.5721697725373,0,,,1692.8769951169,0.328084,0,4.1763780864,3.7132875204,9,3,15.736,1692.8769951169,0,0,4.6303807256,0,0,0,111.7, 5.6, -3,0,0,1024,1024,1128,1024,0,0,16,0,43.9,4.7,-6.3,66,3.947,3.95,3.947,3.927,0,0,1.924,116.51,1692.8769951169,0,10,Assisted_Takeoff,
327600,2025-09-03 06:12:20,48.1487655473509,11.5721699504607,0,,,1692.8769951169,0.328084,0,4.2682416064,3.8090880484,9,3,15.736,1692.8769951169,0,0,4.6303807256,0,0,0,111.7, 5.7, -2.9,0,0,1024,1024,1129,1024,0,0,16,0,43.8,4.7,-6.3,66,3.947,3.95,3.947,3.927,0,0,1.924,116.51,1692.8769951169,0,10,Assisted_Takeoff,
327700,2025-09-03 06:12:20,48.1487655790828,11.5721700521015,0,,,1692.8769951169,0.328084,0,4.2842192972,3.8364174456,9,3,15.736,1692.8769951169,0,0,4.6303807256,0,0,0,111.7, 5.7, -2.9,0,0,1024,1024,1128,1024,0,0,16,0,43.7,4.7,-6.4,66,3.947,3.95,3.947,3.927,0,0,1.924,116.51,1692.8769951169,0,10,Assisted_Takeoff,
327800,2025-09-03 06:12:20,48.1487655243532,11.572170048643,0,,,1692.8769951169,0.328084,0,4.264435832,3.8563977612,9,3,15.736,1692.8769951169,0,0,4.6303807256,0,0,0,111.7, 5.7, -3,0,0,1024,1024,1130,1024,0,0,16,0,43.6,4.7,-6.4,66,3.947,3.95,3.947,3.927,0,0,1.924,116.51,1692.8769951169,0,10,Assisted_Takeoff,
327900,2025-09-03 06:12:20,48.1487653843555,11.5721699451228,0,,,1692.8769951169,0.328084,0,4.2095473788,3.9133531436,9,3,15.736,1692.8769951169,0,0,4.6303807256,0,0,0,111.7, 5.7, -3,0,0,1024,1024,1133,1024,0,0,17,0,43.6,4.6,-6.6,66,3.947,3.95,3.947,3.927,0,0,1.924,116.51,1692.8769951169,0,10,Assisted_Takeoff,
328000,2025-09-03 06:12:20,48.1487653461506,11.5721698883791,0,,,1692.8769951169,0.328084,0,4.1933072208,3.9329725668,9,3,15.736,1692.8769951169,0,0,4.6303807256,0,0,0,111.8, 5.5, -3.1,0,0,1024,1024,1133,1024,0,0,17,0,43,4.7,-6.8,66,3.947,3.95,3.947,3.927,0,0,1.924,116.51,1692.8769951169,0,10,Assisted_Takeoff,
328100,2025-09-03 06:12:20,48.1487653494767,11.5721695739748,0,,,1692.8769951169,0.328084,0,4.1811353044,4.009514564,10,3,15.652,1692.8769951169,0,0,4.6303807256,0,0,0,111.8, 5.6, -3.2,0,0,1024,1024,1137,1024,0,0,17,0,43.1,4.9,-7,66,3.947,3.95,3.947,3.927,0,0,1.924,116.51,1692.8769951169,0,10,Assisted_Takeoff,
328200,2025-09-03 06:12:20,48.1487654032214,11.5721695764809,0,,,1692.8769951169,0.328084,0,4.2005906856,4.0291339872,10,3,15.652,1692.8769951169,0,0,4.6303807256,0,0,0,111.8, 5.8, -3.4,0,0,1024,1024,1139,1024,0,0,17,0,43.1,4.9,-7,66,3.947,3.95,3.947,3.927,0,0,1.924,116.51,1692.8769951169,0,10,Assisted_Takeoff,
328300,2025-09-03 06:12:20,48.1487654520804,11.5721696013167,0,,,1692.8769951169,0.328084,0,4.21916024,4.0479660088,10,3,15.652,1692.8769951169,0,0,4.6303807256,0,0,0,111.9, 6, -3.7,0,0,1024,1024,1137,1024,0,0,17,0,43.2,5.4,-7.3,66,3.947,3.95,3.947,3.927,0,0,1.924,116.51,1692.8769951169,0,10,Assisted_Takeoff,
328400,2025-09-03 06:12:20,48.1487654983425,11.5721695982931,0,,,1692.8769951169,0.328084,0,4.2356956736,4.0648623348,10,3,15.652,1692.8769951169,0,0,4.6303807256,0,0,0,112.1, 5.5, -4.1,0,0,1024,1024,1138,1024,0,0,17,0,43.3,5.4,-7.7,66,3.947,3.95,3.947,3.927,0,0,1.924,116.51,1692.8769951169,0,10,Assisted_Takeoff,
328500,2025-09-03 06:12:21,48.1487656204188,11.5721696112158,0,,,1692.8769951169,0.328084,0,4.2801182472,4.1094817588,10,3,15.652,1692.8769951169,0,0,4.6303807256,0,0,0,112.3, 3.5, -4.2,0,0,1024,1024,1137,1024,0,0,17,0,43.1,3.5,-8.4,66,3.947,3.95,3.947,3.927,0,0,1.924,116.51,1692.8769951169,0,10,Assisted_Takeoff,
328600,2025-09-03 06:12:21,48.1487656564017,11.5721695283876,0,,,1692.8769951169,0.328084,0,4.2898295336,4.1335631244,10,3,15.652,1692.8769951169,0,0,4.6303807256,0,0,-0.223694,112.6, 0.6, -3.6,0,0,1024,1024,1136,1024,0,0,17,0,42.1,0,-8.3,66,3.947,3.95,3.947,3.927,0,0,1.924,116.51,1692.8769951169,0,6,P-GPS,
328700,2025-09-03 06:12:21,48.1487656809586,11.5721694200768,0,,,1692.8769951169,0.656168,0.223694,4.2945867516,4.161417456,10,3,15.652,1692.8769951169,0,0.223694,4.6303807256,0.223694,0,-0.671082,112.8, -1, -1.4,0,0,1024,1024,1135,1024,0,0,17,0,43.2,-1.4,-5.4,66,3.947,3.95,3.947,3.927,0,0,1.924,116.51,1692.8769951169,0,6,P-GPS,
328800,2025-09-03 06:12:21,48.1487657470869,11.5721693426395,0,,,1692.8769951169,0.656168,0.223694,4.315616936,4.1920276932,10,3,15.652,1692.8769951169,0,0.223694,4.6303807256,0.223694,0,-0.894776,112.8, -0.7, 0.9,0,0,1024,1024,1135,1024,0,0,17,0,44.5,-0.6,-2.4,66,3.947,3.95,3.947,3.927,0,0,1.924,116.51,1692.8769951169,0,6,P-GPS,
328900,2025-09-03 06:12:21,48.148765650096,11.5721691161188,0.328084,,,1693.2050791169,0.656168,0.223694,4.2727691656,4.257546068,10,3,15.652,1693.2050791169,0.328084,0.223694,4.6303807256,0.223694,0,-0.894776,112.8, -0.1, 1.9,0,0,1024,1024,1137,1024,0,0,17,0,46,-0.3,-2,66,3.947,3.95,3.947,3.927,0,0,1.924,116.51,1693.2050791169,0.328084,6,P-GPS,
329000,2025-09-03 06:12:21,48.1487656868158,11.572169029418,0.328084,,,1693.2050791169,0.984252,0,4.2832350452,4.2825460688,10,3,15.652,1693.2050791169,0.328084,0.223694,4.6303807256,0,0,-0.894776,112.8, 0, 1.8,0,0,1024,1024,1137,1024,0,0,17,0,45.9,-0.3,-3.2,66,3.947,3.95,3.947,3.927,0,0,1.924,116.51,1693.2050791169,0.328084,6,P-GPS,
329100,2025-09-03 06:12:21,48.1487656771098,11.5721688873633,0.656168,,,1693.5331631169,0.984252,0,4.2753282208,4.3172901644,10,3,15.581,1693.5331631169,0.656168,0.223694,4.6303807256,0,0,-0.894776,112.8, 0.2, 0.5,0,0,1024,1024,1141,1024,0,0,18,0,45.5,0.7,-5.1,66,3.937,3.94,3.935,3.912,0,0,3.05,116.51,1693.5331631169,0.656168,6,P-GPS,
329200,2025-09-03 06:12:21,48.1487656482974,11.572168756169,0.656168,,,1693.5331631169,1.312336,0,4.2610893752,4.3509187744,11,3,15.581,1693.5331631169,0.656168,0.223694,4.6303807256,0,0,-0.671082,112.7, 0.5, -0.1,0,0,1024,1024,1148,1024,0,0,19,0,45.4,0.1,-4.1,66,3.937,3.94,3.935,3.912,0,0,3.05,116.51,1693.5331631169,0.656168,6,P-GPS,
329300,2025-09-03 06:12:21,48.1487654119812,11.5721684682874,0.656168,,,1693.5331631169,1.312336,0,4.1677494772,4.4620408252,9,3,15.581,1693.5331631169,0.656168,0.223694,4.6303807256,0,0,-0.671082,112.6, -0.1, 1,0,0,1024,1024,1157,1024,0,0,20,0,45.3,-1.2,-3,66,3.937,3.94,3.935,3.912,0,0,3.05,116.51,1693.5331631169,0.656168,6,P-GPS,
329400,2025-09-03 06:12:22,48.1487653192043,11.5721683807568,0.984252,,,1693.8612471169,1.312336,0,4.1319555128,4.5020342648,9,3,15.581,1693.8612471169,0.984252,0.223694,4.6303807256,0,0,-0.671082,112.6, -0.8, 1.6,0,0,1024,1024,1160,1024,0,0,21,0,45.3,-1.7,-4,66,3.937,3.94,3.935,3.912,0,0,3.05,116.51,1693.8612471169,0.984252,6,P-GPS,
329500,2025-09-03 06:12:22,48.1487651429794,11.5721683279379,0.984252,,,1693.8612471169,1.64042,0,4.0667324136,4.567585448,8,3,15.581,1693.8612471169,0.984252,0.223694,4.6303807256,0,0,-0.447388,112.5, -0.9, 0.8,0,0,1024,1024,1163,1024,0,0,21,0,45.4,-1.3,-5.5,66,3.937,3.94,3.935,3.912,0,0,3.05,116.51,1693.8612471169,0.984252,6,P-GPS,
329600,2025-09-03 06:12:22,48.1487650749116,11.5721682635011,0.984252,,,1693.8612471169,1.64042,0,4.040518502,4.5969817744,8,3,15.581,1693.8612471169,0.984252,0.223694,4.6303807256,0,0,-0.447388,112.6, -0.7, 0,0,0,1024,1024,1163,1024,0,0,21,0,45.4,-1.3,-5.5,66,3.937,3.94,3.935,3.912,0,0,3.05,116.51,1693.8612471169,0.984252,6,P-GPS,
329700,2025-09-03 06:12:22,48.1487651289939,11.5721681750678,1.312336,,,1694.1893311169,1.64042,0,4.058235038,4.6261812504,10,3,15.581,1694.1893311169,1.312336,0.223694,4.6303807256,0,0,-0.447388,112.6, -0.8, 0,0,0,1024,1024,1163,1024,0,0,21,0,45.1,-1.5,-4.9,66,3.937,3.94,3.935,3.912,0,0,3.05,116.51,1694.1893311169,1.312336,6,P-GPS,
329800,2025-09-03 06:12:22,48.1487653894411,11.5721681847606,1.312336,,,1694.1893311169,1.968504,0,4.1531169308,4.7212271852,10,3,15.581,1694.1893311169,1.312336,0.223694,4.6303807256,0,0,-0.671082,112.5, -1.2, -0.1,0,0,1024,1024,1165,1024,0,0,21,0,44.9,-1.8,-5.5,66,3.937,3.94,3.935,3.912,0,0,3.05,116.51,1694.1893311169,1.312336,6,P-GPS,
329900,2025-09-03 06:12:22,48.1487655994595,11.572168171452,1.312336,,,1694.1893311169,1.968504,0,4.2291996104,4.7979332244,10,3,15.581,1694.1893311169,1.312336,0.223694,4.6303807256,0,0,-0.671082,112.5, -1, -0.6,0,0,1024,1024,1167,1024,0,0,22,0,44.7,-1.6,-5.2,66,3.937,3.94,3.935,3.912,0,0,3.05,116.51,1694.1893311169,1.312336,6,P-GPS,
330000,2025-09-03 06:12:22,48.14876570856,11.5721682407524,1.312336,,,1694.1893311169,1.968504,0,4.2702757272,4.8411418872,10,3,15.581,1694.1893311169,1.312336,0.223694,4.6303807256,0,0,-0.671082,112.5, -0.9, -1,0,0,1024,1024,1177,1024,0,0,23,0,44.7,-1.7,-5.6,66,3.937,3.94,3.935,3.912,0,0,3.05,116.51,1694.1893311169,1.312336,6,P-GPS,
330100,2025-09-03 06:12:22,48.1487657246852,11.5721684117483,1.64042,,,1694.5174151169,2.296588,0,4.2799213968,4.883202256,10,3,15.15,1694.5174151169,1.64042,0.223694,4.6303807256,0,0,-0.671082,112.5, -0.8, -0.8,0,0,1024,1024,1185,1024,0,0,24,0,44.5,-2.2,-5,66,3.812,3.828,3.824,3.784,0,0,15.232,116.51,1694.5174151169,1.64042,6,P-GPS,
330200,2025-09-03 06:12:22,48.1487661738117,11.5721691570671,1.64042,,,1694.5174151169,2.296588,0,4.4634515864,5.1276576444,10,3,15.15,1694.5174151169,1.64042,0.223694,4.6303807256,0,0,-0.894776,112.5, -0.4, -0.6,0,0,1024,1024,1189,1024,0,0,25,0,44,-2.4,-4.9,66,3.812,3.828,3.824,3.784,0,0,15.232,116.51,1694.5174151169,1.64042,6,P-GPS,
330300,2025-09-03 06:12:22,48.1487662516013,11.5721694954109,1.968504,,,1694.8454991169,2.624672,0,4.5031497504,5.2147639464,9,3,15.15,1694.8454991169,1.968504,0.223694,4.6303807256,0,0,-0.894776,112.6, 0, -0.5,0,0,1024,1024,1192,1024,0,0,25,0,44.5,-2.2,-4.8,66,3.812,3.828,3.824,3.784,0,0,15.232,116.51,1694.8454991169,1.968504,6,P-GPS,
330400,2025-09-03 06:12:23,48.148766407673,11.5721697516431,1.968504,,,1694.8454991169,2.624672,0,4.5690946344,5.2992455764,9,3,15.15,1694.8454991169,1.968504,0.223694,4.6303807256,0,0,-1.11847,112.6, 0, -0.1,0,0,1024,1024,1196,1024,0,0,26,0,44.8,-2.2,-4.8,66,3.812,3.828,3.824,3.784,0,0,15.232,116.51,1694.8454991169,1.968504,6,P-GPS,
330500,2025-09-03 06:12:23,48.1487666370071,11.5721699197132,2.296588,,,1695.1735831169,2.952756,0,4.6583334824,5.392388624,9,3,15.15,1695.1735831169,2.296588,0.223694,4.6583334824,0,0,-1.11847,112.7, -0.3, 0,0,0,1024,1024,1206,1024,0,0,28,0,45.1,-2.5,-5.3,66,3.812,3.828,3.824,3.784,0,0,15.232,116.51,1695.1735831169,2.296588,6,P-GPS,
330600,2025-09-03 06:12:23,48.1487665824412,11.5721690575768,2.296588,,,1695.1735831169,2.952756,0,4.6082350556,5.603182594,9,3,15.15,1695.1735831169,2.296588,0.223694,4.6583334824,0,0,-1.342164,112.8, -0.3, 0,0,0,1024,1024,1211,1024,0,0,28,0,44.4,-2.5,-5.3,66,3.812,3.828,3.824,3.784,0,0,15.232,116.51,1695.1735831169,2.296588,6,P-GPS,"To take off in non-P mode, toggle Flight Mode Switch to another mode and then toggle it back."
330700,2025-09-03 06:12:23,48.1487663836123,11.5721684682144,2.624672,,,1695.5016671169,3.28084,0,4.5205710108,5.763943754,9,3,15.15,1695.5016671169,2.624672,0.223694,4.6583334824,0,0,-1.342164,112.9, -0.4, -0.1,0,0,1024,1024,1220,1024,0,0,30,0,43.8,-2.6,-5.5,66,3.812,3.828,3.824,3.784,0,0,15.232,116.51,1695.5016671169,2.624672,6,P-GPS,
330800,2025-09-03 06:12:23,48.1487661961674,11.5721679577296,2.952756,,,1695.8297511169,3.608924,0,4.4423885936,5.9058072756,9,3,15.15,1695.8297511169,2.952756,0.223694,4.6583334824,0,0,-1.342164,112.9, -0.6, -0.5,0,0,1024,1024,1224,1024,0,0,30,0,43.1,-2.6,-5.9,66,3.812,3.828,3.824,3.784,0,0,15.232,116.51,1695.8297511169,2.952756,6,P-GPS,
330900,2025-09-03 06:12:23,48.1487660213079,11.5721675126238,2.952756,,,1695.8297511169,3.937008,0,4.3726707436,6.0315290644,9,3,15.15,1695.8297511169,2.952756,0.223694,4.6583334824,0,0,-1.565858,112.8, -0.5, -0.7,0,0,1024,1024,1225,1024,0,0,30,0,43.1,-2.6,-5.9,66,3.812,3.828,3.824,3.784,0,0,15.232,116.51,1695.8297511169,2.952756,6,P-GPS,
331000,2025-09-03 06:12:23,48.1487655488361,11.5721670863651,3.28084,,,1696.1578351169,3.937008,0,4.1970473784,6.2327429816,9,3,15.15,1696.1578351169,3.28084,0.223694,4.6583334824,0,0,-1.565858,112.7, -0.6, -0.6,0,0,1024,1024,1225,1024,0,0,30,0,42.6,-2.8,-5.7,66,3.812,3.828,3.824,3.784,0,0,15.232,116.51,1696.1578351169,3.28084,6,P-GPS,
331100,2025-09-03 06:12:23,48.1487654014883,11.5721669896561,3.608924,,,1696.4859191169,4.265092,0.223694,4.1428479016,6.2914044008,10,3,14.975,1696.4859191169,3.608924,0.223694,4.6583334824,-0.223694,0,-1.789552,112.6, -0.4, -1.7,0,0,1024,1024,1224,1024,0,0,30,0,42.9,-2.4,-6.8,66,3.776,3.792,3.786,3.737,0,0,19.062,116.51,1696.4859191169,3.608924,6,P-GPS,
331200,2025-09-03 06:12:23,48.1487652413162,11.5721668813252,3.937008,,,1696.8140031169,4.593176,0,4.0841208656,6.3555448228,10,3,14.975,1696.8140031169,3.937008,0.223694,4.6583334824,0,0,-1.789552,112.6, -0.5, -2.4,0,0,1024,1024,1223,1024,0,0,30,0,44.2,-2.2,-7.4,66,3.776,3.792,3.786,3.737,0,0,19.062,116.51,1696.8140031169,3.937008,6,P-GPS,
331300,2025-09-03 06:12:23,48.1487650685359,11.5721667473657,4.265092,,,1697.1420871169,4.92126,0,4.0208990788,6.426509392,9,3,14.975,1697.1420871169,4.265092,0.223694,4.6583334824,0,0,-2.013246,112.6, -0.5, -2.1,0,0,1024,1024,1224,1024,0,0,30,0,43.9,-2.3,-7.5,66,3.776,3.792,3.786,3.737,0,0,19.062,116.51,1697.1420871169,4.265092,6,P-GPS,
331400,2025-09-03 06:12:24,48.1487648377548,11.5721666203666,4.593176,,,1697.4701711169,5.249344,0,3.9367783412,6.5162075576,9,3,14.975,1697.4701711169,4.593176,0.223694,4.6583334824,0,0,-2.013246,112.5, -0.7, -1.3,0,0,1024,1024,1222,1024,0,0,30,0,42.8,-2.9,-6.3,66,3.776,3.792,3.786,3.737,0,0,19.062,116.51,1697.4701711169,4.593176,6,P-GPS,
331500,2025-09-03 06:12:24,48.1487641503807,11.5721666555075,4.92126,,,1697.7982551169,5.577428,0,3.6859581232,6.7671262008,8,3,14.975,1697.7982551169,4.92126,0.223694,4.6583334824,0,0,-2.013246,112.5, -1, -0.8,0,0,1024,1024,1218,1024,0,0,29,0,43,-3.3,-5.9,66,3.776,3.792,3.786,3.737,0,0,19.062,116.51,1697.7982551169,4.92126,6,P-GPS,
331600,2025-09-03 06:12:24,48.1487639804865,11.5721665117934,5.249344,,,1698.1263391169,5.577428,0,3.6243111396,6.8383204288,8,3,14.975,1698.1263391169,5.249344,0.223694,4.6583334824,0,0,-2.013246,112.4, -1.3, -0.7,0,0,1024,1024,1218,1024,0,0,29,0,43.4,-3.5,-6.2,66,3.776,3.792,3.786,3.737,0,0,19.062,116.51,1698.1263391169,5.249344,6,P-GPS,
331700,2025-09-03 06:12:24,48.1487638918102,11.5721663518553,5.577428,,,1698.4544231169,5.905512,0,3.5927494588,6.88894379,9,3,14.975,1698.4544231169,5.577428,0.223694,4.6583334824,0,0,-1.789552,112.2, -1.4, -0.7,0,0,1024,1024,1220,1024,0,0,30,0,43.2,-3.2,-5.9,66,3.776,3.792,3.786,3.737,0,0,19.062,116.51,1698.4544231169,5.577428,6,P-GPS,
331800,2025-09-03 06:12:24,48.1487638517234,11.5721662498702,5.905512,,,1698.7825071169,6.233596,0,3.5788386972,6.9177495652,9,3,14.975,1698.7825071169,5.905512,0.223694,4.6583334824,0,0,-1.789552,112.1, -1.2, -0.8,0,0,1024,1024,1223,1024,0,0,30,0,42.8,-2.9,-6.2,66,3.776,3.792,3.786,3.737,0,0,19.062,116.51,1698.7825071169,5.905512,6,P-GPS,
331900,2025-09-03 06:12:24,48.1487641167472,11.5721662667474,6.233596,,,1699.1105911169,6.56168,0,3.67536101,7.0145343452,9,3,14.975,1699.1105911169,6.233596,0.223694,4.6583334824,0,0,-1.789552,112.1, -0.8, -0.9,0,0,1024,1024,1223,1024,0,0,30,0,43,-2.9,-6,66,3.776,3.792,3.786,3.737,0,0,19.062,116.51,1699.1105911169,6.233596,6,P-GPS,
332000,2025-09-03 06:12:24,48.1487641634459,11.5721664059341,6.233596,,,1699.1105911169,6.889764,0,3.6915027428,7.0524608556,9,3,14.975,1699.1105911169,6.233596,0.223694,4.6583334824,0,0,-1.789552,112.2, -0.7, -0.6,0,0,1024,1024,1223,1024,0,0,30,0,42.6,-3.1,-5.7,66,3.776,3.792,3.786,3.737,0,0,19.062,116.51,1699.1105911169,6.233596,6,P-GPS,
332100,2025-09-03 06:12:24,48.1487642515301,11.5721667182343,6.56168,,,1699.4386751169,7.217848,0,3.7228019564,7.1349739816,9,3,14.942,1699.4386751169,6.56168,0.223694,4.6583334824,0,0,-1.789552,112.3, -0.9, -0.3,0,0,1024,1024,1224,1024,0,0,30,0,42.9,-3,-5.6,66,3.776,3.792,3.786,3.737,0,0,19.062,116.51,1699.4386751169,6.56168,6,P-GPS,
332200,2025-09-03 06:12:24,48.1487643099546,11.5721669160906,6.889764,,,1699.7667591169,7.545932,0,3.744422692,7.187664272,9,3,14.942,1699.7667591169,6.889764,0.223694,4.6583334824,0,0,-1.789552,112.5, -1, -0.2,0,0,1024,1024,1223,1024,0,0,30,0,42.9,-3,-5.6,66,3.776,3.792,3.786,3.737,0,0,19.062,116.51,1699.7667591169,6.889764,6,P-GPS,
332300,2025-09-03 06:12:24,48.1487646655562,11.572167550294,7.217848,,,1700.0948431169,7.545932,0,3.8790355572,7.3893046984,7,2,14.942,1700.0948431169,7.217848,0.223694,4.6583334824,0,0,-1.789552,112.6, -0.6, -0.5,0,0,1024,1024,1223,1024,0,0,30,0,42.8,-2.6,-5.9,66,3.776,3.792,3.786,3.737,0,0,19.062,116.51,1700.0948431169,7.217848,6,P-GPS,
332400,2025-09-03 06:12:25,48.148764601459,11.5721676963152,7.545932,,,1700.4229271169,7.874016,0,3.8576772888,7.4318571932,7,2,14.942,1700.4229271169,7.545932,0.223694,4.6583334824,0,0,-1.789552,112.6, 0, -0.8,0,0,1024,1024,1225,1024,0,0,30,0,42.9,-2,-6.3,66,3.776,3.792,3.786,3.737,0,0,19.062,116.51,1700.4229271169,7.545932,6,P-GPS,
332500,2025-09-03 06:12:25,48.1487644387673,11.5721679035505,7.874016,,,1700.7510111169,8.2021,0,3.8019030088,7.5097771432,6,2,14.942,1700.7510111169,7.874016,0.223694,4.6583334824,0,0,-1.789552,112.7, 0.1, -1,0,0,1024,1024,1225,1024,0,0,30,0,43,-2,-6.6,66,3.776,3.792,3.786,3.737,0,0,19.062,116.51,1700.7510111169,7.874016,6,P-GPS,
332600,2025-09-03 06:12:25,48.1487642804929,11.5721680529244,8.2021,,,1701.0790951169,8.530184,0,3.7472442144,7.5780186152,6,2,14.942,1701.0790951169,8.2021,0.223694,4.6583334824,0,0,-1.789552,112.7, 0, -1.3,0,0,1024,1024,1225,1024,0,0,30,0,43.1,-1.9,-6.9,66,3.776,3.792,3.786,3.737,0,0,19.062,116.51,1701.0790951169,8.2021,6,P-GPS,
332700,2025-09-03 06:12:25,48.148763821376,11.5721682599214,8.2021,,,1701.0790951169,8.858268,0,3.5852691436,7.7529201956,7,2,14.942,1701.0790951169,8.2021,0.223694,4.6583334824,0,0,-1.789552,112.7, 0, -1.2,0,0,1024,1024,1225,1024,0,0,30,0,42.7,-1.9,-6.5,66,3.776,3.792,3.786,3.737,0,0,19.062,116.51,1701.0790951169,8.2021,6,P-GPS,
332800,2025-09-03 06:12:25,48.1487637021726,11.5721684718358,8.530184,,,1701.4071791169,9.186352,0,3.5478347592,7.8204070744,7,2,14.942,1701.4071791169,8.530184,0.223694,4.6583334824,0,0,-1.789552,112.6, 0, -1.1,0,0,1024,1024,1225,1024,0,0,30,0,42.6,-2.1,-6.8,66,3.776,3.792,3.786,3.737,0,0,19.062,116.51,1701.4071791169,8.530184,6,P-GPS,
332900,2025-09-03 06:12:25,48.1487635975856,11.5721688431836,8.858268,,,1701.7352631169,9.186352,0,3.5220145484,7.9185369988,8,2,14.942,1701.7352631169,8.858268,0.223694,4.6583334824,0,0,-1.789552,112.5, -0.1, -1.4,0,0,1024,1024,1224,1024,0,0,30,0,42.3,-2.2,-7.3,66,3.776,3.792,3.786,3.737,0,0,19.062,116.51,1701.7352631169,8.858268,6,P-GPS,
333000,2025-09-03 06:12:25,48.1487634841981,11.5721690781115,9.186352,,,1702.0633471169,9.514436,0,3.48999355,7.9891078672,8,2,14.942,1702.0633471169,9.186352,0.223694,4.6583334824,0,0,-1.789552,112.5, -0.4, -1.7,0,0,1024,1024,1225,1024,0,0,30,0,42.3,-2.1,-7.8,66,3.776,3.792,3.786,3.737,0,0,19.062,116.51,1702.0633471169,9.186352,6,P-GPS,
333100,2025-09-03 06:12:25,48.1487633583279,11.5721691861656,9.514436,,,1702.3914311169,9.84252,0,3.4491799004,8.0420278164,8,2,14.93,1702.3914311169,9.514436,0.223694,4.6583334824,0,0,-1.789552,112.5, -0.2, -2.1,0,0,1024,1024,1225,1024,0,0,30,0,42.2,-1.8,-7.7,66,3.772,3.789,3.783,3.74,0,0,18.318,116.51,1702.3914311169,9.514436,6,P-GPS,
333200,2025-09-03 06:12:25,48.1487629971883,11.5721695153245,9.84252,,,1702.7195151169,10.170604,0,3.3348426264,8.1962272964,8,2,14.93,1702.7195151169,9.84252,0.223694,4.6583334824,0,0,-1.789552,112.6, 0, -2.4,0,0,1024,1024,1225,1024,0,0,30,0,41.9,-2,-7.7,66,3.772,3.789,3.783,3.74,0,0,18.318,116.51,1702.7195151169,9.84252,6,P-GPS,
333300,2025-09-03 06:12:25,48.1487626786142,11.5721694822202,10.170604,,,1703.0475991169,10.498688,0,3.21944892192,8.3127627332,9,2,14.93,1703.0475991169,10.170604,0.223694,4.6583334824,0,0,-1.789552,112.7, -0.1, -2,0,0,1024,1024,1225,1024,0,0,30,0,42.1,-2.4,-7.5,66,3.772,3.789,3.783,3.74,0,0,18.318,116.51,1703.0475991169,10.170604,6,P-GPS,
333400,2025-09-03 06:12:26,48.1487624768427,11.5721694461179,10.498688,,,1703.3756831169,10.826772,0,3.14562346024,8.3868769088,9,2,14.93,1703.3756831169,10.498688,0.223694,4.6583334824,0,0,-1.789552,112.8, -0.3, -1.4,0,0,1024,1024,1225,1024,0,0,30,0,42.1,-2.3,-6.9,66,3.772,3.789,3.783,3.74,0,0,18.318,116.51,1703.3756831169,10.498688,6,P-GPS,
333500,2025-09-03 06:12:26,48.1487623715834,11.572169416144,10.498688,,,1703.3756831169,11.154856,0,3.10654209416,8.4259845216,9,2,14.93,1703.3756831169,10.498688,0.223694,4.6583334824,0,0,-1.789552,112.8, -0.2, -1,0,0,1024,1024,1226,1024,0,0,31,0,42.1,-2.3,-6.9,66,3.772,3.789,3.783,3.74,0,0,18.318,116.51,1703.3756831169,10.498688,6,P-GPS,
333600,2025-09-03 06:12:26,48.1487619531741,11.5721689129134,10.826772,,,1703.7037671169,11.154856,0,2.93282817784,8.621719436,9,2,14.93,1703.7037671169,10.826772,0.223694,4.6583334824,0,0,-1.789552,112.8, 0.1, -1,0,0,1024,1024,1225,1024,0,0,30,0,42.3,-1.8,-6.7,66,3.772,3.789,3.783,3.74,0,0,18.318,116.51,1703.7037671169,10.826772,6,P-GPS,
333700,2025-09-03 06:12:26,48.148761887763,11.5721690150951,11.154856,,,1704.0318511169,11.48294,0,2.91400599876,8.656168256,9,2,14.93,1704.0318511169,11.154856,0.223694,4.6583334824,0,0,-1.789552,112.8, 0.3, -0.8,0,0,1024,1024,1224,1024,0,0,30,0,42.3,-1.7,-6.3,66,3.772,3.789,3.783,3.74,0,0,18.318,116.51,1704.0318511169,11.154856,6,P-GPS,
333800,2025-09-03 06:12:26,48.1487618960158,11.5721691794466,11.48294,,,1704.3599351169,11.811024,0,2.92485901748,8.6962929292,9,2,14.93,1704.3599351169,11.48294,0.223694,4.6583334824,0,0,-1.789552,112.9, 0.4, -0.3,0,0,1024,1024,1224,1024,0,0,30,0,41.6,-1.8,-5.9,66,3.772,3.789,3.783,3.74,0,0,18.318,116.51,1704.3599351169,11.48294,6,P-GPS,
333900,2025-09-03 06:12:26,48.1487619659907,11.5721694078338,11.811024,,,1704.6880191169,12.139108,0,2.9615978638,8.7574805952,9,2,14.93,1704.6880191169,11.811024,0.223694,4.6583334824,0,0,-1.789552,112.8, 0.4, 0,0,0,1024,1024,1224,1024,0,0,30,0,41.9,-1.9,-6.2,66,3.772,3.789,3.783,3.74,0,0,18.318,116.51,1704.6880191169,11.811024,6,P-GPS,
334000,2025-09-03 06:12:26,48.148762085566,11.57216960357,12.139108,,,1705.0161031169,12.139108,0,3.01486886288,8.8220803348,9,2,14.93,1705.0161031169,12.139108,0.223694,4.6583334824,0,0,-1.789552,112.8, 0.4, -0.1,0,0,1024,1024,1224,1024,0,0,30,0,42.2,-1.8,-5.9,66,3.772,3.789,3.783,3.74,0,0,18.318,116.51,1705.0161031169,12.139108,6,P-GPS,
334100,2025-09-03 06:12:26,48.1487619547106,11.5721695625262,12.467192,,,1705.3441871169,12.467192,0,2.96611229964,8.8708664256,6,2,14.926,1705.3441871169,12.467192,0.223694,4.6583334824,0,0,-1.789552,112.8, 0.3, 0,0,0,1024,1024,1225,1024,0,0,30,0,41.7,-2.2,-5.9,66,3.764,3.783,3.778,3.734,0,0,18.086,116.51,1705.3441871169,12.467192,6,P-GPS,
334200,2025-09-03 06:12:26,48.1487619836455,11.5721695835649,12.795276,,,1705.6722711169,12.795276,0,2.97756899292,8.8825790244,6,2,14.926,1705.6722711169,12.795276,0.223694,4.6583334824,0,0,-1.789552,112.8, 0, 0,0,0,1024,1024,1225,1024,0,0,30,0,41.8,-2.4,-5.8,66,3.764,3.783,3.778,3.734,0,0,18.086,116.51,1705.6722711169,12.795276,6,P-GPS,
334300,2025-09-03 06:12:26,48.1487621571648,11.5721696678463,12.795276,,,1705.6722711169,13.12336,0,3.04392398192,8.949147268,6,2,14.926,1705.6722711169,12.795276,0.223694,4.6583334824,0,0,-1.789552,112.8, -0.2, 0.1,0,0,1024,1024,1226,1024,0,0,31,0,41.4,-2.6,-6.1,66,3.764,3.783,3.778,3.734,0,0,18.086,116.51,1705.6722711169,12.795276,6,P-GPS,
334400,2025-09-03 06:12:27,48.1487630946362,11.5721697493151,13.12336,,,1706.0003551169,13.451444,0,3.3815945964,9.2917653892,6,2,14.926,1706.0003551169,13.12336,0.223694,4.6583334824,0,0,-1.789552,112.8, -0.2, 0,0,0,1024,1024,1226,1024,0,0,31,0,41.2,-2.5,-6.5,66,3.764,3.783,3.778,3.734,0,0,18.086,116.51,1706.0003551169,13.12336,6,P-GPS,
334500,2025-09-03 06:12:27,48.1487633481878,11.5721697663889,13.451444,,,1706.3284391169,13.779528,0,3.4728347568,9.384350694,5,2,14.926,1706.3284391169,13.451444,0.223694,4.6583334824,0,0,-1.789552,112.8, -0.3, -0.2,0,0,1024,1024,1226,1024,0,0,31,0,41.7,-2.2,-6.7,66,3.764,3.783,3.778,3.734,0,0,18.086,116.51,1706.3284391169,13.451444,6,P-GPS,
334600,2025-09-03 06:12:27,48.148763563935,11.5721698142061,13.779528,,,1706.6565231169,13.779528,0,3.5522310848,9.463911064,5,2,14.926,1706.6565231169,13.779528,0.223694,4.6583334824,0,0,-1.789552,112.7, -0.1, -0.1,0,0,1024,1024,1227,1024,0,0,31,0,41.1,-2.4,-6.5,66,3.764,3.783,3.778,3.734,0,0,18.086,116.51,1706.6565231169,13.779528,6,P-GPS,
334700,2025-09-03 06:12:27,48.1487637661853,11.572169895175,14.107612,,,1706.9846071169,14.107612,0,3.6285106148,9.5402890192,7,2,14.926,1706.9846071169,14.107612,0.223694,4.6583334824,0,0,-1.789552,112.6, 0, 0,0,0,1024,1024,1231,1024,0,0,31,0,40.8,-1.9,-5.4,66,3.764,3.783,3.778,3.734,0,0,18.086,116.51,1706.9846071169,14.107612,6,P-GPS,
334800,2025-09-03 06:12:27,48.1487639212841,11.572169971314,14.435696,,,1707.3126911169,14.435696,0,3.6877625852,9.5998362652,7,2,14.926,1707.3126911169,14.435696,0.223694,4.6583334824,0,0,-1.789552,112.5, 0.1, 0.1,0,0,1024,1024,1233,1024,0,0,32,0,40.8,-1.9,-5.4,66,3.764,3.783,3.778,3.734,0,0,18.086,116.51,1707.3126911169,14.435696,6,P-GPS,
334900,2025-09-03 06:12:27,48.1487642095034,11.572170081529,14.76378,,,1707.6407751169,14.76378,0,3.7962271556,9.7083664524,7,2,14.926,1707.6407751169,14.76378,0.223694,4.6583334824,0,0,-1.789552,112.4, 0.3, -0.1,0,0,1024,1024,1233,1024,0,0,32,0,40.5,-1.6,-6.3,66,3.764,3.783,3.778,3.734,0,0,18.086,116.51,1707.6407751169,14.76378,6,P-GPS,
335000,2025-09-03 06:12:27,48.1487643176382,11.5721701394355,15.091864,,,1707.9688591169,15.091864,0,3.8377953984,9.7502627792,7,0,14.926,1707.9688591169,15.091864,0.223694,4.6583334824,0,0,-1.789552,112.3, 0.3, -0.4,0,0,1024,1024,1234,1024,0,0,32,0,40.2,-1.5,-6.8,66,3.764,3.783,3.778,3.734,0,0,18.086,116.51,1707.9688591169,15.091864,6,P-GPS,
335100,2025-09-03 06:12:27,48.1487644292489,11.5721701940679,15.091864,,,1707.9688591169,15.419948,0,3.88041351,9.7931105496,10,0,14.929,1707.9688591169,15.091864,0.223694,4.6583334824,0,0,-2.013246,112.3, 0.1, -0.4,0,0,1024,1024,1235,1024,0,0,32,0,40.4,-1.8,-6.7,66,3.759,3.776,3.77,3.725,0,0,18.234,116.51,1707.9688591169,15.091864,6,P-GPS,
335200,2025-09-03 06:12:27,48.1487645423087,11.5721702457891,15.419948,,,1708.2969431169,15.419948,0,3.9234253224,9.8362535956,10,0,14.929,1708.2969431169,15.419948,0.223694,4.6583334824,0,0,-2.013246,112.2, 0.1, -0.4,0,0,1024,1024,1233,1024,0,0,32,0,40.5,-1.7,-6.7,66,3.759,3.776,3.77,3.725,0,0,18.234,116.51,1708.2969431169,15.419948,6,P-GPS,
335300,2025-09-03 06:12:28,48.1487646562334,11.5721702928143,15.748032,,,1708.6250271169,15.748032,0,3.9664699432,9.8793638332,10,0,14.929,1708.6250271169,15.748032,0.223694,4.6583334824,0,0,-2.013246,112.2, 0.2, -0.5,0,0,1024,1024,1235,1024,0,0,32,0,40.3,-1.6,-7,66,3.759,3.776,3.77,3.725,0,0,18.234,116.51,1708.6250271169,15.748032,6,P-GPS,
335400,2025-09-03 06:12:28,48.1487647552163,11.572170306533,16.076116,,,1708.9531111169,16.076116,0,4.002460758,9.9156171152,10,0,14.929,1708.9531111169,16.076116,0.223694,4.6583334824,0,0,-2.013246,112.2, 0, -0.5,0,0,1024,1024,1236,1024,0,0,32,0,40.2,-2,-7.2,66,3.759,3.776,3.77,3.725,0,0,18.234,116.51,1708.9531111169,16.076116,6,P-GPS,
335500,2025-09-03 06:12:28,48.1487648466441,11.5721702913555,16.4042,,,1709.2811951169,16.4042,0,4.0342192892,9.9491801084,9,0,14.929,1709.2811951169,16.4042,0.223694,4.6583334824,0,0,-2.013246,112.3, -0.1, -0.7,0,0,1024,1024,1236,1024,0,0,32,0,39.5,-2.1,-7.3,66,3.759,3.776,3.77,3.725,0,0,18.234,116.51,1709.2811951169,16.4042,6,P-GPS,
335600,2025-09-03 06:12:28,48.148765032233,11.5721704858984,16.732284,,,1709.6092791169,16.732284,0,4.1106628612,10.031824468,9,0,14.929,1709.6092791169,16.732284,0.223694,4.6583334824,0,0,-2.013246,112.3, 0, -0.5,0,0,1024,1024,1234,1024,0,0,32,0,39.7,-2,-6.8,66,3.759,3.776,3.77,3.725,0,0,18.234,116.51,1709.6092791169,16.732284,6,P-GPS,
335700,2025-09-03 06:12:28,48.1487655637001,11.5721714915716,17.060368,,,1709.9373631169,17.060368,0,4.3585303232,10.3440948192,9,0,14.929,1709.9373631169,17.060368,0.223694,4.6583334824,0,0,-2.013246,112.4, 0, -0.5,0,0,1024,1024,1237,1024,0,0,32,0,40.5,-1.7,-6.8,66,3.759,3.776,3.77,3.725,0,0,18.234,116.51,1709.9373631169,17.060368,6,P-GPS,
335800,2025-09-03 06:12:28,48.1487659148508,11.572171959646,17.388452,,,1710.2654471169,17.388452,0,4.5129922704,10.5155515176,9,0,14.929,1710.2654471169,17.388452,0.223694,4.6583334824,0,0,-2.013246,112.5, 0.3, 0,0,0,1024,1024,1240,1024,0,0,33,0,40.4,-1.7,-7.5,66,3.759,3.776,3.77,3.725,0,0,18.234,116.51,1710.2654471169,17.388452,6,P-GPS,
335900,2025-09-03 06:12:28,48.1487663389294,11.572172454373,17.716536,,,1710.5935311169,17.716536,0,4.6959647172,10.7116473244,9,0,14.929,1710.5935311169,17.716536,0.223694,4.6959647172,0,0,-2.013246,112.5, 0.3, -0.1,0,0,1024,1024,1243,1024,0,0,33,0,40.2,-1.7,-7.6,66,3.759,3.776,3.77,3.725,0,0,18.234,116.51,1710.5935311169,17.716536,6,P-GPS,
336000,2025-09-03 06:12:28,48.148766555243,11.5721727697138,18.04462,,,1710.9216151169,18.04462,0,4.7943571088,10.8217195064,11,0,14.929,1710.9216151169,18.04462,0.223694,4.7943571088,0,0,-2.013246,112.6, 0.5, -0.4,0,0,1024,1024,1248,1024,0,0,34,0,40.5,-1.6,-7.9,66,3.759,3.776,3.77,3.725,0,0,18.234,116.51,1710.9216151169,18.04462,6,P-GPS,
336100,2025-09-03 06:12:28,48.1487665993343,11.5721731398843,18.372704,,,1711.2496991169,18.372704,0,4.8379922808,10.9132549424,11,0,14.889,1711.2496991169,18.372704,0.223694,4.8379922808,0,0,-2.013246,112.6, 0.5, -0.5,0,0,1024,1024,1248,1024,0,0,34,0,40.5,-1.6,-7.9,66,3.759,3.776,3.77,3.725,0,0,18.322,116.51,1711.2496991169,18.372704,6,P-GPS,
336200,2025-09-03 06:12:28,48.1487665982941,11.5721731018129,18.700788,,,1711.5777831169,18.700788,0,4.834645824,10.9225397196,11,0,14.889,1711.5777831169,18.700788,0.223694,4.8379922808,0,0,-2.013246,112.7, 0.1, -0.3,0,0,1024,1024,1247,1024,0,0,34,0,40.2,-2,-7.7,66,3.759,3.776,3.77,3.725,0,0,18.322,116.51,1711.5777831169,18.700788,6,P-GPS,
336300,2025-09-03 06:12:28,48.1487665668977,11.5721728689464,19.028872,,,1711.9058671169,19.028872,0,4.8058728572,10.9803809288,9,2,14.889,1711.9058671169,19.028872,0.223694,4.8379922808,0,0,-2.23694,112.6, 0, -0.4,0,0,1024,1024,1250,1024,0,0,34,0,40.2,-2.1,-7.8,66,3.759,3.776,3.77,3.725,0,0,18.322,116.51,1711.9058671169,19.028872,6,P-GPS,
336400,2025-09-03 06:12:29,48.1487665156282,11.5721727376494,19.356956,,,1712.2339511169,19.356956,0,4.778215376,11.017388804,9,2,14.889,1712.2339511169,19.356956,0.223694,4.8379922808,0,0,-2.23694,112.6, 0.1, -0.5,0,0,1024,1024,1248,1024,0,0,34,0,40.5,-1.8,-7.8,66,3.759,3.776,3.77,3.725,0,0,18.322,116.51,1712.2339511169,19.356956,6,P-GPS,
336500,2025-09-03 06:12:29,48.1487664497401,11.5721727316294,19.68504,,,1712.5620351169,19.68504,0,4.7548886036,11.0414701696,10,2,14.889,1712.5620351169,19.68504,0.223694,4.8379922808,0,0,-2.23694,112.6, 0.1, -0.4,0,0,1024,1024,1250,1024,0,0,34,0,39.8,-1.9,-8,66,3.759,3.776,3.77,3.725,0,0,18.322,116.51,1712.5620351169,19.68504,6,P-GPS,
336600,2025-09-03 06:12:29,48.1487658779544,11.5721720360474,20.013124,,,1712.8901191169,20.013124,0,4.5053807216,11.3101709656,10,2,14.889,1712.8901191169,20.013124,0.223694,4.8379922808,0,0,-2.23694,112.5, 0, -0.3,0,0,1024,1024,1252,1024,0,0,35,0,39.6,-2,-8.2,66,3.759,3.776,3.77,3.725,0,0,18.322,116.51,1712.8901191169,20.013124,6,P-GPS,
336700,2025-09-03 06:12:29,48.1487659223551,11.5721720575964,20.341208,,,1713.2182031169,20.341208,0,4.5224082812,11.3271985252,12,2,14.889,1713.2182031169,20.341208,0.223694,4.8379922808,0,0,-2.23694,112.5, 0.1, -0.8,0,0,1024,1024,1254,1024,0,0,35,0,39.9,-1.7,-8.7,66,3.759,3.776,3.77,3.725,0,0,18.322,116.51,1713.2182031169,20.341208,6,P-GPS,
336800,2025-09-03 06:12:29,48.148765799559,11.572171985753,20.669292,,,1713.5462871169,20.669292,0,4.4744752088,11.3752956396,12,2,14.889,1713.5462871169,20.669292,0.223694,4.8379922808,0,0,-2.23694,112.5, 0.1, -1.2,0,0,1024,1024,1252,1024,0,0,35,0,39.8,-1.7,-9.1,66,3.759,3.776,3.77,3.725,0,0,18.322,116.51,1713.5462871169,20.669292,6,P-GPS,
336900,2025-09-03 06:12:29,48.1487654852132,11.5721718070953,20.997376,,,1713.8743711169,20.997376,0,4.3521326852,11.4979334388,11,2,14.889,1713.8743711169,20.997376,0.223694,4.8379922808,0,0,-2.23694,112.6, 0.1, -1.6,0,0,1024,1024,1251,1024,0,0,34,0,39.7,-1.6,-9.7,66,3.759,3.776,3.77,3.725,0,0,18.322,116.51,1713.8743711169,20.997376,6,P-GPS,
337000,2025-09-03 06:12:29,48.1487645765785,11.5721712809716,21.32546,,,1714.2024551169,21.32546,0,3.9979988156,11.853346836,11,2,14.889,1714.2024551169,21.32546,0.223694,4.8379922808,0,0,-2.23694,112.6, 0.2, -2.1,0,0,1024,1024,1253,1024,0,0,35,0,39.9,-1.5,-10.2,66,3.759,3.776,3.77,3.725,0,0,18.322,116.51,1714.2024551169,21.32546,6,P-GPS,
337100,2025-09-03 06:12:29,48.1487643369305,11.5721711647013,21.981628,,,1714.8586231169,21.981628,0,3.9061352956,11.9452431644,11,2,14.864,1714.8586231169,21.981628,0.223694,4.8379922808,0,0,-2.23694,112.7, 0.2, -2.5,0,0,1024,1024,1256,1024,0,0,35,0,39.8,-1.4,-10.1,66,3.759,3.776,3.77,3.725,0,0,18.322,116.51,1714.8586231169,21.981628,6,P-GPS,
337200,2025-09-03 06:12:29,48.1487641552499,11.5721711858924,22.309712,,,1715.1867071169,22.309712,0,3.8439305692,12.0117457912,12,2,14.864,1715.1867071169,22.309712,0.223694,4.8379922808,0,0,-2.23694,112.7, 0.2, -2.4,0,0,1024,1024,1256,1024,0,0,35,0,39.3,-1.7,-9.6,66,3.759,3.776,3.77,3.725,0,0,18.322,116.51,1715.1867071169,22.309712,6,P-GPS,
337300,2025-09-03 06:12:29,48.1487640325025,11.5721713462863,22.637796,,,1715.5147911169,22.637796,0,3.81233608,12.0711618036,12,2,14.864,1715.5147911169,22.637796,0.223694,4.8379922808,0,0,-2.23694,112.8, 0.1, -2,0,0,1024,1024,1261,1024,0,0,36,0,39.4,-1.7,-9.8,66,3.759,3.776,3.77,3.725,0,0,18.322,116.51,1715.5147911169,22.637796,6,P-GPS,
337400,2025-09-03 06:12:30,48.1487636941947,11.5721716766328,22.96588,,,1715.8428751169,22.96588,0,3.719816392,12.2184715196,12,2,14.864,1715.8428751169,22.96588,0.223694,4.8379922808,0,0,-2.23694,112.8, 0.1, -1.8,0,0,1024,1024,1262,1024,0,0,36,0,39.4,-1.7,-9.8,66,3.759,3.776,3.77,3.725,0,0,18.322,116.51,1715.8428751169,22.96588,6,P-GPS,
337500,2025-09-03 06:12:30,48.1487636622637,11.5721717421899,23.293964,,,1716.1709591169,23.293964,0,3.7140093052,12.2382221764,11,2,14.864,1716.1709591169,23.293964,0.223694,4.8379922808,0,0,-2.23694,112.8, 0, -1.6,0,0,1024,1024,1257,1024,0,0,35,0,39.6,-1.7,-9.6,66,3.759,3.776,3.77,3.725,0,0,18.322,116.51,1716.1709591169,23.293964,6,P-GPS,
337600,2025-09-03 06:12:30,48.1487636153843,11.5721716887434,23.622048,,,1716.4990431169,23.622048,0,3.693569672,12.2597116784,11,2,14.864,1716.4990431169,23.622048,0.223694,4.8379922808,0,0,-2.23694,112.8, -0.1, -1.2,0,0,1024,1024,1258,1024,0,0,35,0,39.1,-2,-9.4,66,3.759,3.776,3.77,3.725,0,0,18.322,116.51,1716.4990431169,23.622048,6,P-GPS,
337700,2025-09-03 06:12:30,48.1487635383477,11.572171497208,23.950132,,,1716.8271271169,23.950132,0.223694,3.6519358124,12.314140814,11,3,14.864,1716.8271271169,23.950132,0.223694,4.8379922808,0.223694,0,-2.23694,112.9, -0.1, -0.7,0,0,1024,1024,1260,1024,0,0,36,0,39.3,-2.1,-8.5,66,3.759,3.776,3.77,3.725,0,0,18.322,116.51,1716.8271271169,23.950132,6,P-GPS,
337800,2025-09-03 06:12:30,48.1487633393234,11.5721710756966,24.278216,,,1717.1552111169,24.6063,0.223694,3.5512468328,12.4398626028,11,3,14.864,1717.1552111169,24.278216,0.223694,4.8379922808,0.223694,0,-2.23694,112.9, 0, -0.3,0,0,1024,1024,1257,1024,0,0,35,0,39.2,-2,-8.8,66,3.759,3.776,3.77,3.725,0,0,18.322,116.51,1717.1552111169,24.278216,6,P-GPS,
337900,2025-09-03 06:12:30,48.148763287973,11.5721711016575,24.6063,,,1717.4832951169,24.934384,0,3.535269142,12.4596132596,11,3,14.864,1717.4832951169,24.6063,0.223694,4.8379922808,0,0,-2.23694,112.9, 0, -0.4,0,0,1024,1024,1261,1024,0,0,36,0,38.8,-2,-8.9,66,3.759,3.776,3.77,3.725,0,0,18.322,116.51,1717.4832951169,24.6063,6,P-GPS,
338000,2025-09-03 06:12:30,48.1487632518845,11.5721710957065,24.934384,,,1717.8113791169,25.262468,0,3.5222770156,12.4728678532,11,3,14.864,1717.8113791169,24.934384,0.223694,4.8379922808,0,0,-2.23694,112.8, -0.1, -0.6,0,0,1024,1024,1261,1024,0,0,36,0,38.3,-2.3,-8.8,66,3.759,3.776,3.77,3.725,0,0,18.322,116.51,1717.8113791169,24.934384,6,P-GPS,
338100,2025-09-03 06:12:30,48.1487632314801,11.572171053305,25.262468,,,1718.1394631169,25.590552,0.223694,3.5120736032,12.4855975124,11,3,14.861,1718.1394631169,25.262468,0.223694,4.8379922808,0.223694,0,-2.23694,112.8, -0.2, -0.4,0,0,1024,1024,1264,1024,0,0,36,0,39,-2.2,-8.6,66,3.754,3.771,3.765,3.719,0,0,18.322,116.51,1718.1394631169,25.262468,6,P-GPS,
