time(millisecond),datetime(utc),latitude,longitude,height_above_takeoff(feet),height_above_ground_at_drone_location(feet),ground_elevation_at_drone_location(feet),altitude_above_seaLevel(feet),height_sonar(feet),speed(mph),distance(feet),mileage(feet),satellites,gpslevel,voltage(v),max_altitude(feet),max_ascent(feet),max_speed(mph),max_distance(feet), xSpeed(mph), ySpeed(mph), zSpeed(mph), compass_heading(degrees), pitch(degrees), roll(degrees),isPhoto,isVideo,rc_elevator,rc_aileron,rc_throttle,rc_rudder,rc_elevator(percent),rc_aileron(percent),rc_throttle(percent),rc_rudder(percent),gimbal_heading(degrees),gimbal_pitch(degrees),gimbal_roll(degrees),battery_percent,voltageCell1,voltageCell2,voltageCell3,voltageCell4,voltageCell5,voltageCell6,current(A),battery_temperature(f),altitude(feet),ascent(feet),flycStateRaw,flycState,message
343500,2025-09-03 17:23:06,48.1487754882179,11.5721887354,0,Available with any HD 360 subscription,Available with any HD 360 subscription,1692.870386849,0.328084,0,0,0,9,3,0,1692.870386849,0,0,0,0,0,0,205.5, -2.2, 3.4,0,0,364,364,364,1669,-100,-100,-100,98,1.9,21.7,-13,67,3.959,3.962,3.961,3.933,0,0,0,127.31,1692.870386849,0,6,P-GPS,
343600,2025-09-03 17:23:07,48.1487754015619,11.5721885304514,0,,,1692.870386849,0.328084,0,0.059064634436,0.059064634436,9,3,0,1692.870386849,0,0,0.059064634436,0,0,0,205.5, -2.2, 3.4,0,0,364,364,364,1678,-100,-100,-100,99,1.8,21.6,-13.1,67,3.959,3.962,3.961,3.933,0,0,0,127.31,1692.870386849,0,41,Motors_Started,
343700,2025-09-03 17:23:07,48.148775342026,11.5721883506194,0,,,1692.870386849,0.328084,0,0.107788061192,0.107933402404,9,3,0,1692.870386849,0,0,0.107788061192,0,0,0,205.5, -2.2, 3.4,0,0,364,364,364,1677,-100,-100,-100,99,1.7,21.7,-13,67,3.959,3.962,3.961,3.933,0,0,0,127.31,1692.870386849,0,41,Motors_Started,
343800,2025-09-03 17:23:07,48.1487752804382,11.5721880561768,0.328084,,,1693.198470849,0.328084,0,0.181891738104,0.183048234204,9,3,0,1693.198470849,0.328084,0,0.181891738104,0,0,0,205.5, -2.2, 3.3,0,0,364,364,364,1675,-100,-100,-100,99,1.6,21.7,-13,67,3.959,3.962,3.961,3.933,0,0,0,127.31,1693.198470849,0.328084,41,Motors_Started,
343900,2025-09-03 17:23:07,48.1487752361511,11.5721877841129,0.328084,,,1693.198470849,0.328084,0,0.249162737632,0.251218511976,9,3,0,1693.198470849,0.328084,0,0.249162737632,0,0,0,205.5, -2.2, 3.3,0,0,364,364,364,1660,-100,-100,-100,96,1.6,21.7,-13.2,67,3.959,3.962,3.961,3.933,0,0,0,127.31,1693.198470849,0.328084,41,Motors_Started,
344000,2025-09-03 17:23:07,48.1487751939744,11.5721875226349,0.328084,,,1693.198470849,0.328084,0,0.314133212152,0.316703094124,9,3,0,1693.198470849,0.328084,0,0.314133212152,0,0,0,205.5, -2.2, 3.4,0,0,365,364,364,1646,-100,-100,-100,94,1.6,21.7,-13.3,67,3.959,3.962,3.961,3.933,0,0,0,127.31,1693.198470849,0.328084,41,Motors_Started,
344100,2025-09-03 17:23:07,48.1487750998177,11.5721874322134,0.328084,,,1693.198470849,0.328084,0,0.34744423684,0.35750329228,9,3,0,1693.198470849,0.328084,0,0.34744423684,0,0,0,205.6, -2.2, 3.4,0,0,367,364,364,1639,-100,-100,-100,93,1.5,21.7,-13.3,67,3.959,3.962,3.961,3.933,0,0,0,127.31,1693.198470849,0.328084,41,Motors_Started,
344200,2025-09-03 17:23:07,48.1487750092339,11.5721873489705,0.328084,,,1693.198470849,0.328084,0,0.38005578644,0.39626969772,9,3,15.764,1693.198470849,0.328084,0,0.38005578644,0,0,0,205.4, -2.2, 3.3,0,0,373,364,364,1617,-99,-100,-100,90,1.4,21.6,-13.4,67,3.959,3.962,3.961,3.933,0,0,1.634,127.31,1693.198470849,0.328084,41,Motors_Started,"Setting new Return-To-Home altitude to 100m (328 ft). Data Recorder File Index is 246. Setting new Maximum Flight Altitude to 500m (1640 ft)"
344300,2025-09-03 17:23:07,48.1487749342766,11.5721871651022,0,,,1692.870386849,0.328084,0,4.9386156436,0.44872376764,9,3,15.764,1693.198470849,0.328084,0,4.9386156436,0,0,0,205.5, -2.2, 3.3,0,0,720,672,520,1506,-46,-53,-76,73,1.4,21.7,-13.4,67,3.959,3.962,3.961,3.933,0,0,1.634,127.31,1692.870386849,0,41,Motors_Started,
344400,2025-09-03 17:23:07,48.1487748751218,11.5721869573754,0.328084,,,1693.198470849,0.328084,0,4.884842676,0.50370080352,9,3,15.764,1693.198470849,0.328084,0,4.9386156436,0,0,0,205.4, -2.2, 3.4,0,0,1024,1024,1021,1101,0,0,-0,12,1.3,21.7,-13.5,67,3.959,3.962,3.961,3.933,0,0,1.634,127.31,1693.198470849,0.328084,41,Motors_Started,
344500,2025-09-03 17:23:07,48.1487748287535,11.5721868380834,0.328084,,,1693.198470849,0.328084,0,4.851378108,0.53730972848,9,3,15.764,1693.198470849,0.328084,0,4.9386156436,0,0,0,205.4, -2.2, 3.4,0,0,1024,1024,1024,1024,0,0,0,0,1.4,21.7,-13.6,67,3.959,3.962,3.961,3.933,0,0,1.634,127.31,1693.198470849,0.328084,41,Motors_Started,
344600,2025-09-03 17:23:08,48.1487747919506,11.5721867226254,0.328084,,,1693.198470849,0.328084,0,4.820702254,0.56845802344,9,3,15.764,1693.198470849,0.328084,0,4.9386156436,0,0,0,205.3, -2.2, 3.4,0,0,1024,1024,1024,1024,0,0,0,0,1.3,21.7,-13.6,67,3.959,3.962,3.961,3.933,0,0,1.634,127.31,1693.198470849,0.328084,41,Motors_Started,
344700,2025-09-03 17:23:08,48.1487749276782,11.572186554766,0.328084,,,1693.198470849,0.328084,0,4.8165027788,0.6326607814,9,3,15.764,1693.198470849,0.328084,0,4.9386156436,0,0,0,205.3, -2.2, 3.4,0,0,1024,1024,1024,1024,0,0,0,0,1.3,21.7,-13.6,67,3.959,3.962,3.961,3.933,0,0,1.634,127.31,1693.198470849,0.328084,41,Motors_Started,
344800,2025-09-03 17:23:08,48.1487749265643,11.5721863684742,0.328084,,,1693.198470849,0.328084,0,4.7797245624,0.67800855188,9,3,15.764,1693.198470849,0.328084,0,4.9386156436,0,0,0,205.3, -2.2, 3.4,0,0,1024,1024,1024,1024,0,0,0,0,1.3,21.7,-13.8,67,3.959,3.962,3.961,3.933,0,0,1.634,127.31,1693.198470849,0.328084,41,Motors_Started,
344900,2025-09-03 17:23:08,48.1487748454743,11.5721861555813,0.328084,,,1693.198470849,0.328084,0,4.7204397836,0.73768375064,9,3,15.764,1693.198470849,0.328084,0,4.9386156436,0,0,0,205.2, -2.2, 3.4,0,0,1024,1024,1024,1024,0,0,0,0,1.2,21.7,-13.8,67,3.959,3.962,3.961,3.933,0,0,1.634,127.31,1693.198470849,0.328084,41,Motors_Started,
345000,2025-09-03 17:23:08,48.1487747710414,11.5721859450476,0.328084,,,1693.198470849,0.328084,0,4.6631235088,0.795685721,9,3,15.764,1693.198470849,0.328084,0,4.9386156436,0,0,0,205.2, -2.2, 3.4,0,0,1024,1024,1024,1024,0,0,0,0,1.1,21.7,-13.8,67,3.959,3.962,3.961,3.933,0,0,1.634,127.31,1693.198470849,0.328084,41,Motors_Started,
345100,2025-09-03 17:23:08,48.1487747656154,11.5721853593755,0,,,1692.870386849,0.328084,0,4.5483597256,0.93826774656,9,3,15.764,1693.198470849,0.328084,0,4.9386156436,0,0,0,205.2, -2.2, 3.4,0,0,1024,1024,1024,1024,0,0,0,0,1.1,21.7,-13.8,67,3.959,3.962,3.961,3.933,0,0,1.634,127.31,1692.870386849,0,10,Assisted_Takeoff,
345200,2025-09-03 17:23:08,48.1487747552846,11.5721850528432,0,,,1692.870386849,0.328084,0,4.4872376764,1.01297903504,9,3,15.701,1693.198470849,0.328084,0,4.9386156436,0,0,0,205.2, -2.2, 3.4,0,0,1024,1024,1024,1024,0,0,0,0,1.1,21.7,-14,67,3.931,3.956,3.951,3.919,0,0,4.972,127.31,1692.870386849,0,10,Assisted_Takeoff,
345300,2025-09-03 17:23:08,48.148774718257,11.5721848546062,0,,,1692.870386849,0.328084,0,4.4410106408,1.0630905852,9,3,15.701,1693.198470849,0.328084,0,4.9386156436,0,0,0,205.1, -2.2, 3.4,0,0,1024,1024,1024,1024,0,0,0,0,1,21.7,-14,67,3.931,3.956,3.951,3.919,0,0,4.972,127.31,1692.870386849,0,10,Assisted_Takeoff,
345400,2025-09-03 17:23:08,48.1487746824671,11.5721846639652,0,,,1692.870386849,0.328084,0,4.3966208756,1.11129924816,8,3,15.701,1693.198470849,0.328084,0,4.9386156436,0,0,0,205.1, -2.2, 3.4,0,0,1024,1024,1024,1024,0,0,0,0,1,21.7,-14.1,67,3.931,3.956,3.951,3.919,0,0,4.972,127.31,1692.870386849,0,10,Assisted_Takeoff,
345500,2025-09-03 17:23:08,48.148774607005,11.5721844562754,0,,,1692.870386849,0.328084,0,4.3399607688,1.16886814764,8,3,15.701,1693.198470849,0.328084,0,4.9386156436,0,0,0,205.1, -2.2, 3.4,0,0,1024,1024,1024,1024,0,0,0,0,0.9,21.7,-14.1,67,3.931,3.956,3.951,3.919,0,0,4.972,127.31,1692.870386849,0,10,Assisted_Takeoff,
345600,2025-09-03 17:23:09,48.1487745600114,11.5721842224321,0,,,1692.870386849,0.328084,0,4.284941082,1.22832024928,8,3,15.701,1693.198470849,0.328084,0,4.9386156436,0,0,0,205.1, -2.2, 3.4,0,0,1024,1024,1024,1024,0,0,0,0,1,21.7,-14.3,67,3.931,3.956,3.951,3.919,0,0,4.972,127.31,1692.870386849,0,10,Assisted_Takeoff,
345700,2025-09-03 17:23:09,48.1487745076699,11.5721840668212,0,,,1692.870386849,0.328084,0,4.2435368812,1.27074151048,8,3,15.701,1693.198470849,0.328084,0,4.9386156436,0,0,0,205, -2.2, 3.4,0,0,1024,1024,1024,1024,0,0,0,0,0.9,21.8,-14.4,67,3.931,3.956,3.951,3.919,0,0,4.972,127.31,1692.870386849,0,10,Assisted_Takeoff,
345800,2025-09-03 17:23:09,48.1487744576018,11.5721839209505,0,,,1692.870386849,0.328084,0,4.2044948852,1.31067261412,9,3,15.701,1693.198470849,0.328084,0,4.9386156436,0,0,0,205, -2.2, 3.4,0,0,1024,1024,1024,1024,0,0,0,0,0.8,21.7,-14.3,67,3.931,3.956,3.951,3.919,0,0,4.972,127.31,1692.870386849,0,10,Assisted_Takeoff,
345900,2025-09-03 17:23:09,48.1487743538308,11.5721838417343,0,,,1692.870386849,0.328084,0,4.1655841228,1.35315949212,9,3,15.701,1693.198470849,0.328084,0,4.9386156436,0,0,0,205, -2.2, 3.4,0,0,1024,1024,1024,1024,0,0,0,0,0.7,21.8,-14.4,67,3.931,3.956,3.951,3.919,0,0,4.972,127.31,1692.870386849,0,10,Assisted_Takeoff,
346000,2025-09-03 17:23:09,48.1487741432339,11.5721840739983,0,,,1692.870386849,0.328084,0,4.1619423904,1.4485564768,9,3,15.701,1693.198470849,0.328084,0,4.9386156436,0,0,0,205, -2.2, 3.4,0,0,1024,1024,1024,1024,0,0,0,0,0.7,21.7,-14.5,67,3.931,3.956,3.951,3.919,0,0,4.972,127.31,1692.870386849,0,10,Assisted_Takeoff,
346100,2025-09-03 17:23:09,48.1487740756502,11.5721839586832,0,,,1692.870386849,0.328084,0,4.1246392396,1.48591868272,9,3,15.701,1693.198470849,0.328084,0,4.9386156436,0,0,0,205, -2.2, 3.4,0,0,1024,1024,1024,1024,0,0,0,0,0.7,21.7,-14.5,67,3.931,3.956,3.951,3.919,0,0,4.972,127.31,1692.870386849,0,10,Assisted_Takeoff,
346200,2025-09-03 17:23:09,48.14877400877,11.5721838419654,0,,,1692.870386849,0.328084,0,4.0872376636,1.52337275216,8,3,15.695,1693.198470849,0.328084,0,4.9386156436,0,0,0,205, -2.2, 3.4,0,0,1024,1024,1024,1024,0,0,0,0,0.6,21.7,-14.5,67,3.931,3.956,3.951,3.919,0,0,4.972,127.31,1692.870386849,0,10,Assisted_Takeoff,
346300,2025-09-03 17:23:09,48.1487739642907,11.5721836115213,0,,,1692.870386849,0.328084,0,4.0330381868,1.58176842332,8,3,15.695,1693.198470849,0.328084,0,4.9386156436,0,0,0,204.9, -2.2, 3.4,0,0,1024,1024,1024,1024,0,0,0,0,0.6,21.7,-14.5,67,3.931,3.956,3.951,3.919,0,0,4.972,127.31,1692.870386849,0,10,Assisted_Takeoff,
346400,2025-09-03 17:23:09,48.1487739473158,11.5721832954078,0,,,1692.870386849,0.328084,0,3.9688977648,1.65896986936,8,3,15.695,1693.198470849,0.328084,0,4.9386156436,0,0,0,204.9, -2.2, 3.4,0,0,1024,1024,1024,1024,0,0,0,0,0.5,21.7,-14.6,67,3.931,3.956,3.951,3.919,0,0,4.972,127.31,1692.870386849,0,10,Assisted_Takeoff,
346500,2025-09-03 17:23:09,48.1487739053085,11.5721831017239,0,,,1692.870386849,0.328084,0,3.922572304,1.70854336176,8,3,15.695,1693.198470849,0.328084,0,4.9386156436,0,0,0,204.9, -2.2, 3.4,0,0,1024,1024,1024,1024,0,0,0,0,0.5,21.7,-14.7,67,3.931,3.956,3.951,3.919,0,0,4.972,127.31,1692.870386849,0,10,Assisted_Takeoff,
346600,2025-09-03 17:23:10,48.1487738662747,11.572182916034,0,,,1692.870386849,0.328084,0,3.8785434312,1.7559383764,8,3,15.695,1693.198470849,0.328084,0,4.9386156436,0,0,0,204.9, -2.2, 3.4,0,0,1024,1024,1024,1024,0,0,0,0,0.5,21.7,-14.8,67,3.931,3.956,3.951,3.919,0,0,4.972,127.31,1692.870386849,0,10,Assisted_Takeoff,
346700,2025-09-03 17:23:10,48.14877377317,11.5721827542186,0,,,1692.870386849,0.328084,0,3.8265421172,1.80795281376,8,3,15.695,1693.198470849,0.328084,0,4.9386156436,0,0,0,204.9, -2.2, 3.4,0,0,1024,1024,1024,1024,0,0,0,0,0.4,21.7,-14.8,67,3.931,3.956,3.951,3.919,0,0,4.972,127.31,1692.870386849,0,10,Assisted_Takeoff,
346800,2025-09-03 17:23:10,48.1487736243433,11.5721826390592,0,,,1692.870386849,0.328084,0,3.7705709868,1.8690617396,8,3,15.695,1693.198470849,0.328084,0,4.9386156436,0,0,0,204.9, -2.2, 3.4,0,0,1024,1024,1024,1024,0,0,0,0,0.4,21.7,-14.8,67,3.931,3.956,3.951,3.919,0,0,4.972,127.31,1692.870386849,0,10,Assisted_Takeoff,
346900,2025-09-03 17:23:10,48.1487735645696,11.5721825953546,0,,,1692.870386849,0.328084,0,3.7485893588,1.8933235514,8,3,15.695,1693.198470849,0.328084,0,4.9386156436,0,0,0,204.9, -2.2, 3.4,0,0,1024,1024,1024,1024,0,0,0,0,0.3,21.7,-14.9,67,3.931,3.956,3.951,3.919,0,0,4.972,127.31,1692.870386849,0,10,Assisted_Takeoff,
347000,2025-09-03 17:23:10,48.1487735058805,11.5721825502489,0,,,1692.870386849,0.328084,0,3.7266405392,1.9173885128,8,3,15.695,1693.198470849,0.328084,0,4.9386156436,0,0,0,204.9, -2.2, 3.4,0,0,1024,1024,1024,1024,0,0,0,0,0.3,21.7,-15.1,67,3.931,3.956,3.951,3.919,0,0,4.972,127.31,1692.870386849,0,10,Assisted_Takeoff,
347100,2025-09-03 17:23:10,48.1487734655114,11.5721824459964,0,,,1692.870386849,0.328084,0,3.6976379136,1.94673234576,8,3,15.695,1693.198470849,0.328084,0,4.9386156436,0,0,0,204.9, -2.2, 3.4,0,0,1024,1024,1024,1024,0,0,0,0,0.3,21.7,-15.1,67,3.931,3.956,3.951,3.919,0,0,4.972,127.31,1692.870386849,0,10,Assisted_Takeoff,
347200,2025-09-03 17:23:10,48.1487734496764,11.5721825755566,0,,,1692.870386849,0.328084,0,3.7187337148,1.97879599508,8,3,15.805,1693.198470849,0.328084,0,4.9386156436,0,0,0,204.9, -2.2, 3.4,0,0,1024,1024,1024,1024,0,0,0,0,0.1,21.7,-15,67,3.952,3.956,3.951,3.919,0,0,1.988,127.31,1692.870386849,0,10,Assisted_Takeoff,
347300,2025-09-03 17:23:10,48.1487733524094,11.572182522871,0,,,1692.870386849,0.328084,0,3.6867455248,2.01652893592,8,3,15.805,1693.198470849,0.328084,0,4.9386156436,0,0,0,204.8, -2.2, 3.4,0,0,1024,1024,1024,1024,0,0,0,0,0.2,21.7,-15.3,67,3.952,3.956,3.951,3.919,0,0,1.988,127.31,1692.870386849,0,10,Assisted_Takeoff,
347400,2025-09-03 17:23:10,48.1487732602264,11.5721824725911,0,,,1692.870386849,0.328084,0,3.6564633716,2.05231961948,9,3,15.805,1693.198470849,0.328084,0,4.9386156436,0,0,0,204.9, -2.2, 3.4,0,0,1024,1024,1024,1024,0,0,0,0,0.1,21.7,-15.3,67,3.952,3.956,3.951,3.919,0,0,1.988,127.31,1692.870386849,0,10,Assisted_Takeoff,
347500,2025-09-03 17:23:10,48.1487731985964,11.572182395938,0,,,1692.870386849,0.656168,0,3.627952872,2.08153878052,9,3,15.805,1693.198470849,0.328084,0,4.9386156436,0,0,0,204.8, -2.2, 3.4,0,0,1024,1024,1024,1024,0,0,0,0,0.1,21.7,-15.3,67,3.952,3.956,3.951,3.919,0,0,1.988,127.31,1692.870386849,0,10,Assisted_Takeoff,
347600,2025-09-03 17:23:11,48.1487731403339,11.5721823230227,0,,,1692.870386849,0.656168,0,3.6009515588,2.10923235096,9,3,15.805,1693.198470849,0.328084,0,4.9386156436,0,0,0,204.8, -2.2, 3.4,0,0,1024,1024,1024,1024,0,0,0,0,0.1,21.7,-15.3,67,3.952,3.956,3.951,3.919,0,0,1.988,127.31,1692.870386849,0,10,Assisted_Takeoff,
347700,2025-09-03 17:23:11,48.1487730754241,11.5721819738114,0,,,1692.870386849,0.656168,0,3.519193026,2.19747710444,9,3,15.805,1693.198470849,0.328084,0,4.9386156436,0,0,0,204.8, -2.2, 3.4,0,0,1024,1024,1024,1024,0,0,0,0,0,21.7,-15.5,67,3.952,3.956,3.951,3.919,0,0,1.988,127.31,1692.870386849,0,10,Assisted_Takeoff,
347800,2025-09-03 17:23:11,48.1487730336969,11.5721817292843,0,,,1692.870386849,0.656168,0,3.4630250452,2.25891739512,8,3,15.805,1693.198470849,0.328084,0,4.9386156436,0,0,0,204.8, -2.2, 3.4,0,0,1024,1024,1024,1024,0,0,0,0,0,21.7,-15.5,67,3.952,3.956,3.951,3.919,0,0,1.988,127.31,1692.870386849,0,10,Assisted_Takeoff,
347900,2025-09-03 17:23:11,48.1487730442752,11.5721814712055,0,,,1692.870386849,0.656168,0,3.4164371172,2.32186031052,8,3,15.805,1693.198470849,0.328084,0,4.9386156436,0,0,0,204.8, -2.2, 3.4,0,0,1024,1024,1024,1024,0,0,0,0,0,21.7,-15.5,67,3.952,3.956,3.951,3.919,0,0,1.988,127.31,1692.870386849,0,10,Assisted_Takeoff,
348000,2025-09-03 17:23:11,48.1487730569901,11.5721812214657,0,,,1692.870386849,0.656168,0,3.3724410528,2.38282816024,8,3,15.805,1693.198470849,0.328084,0,4.9386156436,0,0,0,204.8, -2.2, 3.4,0,0,1024,1024,1024,1024,0,0,0,0,0,21.7,-15.5,67,3.952,3.956,3.951,3.919,0,0,1.988,127.31,1692.870386849,0,10,Assisted_Takeoff,
348100,2025-09-03 17:23:11,48.14877300218,11.5721811127243,0,,,1692.870386849,0.656168,0,3.3393045688,2.41600401432,8,3,15.805,1693.198470849,0.328084,0,4.9386156436,0,0,0,204.8, -2.2, 3.4,0,0,1024,1024,1024,1024,0,0,0,0,359.9,21.7,-15.5,67,3.952,3.956,3.951,3.919,0,0,1.988,127.31,1692.870386849,0,10,Assisted_Takeoff,
348200,2025-09-03 17:23:11,48.1487729262717,11.5721810293771,0,,,1692.870386849,0.656168,0,3.3060040428,2.45033472408,8,3,15.761,1693.198470849,0.328084,0,4.9386156436,0,0,0,204.8, -2.2, 3.4,0,0,1024,1024,1024,1024,0,0,0,0,359.9,21.7,-15.7,67,3.953,3.957,3.956,3.928,0,0,2.122,127.31,1692.870386849,0,10,Assisted_Takeoff,
348300,2025-09-03 17:23:11,48.1487728634984,11.5721809031712,0,,,1692.870386849,0.656168,0,3.26772648252,2.48865493528,8,3,15.761,1693.198470849,0.328084,0,4.9386156436,0,0,0,204.8, -2.2, 3.4,0,0,1024,1024,1027,1024,0,0,0,0,359.8,21.7,-15.8,67,3.953,3.957,3.956,3.928,0,0,2.122,127.31,1692.870386849,0,10,Assisted_Takeoff,
348400,2025-09-03 17:23:11,48.1487728046888,11.5721807825165,0,,,1692.870386849,0.656168,0,3.23142398792,2.52502960836,8,3,15.761,1693.198470849,0.328084,0,4.9386156436,0,0,0,204.8, -2.2, 3.4,0,0,1024,1024,1085,1024,0,0,9,0,359.7,21.8,-15.8,67,3.953,3.957,3.956,3.928,0,0,2.122,127.31,1692.870386849,0,10,Assisted_Takeoff,
348500,2025-09-03 17:23:11,48.1487727391537,11.5721809204992,0,,,1692.870386849,0.328084,0,3.24218842396,2.56625992464,8,3,15.761,1693.198470849,0.328084,0,4.9386156436,0,0,0,204.8, -2.2, 3.4,0,0,1024,1024,1123,1024,0,0,15,0,359.7,21.7,-15.9,67,3.953,3.957,3.956,3.928,0,0,2.122,127.31,1692.870386849,0,10,Assisted_Takeoff,
348600,2025-09-03 17:23:11,48.1487726893428,11.5721808728418,0,,,1692.870386849,0.328084,0,3.2217356674,2.58781832428,8,3,15.761,1693.198470849,0.328084,0,4.9386156436,0,0,0,204.8, -2.2, 3.4,0,0,1024,1024,1121,1024,0,0,15,0,359.6,21.7,-15.9,67,3.953,3.957,3.956,3.928,0,0,2.122,127.31,1692.870386849,0,10,Assisted_Takeoff,
348700,2025-09-03 17:23:12,48.1487725897179,11.5721807375698,0,,,1692.870386849,0.656168,0,3.17328422228,2.63686360144,8,3,15.761,1693.198470849,0.328084,0,4.9386156436,0,0,0,204.8, -2.2, 3.4,0,0,1024,1024,1125,1024,0,0,15,0,359.6,21.7,-16,67,3.953,3.957,3.956,3.928,0,0,2.122,127.31,1692.870386849,0,10,Assisted_Takeoff,
348800,2025-09-03 17:23:12,48.1487724960107,11.5721806066775,0,,,1692.870386849,0.656168,0,3.12703750164,2.68359916724,8,3,15.761,1693.198470849,0.328084,0,4.9386156436,0,0,0,204.8, -2.1, 3.4,0,0,1024,1024,1149,1024,0,0,19,0,359.6,21.7,-16,67,3.953,3.957,3.956,3.928,0,0,2.122,127.31,1692.870386849,0,10,Assisted_Takeoff,
348900,2025-09-03 17:23:12,48.1487722451619,11.5721806242512,0.328084,,,1693.198470849,0.984252,0,3.07406177816,2.77522318592,8,3,15.761,1693.198470849,0.328084,0,4.9386156436,0,0,0,204.9, -2.1, 3.4,0,0,1024,1024,1156,1024,0,0,20,0,359.6,21.7,-16,67,3.953,3.957,3.956,3.928,0,0,2.122,127.31,1693.198470849,0.328084,10,Assisted_Takeoff,
349000,2025-09-03 17:23:12,48.1487721397756,11.5721805652086,0,,,1692.870386849,0.656168,0,3.0394029844,2.81626977516,9,3,15.761,1693.198470849,0.328084,0,4.9386156436,0,0,0,204.9, -2.2, 3.4,0,0,1024,1024,1152,1024,0,0,19,0,359.4,21.7,-16.2,67,3.953,3.957,3.956,3.928,0,0,2.122,127.31,1692.870386849,0,10,Assisted_Takeoff,
349100,2025-09-03 17:23:12,48.1487720820716,11.5721804218639,0,,,1692.870386849,0.656168,0,2.99886164452,2.85702436964,9,3,15.761,1693.198470849,0.328084,0,4.9386156436,0,0,0,204.9, -2.2, 3.4,0,0,1024,1024,1148,1024,0,0,19,0,359.5,21.7,-16.3,67,3.953,3.957,3.956,3.928,0,0,2.122,127.31,1692.870386849,0,10,Assisted_Takeoff,
349200,2025-09-03 17:23:12,48.1487720267485,11.5721802834126,0,,,1692.870386849,0.656168,0,2.95979668264,2.8963091478,8,3,15.695,1693.198470849,0.328084,0,4.9386156436,0,0,0,204.9, -2.2, 3.5,0,0,1024,1024,1149,1024,0,0,19,0,359.4,21.6,-16.3,67,3.948,3.95,3.948,3.917,0,0,2.122,127.31,1692.870386849,0,10,Assisted_Takeoff,
349300,2025-09-03 17:23:12,48.1487719359335,11.5721802622841,0,,,1692.870386849,0.656168,0,2.93582030392,2.9298393326,8,3,15.695,1693.198470849,0.328084,0,4.9386156436,0,0,0,204.9, -2.3, 3.4,0,0,1024,1024,1151,1024,0,0,19,0,359.4,21.5,-16.5,67,3.948,3.95,3.948,3.917,0,0,2.122,127.31,1692.870386849,0,10,Assisted_Takeoff,
349400,2025-09-03 17:23:12,48.1487718266925,11.5721803358382,0,,,1692.870386849,0.656168,0,2.92674550048,2.97353355972,8,3,15.695,1693.198470849,0.328084,0,4.9386156436,0,0,0,204.8, -2.4, 3.3,0,0,1024,1024,1156,1024,0,0,20,0,359.3,21.3,-16.6,67,3.948,3.95,3.948,3.917,0,0,2.122,127.31,1692.870386849,0,10,Assisted_Takeoff,
349500,2025-09-03 17:23:12,48.1487717692622,11.5721801985087,0,,,1692.870386849,0.656168,0,2.88737542048,3.01298566072,8,3,15.695,1693.198470849,0.328084,0,4.9386156436,0,0,0,204.8, -2.7, 3.2,0,0,1024,1024,1158,1024,0,0,20,0,359.3,21,-16.6,67,3.948,3.95,3.948,3.917,0,0,2.122,127.31,1692.870386849,0,10,Assisted_Takeoff,
349600,2025-09-03 17:23:13,48.1487717135238,11.5721800610893,0,,,1692.870386849,0.656168,0,2.84834982868,3.05213592444,8,3,15.695,1693.198470849,0.328084,0,4.9386156436,0,0,0,204.8, -3.2, 3.3,0,0,1024,1024,1157,1024,0,0,20,0,359.2,20.1,-16.4,67,3.948,3.95,3.948,3.917,0,0,2.122,127.31,1692.870386849,0,10,Assisted_Takeoff,
349700,2025-09-03 17:23:13,48.1487716054521,11.5721799548739,0,,,1692.870386849,0.656168,0,2.80434064092,3.09928487608,8,3,15.695,1693.198470849,0.328084,0,4.9386156436,0,0,0,204.7, -4.6, 4,0,0,1024,1024,1159,1024,0,0,20,0,359,18,-15.2,67,3.948,3.95,3.948,3.917,0,0,2.122,127.31,1692.870386849,0,10,Assisted_Takeoff,
349800,2025-09-03 17:23:13,48.1487714840484,11.5721798191301,0,,,1692.870386849,0.656168,0.223694,2.75176189908,3.15454734504,8,3,15.695,1693.198470849,0.328084,0.223694,4.9386156436,0,-0.223694,0,205, -6.6, 5.3,0,0,1024,1024,1160,1024,0,0,21,0,359.7,16.5,-13.2,67,3.948,3.95,3.948,3.917,0,0,2.122,127.31,1692.870386849,0,10,Assisted_Takeoff,
349900,2025-09-03 17:23:13,48.1487714057495,11.5721794846758,0,,,1692.870386849,0.656168,0.447388,2.66886163396,3.2408301562,8,3,15.695,1693.198470849,0.328084,0.447388,4.9386156436,0,-0.447388,0,205.8, -8.5, 6.9,0,0,1024,1024,1158,1024,0,0,20,0,0.2,16.3,-12.5,67,3.948,3.95,3.948,3.917,0,0,2.122,127.31,1692.870386849,0,10,Assisted_Takeoff,
350000,2025-09-03 17:23:13,48.1487712825219,11.5721790219372,0,,,1692.870386849,0.656168,0.7158208,2.5513124176,3.3621064068,8,3,15.695,1693.198470849,0.328084,0.7158208,4.9386156436,-0.223694,-0.671082,-0.223694,206.1, -5.5, 5.6,0,0,1024,1024,1156,1024,0,0,20,0,1.3,22.7,-18,67,3.948,3.95,3.948,3.917,0,0,2.122,127.31,1692.870386849,0,6,P-GPS,
350100,2025-09-03 17:23:13,48.148771033028,11.5721784050145,0,,,1692.870386849,0.656168,1.006623,2.37645348812,3.537729772,8,3,15.695,1693.198470849,0.328084,1.006623,4.9386156436,-0.447388,-0.894776,-0.447388,206.1, 0.3, 0,0,0,1024,1024,1153,1024,0,0,20,0,2.5,26.3,-23.1,67,3.948,3.95,3.948,3.917,0,0,2.122,127.31,1692.870386849,0,6,P-GPS,
350200,2025-09-03 17:23:13,48.1487708307036,11.5721776989204,-0.328084,,,1692.542302849,0.984252,1.006623,2.19497382352,3.7247704604,9,3,15.684,1693.198470849,0.328084,1.006623,4.9386156436,-0.447388,-0.894776,-0.447388,205.9, 3.5, -3.8,0,0,1024,1024,1150,1024,0,0,19,0,3.3,28.5,-23.9,67,3.948,3.95,3.948,3.917,0,0,2.814,127.31,1692.542302849,-0.328084,6,P-GPS,
350300,2025-09-03 17:23:13,48.1487705089752,11.5721770090615,-0.656168,,,1692.214218849,0.984252,0.7158208,1.99037736028,3.9296589184,9,3,15.684,1693.198470849,0.328084,1.006623,4.9386156436,-0.223694,-0.671082,-0.447388,205.7, 4.8, -4.1,0,0,1024,1024,1147,1024,0,0,19,0,3.3,28.5,-23.9,67,3.948,3.95,3.948,3.917,0,0,2.814,127.31,1692.214218849,-0.656168,6,P-GPS,
350400,2025-09-03 17:23:13,48.1487702187295,11.5721764297848,-0.656168,,,1692.214218849,0.984252,0.4921268,1.8140748612,4.1060368768,8,3,15.684,1693.198470849,0.328084,1.006623,4.9386156436,-0.223694,-0.447388,-0.447388,205.6, 4.1, -2.9,0,0,1024,1024,1148,1024,0,0,19,0,2.1,27.3,-22.5,67,3.948,3.95,3.948,3.917,0,0,2.814,127.31,1692.214218849,-0.656168,6,P-GPS,
350500,2025-09-03 17:23:13,48.1487700774017,11.5721758856956,-0.328084,,,1692.542302849,0.984252,0.3131716,1.67867787524,4.2481628656,8,3,15.684,1693.198470849,0.328084,1.006623,4.9386156436,-0.223694,-0.223694,-0.447388,205.5, 3.3, -2,0,0,1024,1024,1154,1024,0,0,20,0,1.6,26.1,-21.6,67,3.948,3.95,3.948,3.917,0,0,2.814,127.31,1692.542302849,-0.328084,6,P-GPS,
350600,2025-09-03 17:23:14,48.1487699253767,11.5721751391324,-0.656168,,,1692.214218849,1.312336,0.223694,1.50521002192,4.43815631,10,3,15.684,1693.198470849,0.328084,1.006623,4.9386156436,-0.223694,0,-0.447388,205.7, 2.6, -1.8,0,0,1024,1024,1161,1024,0,0,21,0,2.2,25.4,-19.8,67,3.948,3.95,3.948,3.917,0,0,2.814,127.31,1692.214218849,-0.656168,6,P-GPS,
350700,2025-09-03 17:23:14,48.1487699031045,11.5721747816992,-0.328084,,,1692.542302849,1.312336,0.223694,1.4365321982,4.5255578876,10,3,15.684,1693.198470849,0.328084,1.006623,4.9386156436,0,0,-0.223694,205.8, 2.3, -1.9,0,0,1024,1024,1162,1024,0,0,21,0,2.6,25.1,-20.4,67,3.948,3.95,3.948,3.917,0,0,2.814,127.31,1692.542302849,-0.328084,6,P-GPS,
350800,2025-09-03 17:23:14,48.1487699049381,11.5721744794648,-0.328084,,,1692.542302849,1.312336,0,1.3855971572,4.5991143204,10,3,15.684,1693.198470849,0.328084,1.006623,4.9386156436,0,0,-0.447388,205.7, 2.1, -1.6,0,0,1024,1024,1160,1024,0,0,21,0,1.7,24.8,-20.9,67,3.948,3.95,3.948,3.917,0,0,2.814,127.31,1692.542302849,-0.328084,6,P-GPS,
350900,2025-09-03 17:23:14,48.1487698556435,11.5721744406038,0,,,1692.870386849,1.64042,0,1.3660269466,4.6194555284,10,3,15.684,1693.198470849,0.328084,1.006623,4.9386156436,0,0,-0.894776,205.7, 1.5, -1,0,0,1024,1024,1163,1024,0,0,21,0,1,23.6,-20.2,67,3.948,3.95,3.948,3.917,0,0,2.814,127.31,1692.870386849,0,6,P-GPS,
351000,2025-09-03 17:23:14,48.1487698174369,11.5721744302522,0,,,1692.870386849,1.968504,0,1.3541995184,4.6335959488,10,3,15.684,1693.198470849,0.328084,1.006623,4.9386156436,0,0,-1.11847,205.8, 0.8, -0.8,0,0,1024,1024,1162,1024,0,0,21,0,1.9,23.7,-19.5,67,3.948,3.95,3.948,3.917,0,0,2.814,127.31,1692.870386849,0,6,P-GPS,
351100,2025-09-03 17:23:14,48.1487697995289,11.572174699538,0.656168,,,1693.526554849,1.968504,0,1.3958169738,4.699475216,10,3,15.684,1693.526554849,0.656168,1.006623,4.9386156436,0,0,-1.11847,205.9, 0.9, -0.7,0,0,1024,1024,1162,1024,0,0,21,0,2.1,24,-19.7,67,3.948,3.95,3.948,3.917,0,0,2.814,127.31,1693.526554849,0.656168,6,P-GPS,
351200,2025-09-03 17:23:14,48.1487697252474,11.5721746913948,0.656168,,,1693.526554849,2.296588,0,1.37566277368,4.7266733796,10,3,15.276,1693.526554849,0.656168,1.006623,4.9386156436,0,0,-1.11847,206, 1, -0.7,0,0,1024,1024,1162,1024,0,0,21,0,1.7,23.8,-19.5,67,3.948,3.95,3.948,3.917,0,0,2.814,127.31,1693.526554849,0.656168,6,P-GPS,
351300,2025-09-03 17:23:14,48.1487696838508,11.5721750490976,0.984252,,,1693.854638849,2.624672,0,1.43040358908,4.8150264008,10,3,15.276,1693.854638849,0.984252,1.006623,4.9386156436,0,0,-1.11847,206, 0.9, -0.6,0,0,1024,1024,1164,1024,0,0,21,0,2.4,23.9,-19.3,67,3.948,3.95,3.948,3.917,0,0,2.814,127.31,1693.854638849,0.984252,6,P-GPS,
351400,2025-09-03 17:23:14,48.14876965044,11.5721754391745,0.984252,,,1693.854638849,2.624672,0,1.49639440484,4.910761312,8,3,15.276,1693.854638849,0.984252,1.006623,4.9386156436,0,0,-1.11847,206, 0.7, -0.6,0,0,1024,1024,1165,1024,0,0,21,0,2.4,23.9,-19.3,67,3.948,3.95,3.948,3.917,0,0,2.814,127.31,1693.854638849,0.984252,6,P-GPS,
351500,2025-09-03 17:23:14,48.1487697755419,11.5721761462315,0.984252,,,1693.854638849,2.952756,0,1.66185700856,5.0888453072,8,3,15.276,1693.854638849,0.984252,1.006623,4.9386156436,0,0,-1.11847,206.1, 0.5, -0.4,0,0,1024,1024,1167,1024,0,0,22,0,2.3,23.7,-19.4,67,3.948,3.95,3.948,3.917,0,0,2.814,127.31,1693.854638849,0.984252,6,P-GPS,
351600,2025-09-03 17:23:15,48.1487698262566,11.5721762460914,1.312336,,,1694.182722849,2.952756,0,1.6923885056,5.1193899276,8,3,15.276,1694.182722849,1.312336,1.006623,4.9386156436,0,0,-1.11847,206.1, 0.3, -0.3,0,0,1024,1024,1175,1024,0,0,23,0,2.5,23.4,-19.3,67,3.948,3.95,3.948,3.917,0,0,2.814,127.31,1694.182722849,1.312336,6,P-GPS,
351700,2025-09-03 17:23:15,48.14876977321,11.5721761539157,1.312336,,,1694.182722849,3.28084,0,1.66289047316,5.1490159128,8,3,15.276,1694.182722849,1.312336,1.006623,4.9386156436,0,0,-1.11847,206.1, 0.3, -0.4,0,0,1024,1024,1190,1024,0,0,25,0,2.5,23.4,-19.3,67,3.948,3.95,3.948,3.917,0,0,2.814,127.31,1694.182722849,1.312336,6,P-GPS,
351800,2025-09-03 17:23:15,48.1487697220622,11.5721760615442,1.64042,,,1694.510806849,3.608924,0,1.63375661396,5.1782481972,10,3,15.276,1694.510806849,1.64042,1.006623,4.9386156436,0,0,-1.11847,206.1, 0.4, -0.2,0,0,1024,1024,1197,1024,0,0,26,0,2.6,23.5,-19,67,3.948,3.95,3.948,3.917,0,0,2.814,127.31,1694.510806849,1.64042,6,P-GPS,
351900,2025-09-03 17:23:15,48.1487697761347,11.572175320855,1.968504,,,1694.838890849,3.608924,0,1.50267721344,5.3596130324,10,3,15.276,1694.838890849,1.968504,1.006623,4.9386156436,0,0,-1.11847,206.1, 0.4, 0,0,0,1024,1024,1199,1024,0,0,27,0,2.1,23.3,-19,67,3.948,3.95,3.948,3.917,0,0,2.814,127.31,1694.838890849,1.968504,6,P-GPS,
352000,2025-09-03 17:23:15,48.1487698307771,11.5721751777687,1.968504,,,1694.838890849,3.937008,0,1.48916999516,5.3997377056,11,3,15.276,1694.838890849,1.968504,1.006623,4.9386156436,0,0,-1.11847,206.1, 0.4, 0,0,0,1024,1024,1207,1024,0,0,28,0,1.9,23.2,-19.2,67,3.948,3.95,3.948,3.917,0,0,2.814,127.31,1694.838890849,1.968504,6,P-GPS,
352100,2025-09-03 17:23:15,48.1487698637401,11.5721752227251,2.296588,,,1695.166974849,3.937008,0,1.50532813216,5.416010672,11,3,15.276,1695.166974849,2.296588,1.006623,4.9386156436,0,0,-1.342164,206.1, 0.3, 0,0,0,1024,1024,1218,1024,0,0,29,0,2.1,23,-19.2,67,3.948,3.95,3.948,3.917,0,0,2.814,127.31,1695.166974849,2.296588,6,P-GPS,
352200,2025-09-03 17:23:15,48.148769900385,11.5721752646483,2.296588,,,1695.166974849,4.265092,0,1.52182419568,5.4328413812,12,3,15.068,1695.166974849,2.296588,1.006623,4.9386156436,0,0,-1.342164,206.1, 0.3, 0,0,0,1024,1024,1226,1024,0,0,31,0,2.4,23.1,-19,67,3.828,3.841,3.838,3.789,0,0,14.802,127.31,1695.166974849,2.296588,6,P-GPS,
352300,2025-09-03 17:23:15,48.1487699252481,11.5721755500344,2.624672,,,1695.495058849,4.593176,0,1.58037734716,5.5028873152,12,3,15.068,1695.495058849,2.624672,1.006623,4.9386156436,0,0,-1.565858,206.1, 0.3, 0,0,0,1024,1024,1228,1024,0,0,31,0,2,23.1,-19.2,67,3.828,3.841,3.838,3.789,0,0,14.802,127.31,1695.495058849,2.624672,6,P-GPS,
352400,2025-09-03 17:23:15,48.1487699474519,11.572175608029,2.952756,,,1695.823142849,4.593176,0,1.59640096972,5.5191602816,10,3,15.068,1695.823142849,2.952756,1.006623,4.9386156436,0,0,-1.565858,206.1, 0.3, -0.1,0,0,1024,1024,1228,1024,0,0,31,0,2.1,22.9,-19.7,67,3.828,3.841,3.838,3.789,0,0,14.802,127.31,1695.823142849,2.952756,6,P-GPS,
352500,2025-09-03 17:23:15,48.1487700117087,11.5721757588958,3.28084,,,1696.151226849,4.92126,0,1.63961947504,5.5627298368,10,3,15.068,1696.151226849,3.28084,1.006623,4.9386156436,0,0,-1.789552,206.1, 0, 0,0,0,1024,1024,1240,1024,0,0,33,0,2.5,22.9,-19.1,67,3.828,3.841,3.838,3.789,0,0,14.802,127.31,1696.151226849,3.28084,6,P-GPS,
352600,2025-09-03 17:23:16,48.1487700724024,11.5721758986503,3.28084,,,1696.151226849,5.249344,0,1.67994099864,5.6033138276,8,3,15.068,1696.151226849,3.28084,1.006623,4.9386156436,0,0,-1.789552,206.1, 0, 0.1,0,0,1024,1024,1242,1024,0,0,33,0,2.5,23,-19.4,67,3.828,3.841,3.838,3.789,0,0,14.802,127.31,1696.151226849,3.28084,6,P-GPS,
352700,2025-09-03 17:23:16,48.1487700886819,11.5721759557076,3.608924,,,1696.479310849,5.577428,0,1.69443574976,5.6184385,8,3,15.068,1696.479310849,3.608924,1.006623,4.9386156436,0,0,-1.789552,206.1, 0.1, 0,0,0,1024,1024,1241,1024,0,0,33,0,2.2,23,-19.7,67,3.828,3.841,3.838,3.789,0,0,14.802,127.31,1696.479310849,3.608924,6,P-GPS,
352800,2025-09-03 17:23:16,48.1487701072348,11.5721762156112,3.937008,,,1696.807394849,5.577428,0,1.747949531,5.6820539876,8,3,15.068,1696.807394849,3.937008,1.006623,4.9386156436,0,0,-2.013246,206.1, 0.2, -0.3,0,0,1024,1024,1235,1024,0,0,32,0,2.6,23.2,-19.8,67,3.828,3.841,3.838,3.789,0,0,14.802,127.31,1696.807394849,3.937008,6,P-GPS,
352900,2025-09-03 17:23:16,48.1487701468223,11.5721761845564,4.265092,,,1697.135478849,5.905512,0,1.75104008228,5.6983597624,8,3,15.068,1697.135478849,4.265092,1.006623,4.9386156436,0,0,-2.013246,206.1, 0.2, -0.5,0,0,1024,1024,1235,1024,0,0,32,0,2.6,23.2,-19.8,67,3.828,3.841,3.838,3.789,0,0,14.802,127.31,1697.135478849,4.265092,6,P-GPS,
353000,2025-09-03 17:23:16,48.1487701830063,11.572176158708,4.593176,,,1697.463562849,6.233596,0,1.75446856008,5.7129923088,11,3,15.068,1697.463562849,4.593176,1.006623,4.9386156436,0,0,-2.013246,206.1, 0.3, -0.5,0,0,1024,1024,1235,1024,0,0,32,0,2.4,22.9,-19.9,67,3.828,3.841,3.838,3.789,0,0,14.802,127.31,1697.463562849,4.593176,6,P-GPS,
353100,2025-09-03 17:23:16,48.1487702237532,11.5721758839559,4.92126,,,1697.791646849,6.889764,0,1.71295609156,5.781496248,11,3,15.068,1697.791646849,4.92126,1.006623,4.9386156436,0,0,-2.013246,206.1, 0.1, -0.5,0,0,1024,1024,1241,1024,0,0,33,0,2.2,22.7,-20,67,3.828,3.841,3.838,3.789,0,0,14.802,127.31,1697.791646849,4.92126,6,P-GPS,
353200,2025-09-03 17:23:16,48.1487703236697,11.5721750751419,5.249344,,,1698.119730849,6.889764,0,1.5962270852,5.9817259132,9,3,15.075,1698.119730849,5.249344,1.006623,4.9386156436,0,0,-2.013246,206, -0.1, -0.2,0,0,1024,1024,1242,1024,0,0,33,0,2.5,22.6,-19.6,67,3.799,3.815,3.813,3.764,0,0,18.762,127.31,1698.119730849,5.249344,6,P-GPS,
353300,2025-09-03 17:23:16,48.1487705127613,11.5721751884317,5.577428,,,1698.447814849,7.545932,0,1.66558076196,6.0560369392,9,3,15.075,1698.447814849,5.577428,1.006623,4.9386156436,0,0,-2.013246,206.1, -0.3, 0.1,0,0,1024,1024,1243,1024,0,0,33,0,2.8,22.7,-19.1,67,3.799,3.815,3.813,3.764,0,0,18.762,127.31,1698.447814849,5.577428,6,P-GPS,
353400,2025-09-03 17:23:16,48.1487707079971,11.5721753165346,5.905512,,,1698.775898849,7.545932,0,1.73941278532,6.1337928472,9,3,15.075,1698.775898849,5.905512,1.006623,4.9386156436,0,0,-2.013246,206.1, -0.2, 0.1,0,0,1024,1024,1242,1024,0,0,33,0,2.2,22.6,-19.2,67,3.799,3.815,3.813,3.764,0,0,18.762,127.31,1698.775898849,5.905512,6,P-GPS,
353500,2025-09-03 17:23:16,48.1487707449091,11.5721754770693,6.233596,,,1699.103982849,7.874016,0,1.77551842952,6.1751314312,9,3,15.075,1699.103982849,6.233596,1.006623,4.9386156436,0,0,-2.23694,206.1, -0.1, 0.2,0,0,1024,1024,1242,1024,0,0,33,0,1.9,22.5,-19.3,67,3.799,3.815,3.813,3.764,0,0,18.762,127.31,1699.103982849,6.233596,6,P-GPS,
353600,2025-09-03 17:23:17,48.1487709098753,11.5721761653554,6.56168,,,1699.432066849,8.530184,0,1.9344324766,6.3531498096,10,3,15.075,1699.432066849,6.56168,1.006623,4.9386156436,0,0,-2.23694,206.1, 0, 0,0,0,1024,1024,1243,1024,0,0,33,0,2.4,22.8,-19.7,67,3.799,3.815,3.813,3.764,0,0,18.762,127.31,1699.432066849,6.56168,6,P-GPS,
353700,2025-09-03 17:23:17,48.1487708163652,11.5721763890413,6.889764,,,1699.760150849,8.530184,0,1.94944888128,6.4174214652,10,3,15.075,1699.760150849,6.889764,1.006623,4.9386156436,0,0,-2.23694,206.1, 0.2, 0,0,0,1024,1024,1243,1024,0,0,33,0,2.5,23,-19.6,67,3.799,3.815,3.813,3.764,0,0,18.762,127.31,1699.760150849,6.889764,6,P-GPS,
353800,2025-09-03 17:23:17,48.1487707218112,11.5721766050172,7.217848,,,1700.088234849,8.858268,0,1.96479336996,6.4802823596,10,3,15.075,1700.088234849,7.217848,1.006623,4.9386156436,0,0,-2.23694,206.1, 0.2, 0.1,0,0,1024,1024,1244,1024,0,0,33,0,2.1,22.9,-19.7,67,3.799,3.815,3.813,3.764,0,0,18.762,127.31,1700.088234849,7.217848,6,P-GPS,
353900,2025-09-03 17:23:17,48.1487706145114,11.5721766606189,7.545932,,,1700.416318849,9.186352,0,1.94922578416,6.5217193688,10,3,15.075,1700.416318849,7.545932,1.006623,4.9386156436,0,0,-2.23694,206.1, 0.3, 0.2,0,0,1024,1024,1243,1024,0,0,33,0,1.7,22.9,-20.1,67,3.799,3.815,3.813,3.764,0,0,18.762,127.31,1700.416318849,7.545932,6,P-GPS,
354000,2025-09-03 17:23:17,48.1487701351691,11.5721770203664,7.874016,,,1700.744402849,9.514436,0,1.91138785644,6.7173230496,8,3,15.075,1700.744402849,7.874016,1.006623,4.9386156436,0,0,-2.23694,206.1, 0.3, 0.3,0,0,1024,1024,1243,1024,0,0,33,0,1.8,23.1,-20,67,3.799,3.815,3.813,3.764,0,0,18.762,127.31,1700.744402849,7.874016,6,P-GPS,
354100,2025-09-03 17:23:17,48.1487700995551,11.5721769180943,8.2021,,,1701.072486849,9.84252,0,1.88354008652,6.7453742316,8,3,15.075,1701.072486849,8.2021,1.006623,4.9386156436,0,0,-2.23694,206.1, 0.4, 0.2,0,0,1024,1024,1243,1024,0,0,33,0,2,23.1,-20.3,67,3.799,3.815,3.813,3.764,0,0,18.762,127.31,1701.072486849,8.2021,6,P-GPS,
354200,2025-09-03 17:23:17,48.1487700718943,11.5721767987476,8.530184,,,1701.400570849,10.498688,0,1.8539698756,6.7761485108,8,3,15.027,1701.400570849,8.530184,1.006623,4.9386156436,0,0,-2.23694,206.1, 0.3, 0,0,0,1024,1024,1247,1024,0,0,34,0,1.6,22.7,-20.5,67,3.781,3.799,3.799,3.749,0,0,19.442,127.31,1701.400570849,8.530184,6,P-GPS,
354300,2025-09-03 17:23:17,48.148770134889,11.5721766517599,8.858268,,,1701.728654849,10.498688,0,1.83844494072,6.8186681972,8,3,15.027,1701.728654849,8.858268,1.006623,4.9386156436,0,0,-2.23694,206.1, 0.1, -0.1,0,0,1024,1024,1247,1024,0,0,34,0,1.6,22.7,-20.5,67,3.781,3.799,3.799,3.749,0,0,19.442,127.31,1701.728654849,8.858268,6,P-GPS,
354400,2025-09-03 17:23:17,48.1487701965745,11.5721765062245,9.186352,,,1702.056738849,10.826772,0,1.82376318172,6.8606301408,12,3,15.027,1702.056738849,9.186352,1.006623,4.9386156436,0,0,-2.23694,206.1, 0, -0.2,0,0,1024,1024,1248,1024,0,0,34,0,1.7,22.7,-20.6,67,3.781,3.799,3.799,3.749,0,0,19.442,127.31,1702.056738849,9.186352,6,P-GPS,
354500,2025-09-03 17:23:17,48.1487705945972,11.5721754648304,9.514436,,,1702.384822849,11.154856,0,1.73322184024,7.1527889428,12,3,15.027,1702.384822849,9.514436,1.006623,4.9386156436,0,0,-2.23694,206.1, -0.2, -0.5,0,0,1024,1024,1248,1024,0,0,34,0,1.9,22.4,-20.9,67,3.781,3.799,3.799,3.749,0,0,19.442,127.31,1702.384822849,9.514436,6,P-GPS,
354600,2025-09-03 17:23:18,48.1487706740457,11.5721751929575,9.84252,,,1702.712906849,11.48294,0,1.71025924108,7.2250330396,12,3,15.027,1702.712906849,9.84252,1.006623,4.9386156436,0,0,-2.23694,206, -0.3, -0.8,0,0,1024,1024,1249,1024,0,0,34,0,1.7,22.3,-21.2,67,3.781,3.799,3.799,3.749,0,0,19.442,127.31,1702.712906849,9.84252,6,P-GPS,
354700,2025-09-03 17:23:18,48.1487706246973,11.5721751843135,10.170604,,,1703.040990849,11.811024,0,1.69532813824,7.2431760848,12,3,15.027,1703.040990849,10.170604,1.006623,4.9386156436,0,0,-2.23694,206, -0.2, -0.6,0,0,1024,1024,1250,1024,0,0,34,0,1.4,22.3,-21,67,3.781,3.799,3.799,3.749,0,0,19.442,127.31,1703.040990849,10.170604,6,P-GPS,
354800,2025-09-03 17:23:18,48.1487705610317,11.5721751783529,10.498688,,,1703.369074849,12.139108,0,1.677001366,7.2664372404,12,3,15.027,1703.369074849,10.498688,1.006623,4.9386156436,0,0,-2.23694,206.1, -0.3, -0.1,0,0,1024,1024,1250,1024,0,0,34,0,1.8,22.6,-20.6,67,3.781,3.799,3.799,3.749,0,0,19.442,127.31,1703.369074849,10.498688,6,P-GPS,
354900,2025-09-03 17:23:18,48.1487705724568,11.572176088866,10.826772,,,1703.697158849,12.467192,0,1.83524284088,7.4881235992,12,3,15.027,1703.697158849,10.826772,1.006623,4.9386156436,0,0,-2.23694,206.1, -0.1, 0.1,0,0,1024,1024,1250,1024,0,0,34,0,1.6,22.8,-20.3,67,3.781,3.799,3.799,3.749,0,0,19.442,127.31,1703.697158849,10.826772,6,P-GPS,
355000,2025-09-03 17:23:18,48.1487705958967,11.5721763361599,11.154856,,,1704.025242849,12.467192,0,1.88539376112,7.5489175644,11,3,15.027,1704.025242849,11.154856,1.006623,4.9386156436,0,0,-2.23694,206.1, 0.1, 0,0,0,1024,1024,1250,1024,0,0,34,0,1.6,23,-20.6,67,3.781,3.799,3.799,3.749,0,0,19.442,127.31,1704.025242849,11.154856,6,P-GPS,
355100,2025-09-03 17:23:18,48.148770407826,11.5721762243258,11.48294,,,1704.353326849,13.12336,0,1.81954730232,7.6227364644,11,3,15.027,1704.353326849,11.48294,1.006623,4.9386156436,0,0,-2.23694,206.1, 0.4, -0.1,0,0,1024,1024,1251,1024,0,0,34,0,1.3,23,-21,67,3.781,3.799,3.799,3.749,0,0,19.442,127.31,1704.353326849,11.48294,6,P-GPS,
355200,2025-09-03 17:23:18,48.1487702192636,11.5721761092964,11.811024,,,1704.681410849,13.451444,0,1.7536253842,7.697014682,11,4,14.999,1704.681410849,11.811024,1.006623,4.9386156436,0,0,-2.23694,206, 0.5, -0.2,0,0,1024,1024,1252,1024,0,0,35,0,1.4,23.3,-21.2,67,3.78,3.797,3.794,3.745,0,0,18.6,127.31,1704.681410849,11.811024,6,P-GPS,
355300,2025-09-03 17:23:18,48.1487699292622,11.5721757372618,12.139108,,,1705.009494849,13.779528,0,1.61646002548,7.83628634,11,4,14.999,1705.009494849,12.139108,1.006623,4.9386156436,0,0,-2.23694,206, 0.5, -0.1,0,0,1024,1024,1254,1024,0,0,35,0,1.4,23.1,-21.2,67,3.78,3.797,3.794,3.745,0,0,18.6,127.31,1705.009494849,12.139108,6,P-GPS,
355400,2025-09-03 17:23:18,48.1487698557477,11.5721756333543,12.467192,,,1705.337578849,14.107612,0,1.57992787208,7.8731629816,11,4,14.999,1705.337578849,12.467192,1.006623,4.9386156436,0,0,-2.23694,206.1, 0.5, 0,0,0,1024,1024,1256,1024,0,0,35,0,1.3,23.2,-21.2,67,3.78,3.797,3.794,3.745,0,0,18.6,127.31,1705.337578849,12.467192,6,P-GPS,
355500,2025-09-03 17:23:18,48.1487697089532,11.57217555041,12.795276,,,1705.665662849,14.435696,0,1.5308727524,7.9304136396,11,4,14.999,1705.665662849,12.795276,1.006623,4.9386156436,0,0,-2.23694,206.1, 0.5, 0,0,0,1024,1024,1259,1024,0,0,36,0,1.6,23.1,-21.4,67,3.78,3.797,3.794,3.745,0,0,18.6,127.31,1705.665662849,12.795276,6,P-GPS,
355600,2025-09-03 17:23:19,48.1487695582733,11.5721754626028,13.12336,,,1705.993746849,14.76378,0,1.48061356444,7.9894031428,11,4,14.999,1705.993746849,13.12336,1.006623,4.9386156436,0,0,-2.23694,206.1, 0.5, -0.2,0,0,1024,1024,1261,1024,0,0,36,0,1.6,23.1,-21.4,67,3.78,3.797,3.794,3.745,0,0,18.6,127.31,1705.993746849,13.12336,6,P-GPS,
355700,2025-09-03 17:23:19,48.148769442631,11.5721752298188,13.451444,,,1706.321830849,15.091864,0,1.40996395588,8.060039628,11,4,14.999,1706.321830849,13.451444,1.006623,4.9386156436,0,0,-2.23694,206.1, 0.4, -0.5,0,0,1024,1024,1258,1024,0,0,35,0,1.7,23.1,-22,67,3.78,3.797,3.794,3.745,0,0,18.6,127.31,1706.321830849,13.451444,6,P-GPS,
355800,2025-09-03 17:23:19,48.1487693858716,11.5721751166638,14.107612,,,1706.977998849,15.419948,0,1.37550529336,8.094488448,11,4,14.999,1706.977998849,14.107612,1.006623,4.9386156436,0,0,-2.23694,206.1, 0.1, -0.6,0,0,1024,1024,1258,1024,0,0,35,0,1.2,22.8,-22.1,67,3.78,3.797,3.794,3.745,0,0,18.6,127.31,1706.977998849,14.107612,6,P-GPS,
355900,2025-09-03 17:23:19,48.148769456945,11.5721751077406,14.435696,,,1707.306082849,15.748032,0,1.38939308908,8.1205383176,11,4,14.999,1707.306082849,14.435696,1.006623,4.9386156436,0,0,-2.23694,206.1, -0.1, -0.4,0,0,1024,1024,1262,1024,0,0,36,0,1.6,22.7,-21.7,67,3.78,3.797,3.794,3.745,0,0,18.6,127.31,1707.306082849,14.435696,6,P-GPS,
356000,2025-09-03 17:23:19,48.1487695241216,11.5721751019951,14.76378,,,1707.634166849,16.076116,0,1.40335306328,8.1450790008,11,4,14.999,1707.634166849,14.76378,1.006623,4.9386156436,0,0,-2.23694,206.1, -0.2, -0.1,0,0,1024,1024,1263,1024,0,0,36,0,1.3,22.5,-21.4,67,3.78,3.797,3.794,3.745,0,0,18.6,127.31,1707.634166849,14.76378,6,P-GPS,
356100,2025-09-03 17:23:19,48.1487693288614,11.5721751759167,15.091864,,,1707.962250849,16.732284,0,1.374918023,8.2185370084,11,4,14.999,1707.962250849,15.091864,1.006623,4.9386156436,0,0,-2.460634,206.1, -0.2, 0,0,0,1024,1024,1263,1024,0,0,36,0,1.2,22.7,-21.5,67,3.78,3.797,3.794,3.745,0,0,18.6,127.31,1707.962250849,15.091864,6,P-GPS,
356200,2025-09-03 17:23:19,48.1487689970252,11.5721755595739,15.419948,,,1708.290334849,17.060368,0,1.38897970324,8.3714569608,11,4,14.976,1708.290334849,15.419948,1.006623,4.9386156436,0,0,-2.460634,206.1, 0.3, 0,0,0,1024,1024,1259,1024,0,0,36,0,1,23.1,-21.3,67,3.78,3.797,3.794,3.745,0,0,18.6,127.31,1708.290334849,15.419948,6,P-GPS,
356300,2025-09-03 17:23:19,48.1487688103583,11.5721754538176,15.748032,,,1708.618418849,17.388452,0,1.3340879692,8.4442588004,11,4,14.976,1708.618418849,15.748032,1.006623,4.9386156436,0,0,-2.460634,206.1, 0.6, 0.1,0,0,1024,1024,1260,1024,0,0,36,0,0.7,23.1,-21.5,67,3.78,3.797,3.794,3.745,0,0,18.6,127.31,1708.618418849,15.748032,6,P-GPS,
356400,2025-09-03 17:23:19,48.1487686268343,11.5721753231051,16.076116,,,1708.946502849,17.716536,0,1.27597116944,8.5184057844,12,4,14.976,1708.946502849,16.076116,1.006623,4.9386156436,0,0,-2.460634,206.1, 0.5, 0.3,0,0,1024,1024,1259,1024,0,0,36,0,1,23,-21,67,3.78,3.797,3.794,3.745,0,0,18.6,127.31,1708.946502849,16.076116,6,P-GPS,
356500,2025-09-03 17:23:19,48.1487685909173,11.572175350215,16.4042,,,1709.274586849,18.04462,0,1.27645017208,8.5330711392,12,4,14.976,1709.274586849,16.4042,1.006623,4.9386156436,0,0,-2.460634,206.1, 0.2, 0.3,0,0,1024,1024,1263,1024,0,0,36,0,1.3,23,-21.2,67,3.78,3.797,3.794,3.745,0,0,18.6,127.31,1709.274586849,16.4042,6,P-GPS,
356600,2025-09-03 17:23:20,48.1487686471475,11.5721754557531,16.732284,,,1709.602670849,18.700788,0,1.30836290276,8.565945156,13,4,14.976,1709.602670849,16.732284,1.006623,4.9386156436,0,0,-2.460634,206.1, 0, 0.3,0,0,1024,1024,1263,1024,0,0,36,0,0.6,22.4,-21.6,67,3.78,3.797,3.794,3.745,0,0,18.6,127.31,1709.602670849,16.732284,6,P-GPS,
356700,2025-09-03 17:23:20,48.1487686424706,11.5721755921501,17.388452,,,1710.258838849,19.028872,0,1.33785765436,8.5991800652,13,4,14.976,1710.258838849,17.388452,1.006623,4.9386156436,0,0,-2.460634,206.1, 0, 0.2,0,0,1024,1024,1264,1024,0,0,36,0,1,22.6,-21.5,67,3.78,3.797,3.794,3.745,0,0,18.6,127.31,1710.258838849,17.388452,6,P-GPS,
356800,2025-09-03 17:23:20,48.1487686368394,11.5721757312723,17.716536,,,1710.586922849,19.356956,0,1.36799216976,8.6331367592,12,4,14.976,1710.586922849,17.716536,1.006623,4.9386156436,0,0,-2.460634,206.1, -0.2, 0.2,0,0,1024,1024,1264,1024,0,0,36,0,1,22.5,-21.3,67,3.78,3.797,3.794,3.745,0,0,18.6,127.31,1710.586922849,17.716536,6,P-GPS,
356900,2025-09-03 17:23:20,48.1487687541298,11.5721759683446,18.04462,,,1710.915006849,19.68504,0,1.43808731636,8.7049543468,12,4,14.976,1710.915006849,18.04462,1.006623,4.9386156436,0,0,-2.460634,206, -0.2, 0.1,0,0,1024,1024,1258,1024,0,0,35,0,1,22.5,-21.3,67,3.78,3.797,3.794,3.745,0,0,18.6,127.31,1710.915006849,18.04462,6,P-GPS,
357000,2025-09-03 17:23:20,48.1487692979405,11.5721768352318,18.372704,,,1711.243090849,20.341208,0,1.71449808636,8.9946197104,11,4,14.976,1711.243090849,18.372704,1.006623,4.9386156436,0,0,-2.460634,206, 0.2, -0.2,0,0,1024,1024,1259,1024,0,0,36,0,0.6,22.6,-22,67,3.78,3.797,3.794,3.745,0,0,18.6,127.31,1711.243090849,18.372704,6,P-GPS,
357100,2025-09-03 17:23:20,48.1487692707911,11.5721768012304,18.700788,,,1711.571174849,20.669292,0,1.70260176052,9.0075134116,11,4,14.976,1711.571174849,18.700788,1.006623,4.9386156436,0,0,-2.460634,206, 0.5, -0.6,0,0,1024,1024,1259,1024,0,0,36,0,0.8,23,-21.9,67,3.78,3.797,3.794,3.745,0,0,18.6,127.31,1711.571174849,18.700788,6,P-GPS,
357200,2025-09-03 17:23:20,48.1487692146163,11.5721767330576,19.028872,,,1711.899258849,20.997376,0,1.6785105524,9.0338913652,13,4,14.97,1711.899258849,19.028872,1.006623,4.9386156436,0,0,-2.460634,206.1, 0.3, -0.7,0,0,1024,1024,1258,1024,0,0,35,0,1.6,23.1,-22.2,67,3.774,3.791,3.788,3.738,0,0,18.69,127.31,1711.899258849,19.028872,6,P-GPS,
357300,2025-09-03 17:23:20,48.148769126708,11.5721766661109,19.356956,,,1712.227342849,21.32546,0,1.64962931788,9.06988218,13,4,14.97,1712.227342849,19.356956,1.006623,4.9386156436,0,0,-2.460634,206.1, 0.2, -0.3,0,0,1024,1024,1259,1024,0,0,36,0,1.2,22.8,-21.6,67,3.774,3.791,3.788,3.738,0,0,18.69,127.31,1712.227342849,19.356956,6,P-GPS,
357400,2025-09-03 17:23:20,48.1487689153359,11.572176317174,19.68504,,,1712.555426849,21.653544,0,1.5397638288,9.1846131548,12,4,14.97,1712.555426849,19.68504,1.006623,4.9386156436,0,0,-2.23694,206.1, 0.3, 0,0,0,1024,1024,1263,1024,0,0,36,0,0.6,22.6,-22.1,67,3.774,3.791,3.788,3.738,0,0,18.69,127.31,1712.555426849,19.68504,6,P-GPS,
357500,2025-09-03 17:23:20,48.1487688348322,11.572176261232,20.013124,,,1712.883510849,22.309712,0,1.5151903372,9.2169622372,12,4,14.97,1712.883510849,20.013124,1.006623,4.9386156436,0,0,-2.23694,206.1, 0, 0.1,0,0,1024,1024,1264,1024,0,0,36,0,0.8,22.3,-21.5,67,3.774,3.791,3.788,3.738,0,0,18.69,127.31,1712.883510849,20.013124,6,P-GPS,
357600,2025-09-03 17:23:21,48.1487687529426,11.5721761951552,20.341208,,,1713.211594849,22.637796,0,1.48844821036,9.2509189312,13,4,14.97,1713.211594849,20.341208,1.006623,4.9386156436,0,0,-2.23694,206.1, 0, 0.1,0,0,1024,1024,1265,1024,0,0,37,0,1.1,22.3,-21.9,67,3.774,3.791,3.788,3.738,0,0,18.69,127.31,1713.211594849,20.341208,6,P-GPS,
357700,2025-09-03 17:23:21,48.1487686786611,11.5721760745246,20.669292,,,1713.539678849,22.96588,0,1.45081697556,9.2908795624,13,4,14.97,1713.539678849,20.669292,1.006623,4.9386156436,0,0,-2.23694,206.1, 0, -0.1,0,0,1024,1024,1265,1024,0,0,37,0,0,21.9,-22.2,67,3.774,3.791,3.788,3.738,0,0,18.69,127.31,1713.539678849,20.669292,6,P-GPS,
357800,2025-09-03 17:23:21,48.14876860053,11.5721759498433,21.32546,,,1714.195846849,23.293964,0,1.41186684308,9.332513422,13,4,14.97,1714.195846849,21.32546,1.006623,4.9386156436,0,0,-2.460634,206.2, 0.2, -0.1,0,0,1024,1024,1263,1024,0,0,36,0,0.8,22.4,-22.3,67,3.774,3.791,3.788,3.738,0,0,18.69,127.31,1714.195846849,21.32546,6,P-GPS,
357900,2025-09-03 17:23:21,48.1487684382963,11.5721755291804,21.653544,,,1714.523930849,23.622048,0,1.29479334852,9.450787704,13,4,14.97,1714.523930849,21.653544,1.006623,4.9386156436,0,0,-2.460634,206.2, 0.2, 0,0,0,1024,1024,1266,1024,0,0,37,0,1.5,22.6,-22.1,67,3.774,3.791,3.788,3.738,0,0,18.69,127.31,1714.523930849,21.653544,6,P-GPS,
358000,2025-09-03 17:23:21,48.1487682614408,11.5721750613109,21.981628,,,1714.852014849,23.950132,0,1.16532812128,9.58169322,13,4,14.97,1714.852014849,21.981628,1.006623,4.9386156436,0,0,-2.460634,206.2, 0.1, -0.4,0,0,1024,1024,1268,1024,0,0,37,0,0.7,22.3,-22.9,67,3.774,3.791,3.788,3.738,0,0,18.69,127.31,1714.852014849,21.981628,6,P-GPS,
358100,2025-09-03 17:23:21,48.1487682776096,11.5721747575358,22.309712,,,1715.180098849,24.6063,0,1.09862864408,9.6558730124,13,4,14.97,1715.180098849,22.309712,1.006623,4.9386156436,0,0,-2.460634,206.2, 0.1, -0.6,0,0,1024,1024,1268,1024,0,0,37,0,0.3,22.3,-22.7,67,3.774,3.791,3.788,3.738,0,0,18.69,127.31,1715.180098849,22.309712,6,P-GPS,
358200,2025-09-03 17:23:21,48.1487683014614,11.5721744779113,22.637796,,,1715.508182849,24.934384,0,1.03945869468,9.7244753768,12,4,14.952,1715.508182849,22.637796,1.006623,4.9386156436,0,0,-2.460634,206.2, 0.5, -0.6,0,0,1024,1024,1269,1024,0,0,37,0,0.9,22.7,-22.4,67,3.772,3.786,3.783,3.733,0,0,18.482,127.31,1715.508182849,22.637796,6,P-GPS,
358300,2025-09-03 17:23:21,48.1487684658398,11.5721745434296,22.96588,,,1715.836266849,25.262468,0,1.0795768062,9.7865488696,12,4,14.952,1715.836266849,22.96588,1.006623,4.9386156436,0,0,-2.460634,206.2, 0.6, -0.6,0,0,1024,1024,1270,1024,0,0,37,0,0.9,22.7,-22.4,67,3.772,3.786,3.783,3.733,0,0,18.482,127.31,1715.836266849,22.96588,6,P-GPS,
358400,2025-09-03 17:23:21,48.1487684438737,11.5721745634299,23.293964,,,1716.164350849,25.590552,0,1.08037405032,9.795932072,12,4,14.952,1716.164350849,23.293964,1.006623,4.9386156436,0,0,-2.460634,206.2, 0.6, -0.3,0,0,1024,1024,1269,1024,0,0,37,0,1,22.9,-22.6,67,3.772,3.786,3.783,3.733,0,0,18.482,127.31,1716.164350849,23.293964,6,P-GPS,
358500,2025-09-03 17:23:21,48.1487685012992,11.5721747418303,23.622048,,,1716.492434849,26.24672,0,1.12858927496,9.8441276116,12,4,14.952,1716.492434849,23.622048,1.006623,4.9386156436,0,0,-2.460634,206.2, 0.5, -0.3,0,0,1024,1024,1267,1024,0,0,37,0,0.8,22.9,-22.4,67,3.772,3.786,3.783,3.733,0,0,18.482,127.31,1716.492434849,23.622048,6,P-GPS,
358600,2025-09-03 17:23:22,48.1487685689626,11.5721749421601,24.278216,,,1717.148602849,26.574804,0,1.18324478852,9.898786406,13,4,14.952,1717.148602849,24.278216,1.006623,4.9386156436,0,0,-2.460634,206.2, 0.7, -0.3,0,0,1024,1024,1268,1024,0,0,37,0,0.4,22.9,-22.5,67,3.772,3.786,3.783,3.733,0,0,18.482,127.31,1717.148602849,24.278216,6,P-GPS,
358700,2025-09-03 17:23:22,48.1487681636674,11.5721753100316,24.6063,,,1717.476686849,26.902888,0,1.21070213848,10.071686674,13,4,14.952,1717.476686849,24.6063,1.006623,4.9386156436,0,0,-2.460634,206.2, 0.8, -0.3,0,0,1024,1024,1270,1024,0,0,37,0,0.1,23,-23.3,67,3.772,3.786,3.783,3.733,0,0,18.482,127.31,1717.476686849,24.6063,6,P-GPS,
358800,2025-09-03 17:23:22,48.1487679521976,11.5721753259714,24.934384,,,1717.804770849,27.230972,0,1.19289373896,10.1489176476,12,4,14.952,1717.804770849,24.934384,1.006623,4.9386156436,0,0,-2.460634,206.2, 1.1, -0.4,0,0,1024,1024,1273,1024,0,0,38,0,0.2,23.2,-23.1,67,3.772,3.786,3.783,3.733,0,0,18.482,127.31,1717.804770849,24.934384,6,P-GPS,
358900,2025-09-03 17:23:22,48.148767949496,11.5721755437978,25.262468,,,1718.132854849,27.88714,0,1.24408468548,10.2019688304,12,4,14.952,1718.132854849,25.262468,1.006623,4.9386156436,0,0,-2.460634,206.2, 1.2, -0.3,0,0,1024,1024,1276,1024,0,0,38,0,0.5,23.6,-23.1,67,3.772,3.786,3.783,3.733,0,0,18.482,127.31,1718.132854849,25.262468,6,P-GPS,
359000,2025-09-03 17:23:22,48.1487679702066,11.5721757930352,25.590552,,,1718.460938849,28.215224,0,1.30483271892,10.2630908796,12,4,14.952,1718.460938849,25.590552,1.006623,4.9386156436,0,0,-2.460634,206.2, 1.1, 0,0,0,1024,1024,1276,1024,0,0,38,0,0,23.2,-23.2,67,3.772,3.786,3.783,3.733,0,0,18.482,127.31,1718.460938849,25.590552,6,P-GPS,
359100,2025-09-03 17:23:22,48.1487682593026,11.5721765958276,25.918636,,,1718.789022849,28.543308,0,1.52049873632,10.4851709392,12,4,14.952,1718.789022849,25.918636,1.006623,4.9386156436,0,0,-2.460634,206.1, 0.9, 0,0,0,1024,1024,1276,1024,0,0,38,0,359.8,22.9,-23.1,67,3.772,3.786,3.783,3.733,0,0,18.482,127.31,1718.789022849,25.918636,6,P-GPS,
359200,2025-09-03 17:23:22,48.1487683397315,11.5721768467277,26.574804,,,1719.445190849,28.871392,0,1.58726054948,10.5529202852,14,4,14.923,1719.445190849,26.574804,1.006623,4.9386156436,0,0,-2.460634,206, 0.8, -0.1,0,0,1024,1024,1274,1024,0,0,38,0,359.8,22.8,-23.7,67,3.765,3.782,3.781,3.73,0,0,18.664,127.31,1719.445190849,26.574804,6,P-GPS,
359300,2025-09-03 17:23:22,48.148768279352,11.5721767146045,26.902888,,,1719.773274849,29.52756,0,1.5503117294,10.5918966644,14,4,14.923,1719.773274849,26.902888,1.006623,4.9386156436,0,0,-2.684328,206.1, 0.8, -0.4,0,0,1024,1024,1274,1024,0,0,38,0,0,22.8,-24,67,3.765,3.782,3.781,3.73,0,0,18.664,127.31,1719.773274849,26.902888,6,P-GPS,
359400,2025-09-03 17:23:22,48.1487682198096,11.5721765648803,27.230972,,,1720.101358849,29.855644,0,1.50941277796,10.634350734,14,4,14.923,1720.101358849,27.230972,1.006623,4.9386156436,0,0,-2.460634,206.1, 0.4, -0.6,0,0,1024,1024,1261,1024,0,0,36,0,0.4,22.7,-24,67,3.765,3.782,3.781,3.73,0,0,18.664,127.31,1720.101358849,27.230972,6,P-GPS,
359500,2025-09-03 17:23:22,48.1487682807053,11.5721765989411,27.559056,,,1720.429442849,30.183728,0,1.52334650544,10.6580383988,14,4,14.923,1720.429442849,27.559056,1.006623,4.9386156436,0,0,-2.460634,206.2, 0.2, -0.8,0,0,1024,1024,1260,1024,0,0,36,0,0,22.5,-24.4,67,3.765,3.782,3.781,3.73,0,0,18.664,127.31,1720.429442849,27.559056,6,P-GPS,
359600,2025-09-03 17:23:22,48.1487682933876,11.5721762037221,27.88714,,,1720.757526849,30.511812,0,1.43240490148,10.7543638612,14,4,14.923,1720.757526849,27.88714,1.006623,4.9386156436,0,0,-2.460634,206.2, 0.2, -0.9,0,0,1024,1024,1267,1024,0,0,37,0,0,22.5,-24.4,67,3.765,3.782,3.781,3.73,0,0,18.664,127.31,1720.757526849,27.88714,6,P-GPS,
359700,2025-09-03 17:23:23,48.1487682496069,11.5721761191344,28.215224,,,1721.085610849,30.839896,0,1.408054507,10.7804465392,14,4,14.923,1721.085610849,28.215224,1.006623,4.9386156436,0,0,-2.460634,206.1, 0.2, -1,0,0,1024,1024,1274,1024,0,0,38,0,0,22.4,-24.2,67,3.765,3.782,3.781,3.73,0,0,18.664,127.31,1721.085610849,28.215224,6,P-GPS,
359800,2025-09-03 17:23:23,48.1487681833569,11.5721760231583,28.543308,,,1721.413694849,31.16798,0,1.37881894176,10.8140423408,13,4,14.923,1721.413694849,28.543308,1.006623,4.9386156436,0,0,-2.460634,206.1, 0.4, -0.7,0,0,1024,1024,1275,1024,0,0,38,0,0.4,23,-24.2,67,3.765,3.782,3.781,3.73,0,0,18.664,127.31,1721.413694849,28.543308,6,P-GPS,
359900,2025-09-03 17:23:23,48.1487681453067,11.5721759415717,28.871392,,,1721.741778849,31.824148,0,1.35591867856,10.8382877484,13,4,14.923,1721.741778849,28.871392,1.006623,4.9386156436,0,0,-2.460634,206.2, 0.4, -0.2,0,0,1024,1024,1277,1024,0,0,38,0,359.9,22.7,-23.7,67,3.765,3.782,3.781,3.73,0,0,18.664,127.31,1721.741778849,28.871392,6,P-GPS,
360000,2025-09-03 17:23:23,48.148767960291,11.5721755080182,29.199476,,,1722.069862849,32.152232,0,1.23657484272,10.9635502196,15,4,14.923,1722.069862849,29.199476,1.006623,4.9386156436,0,0,-2.460634,206.3, 0.3, 0.1,0,0,1024,1024,1278,1024,0,0,38,0,359.5,22.3,-23.5,67,3.765,3.782,3.781,3.73,0,0,18.664,127.31,1722.069862849,29.199476,6,P-GPS,
360100,2025-09-03 17:23:23,48.1487678606498,11.5721755685325,29.855644,,,1722.726030849,32.480316,0,1.24266080092,11.002789066,15,4,14.923,1722.726030849,29.855644,1.006623,4.9386156436,0,0,-2.460634,206.3, 0.4, 0,0,0,1024,1024,1277,1024,0,0,38,0,359.4,22.5,-23.8,67,3.765,3.782,3.781,3.73,0,0,18.664,127.31,1722.726030849,29.855644,6,P-GPS,
360200,2025-09-03 17:23:23,48.1487677560108,11.5721756391929,29.855644,,,1722.726030849,32.8084,0,1.25204728416,11.0446525844,15,4,14.917,1722.726030849,29.855644,1.006623,4.9386156436,0,0,-2.460634,206.3, 0.5, 0,0,0,1024,1024,1277,1024,0,0,38,0,359.7,22.5,-23.9,67,3.765,3.782,3.781,3.73,0,0,18.664,127.31,1722.726030849,29.855644,6,P-GPS,
360300,2025-09-03 17:23:23,48.1487676398946,11.5721756091171,30.183728,,,1723.054114849,33.136484,0,1.23788061704,11.0876643968,15,4,14.917,1723.054114849,30.183728,1.006623,4.9386156436,0,0,-2.460634,206.3, 0.4, -0.5,0,0,1024,1024,1279,1024,0,0,39,0,0.2,22.6,-24.8,67,3.765,3.782,3.781,3.73,0,0,18.664,127.31,1723.054114849,30.183728,6,P-GPS,
360400,2025-09-03 17:23:23,48.1487672315867,11.5721756606921,30.839896,,,1723.710282849,33.136484,0,1.23731303172,11.2371394672,13,4,14.917,1723.710282849,30.839896,1.006623,4.9386156436,0,0,-2.460634,206.4, 0.3, -1.3,0,0,1024,1024,1278,1024,0,0,38,0,0.8,22.7,-25.4,67,3.765,3.782,3.781,3.73,0,0,18.664,127.31,1723.710282849,30.839896,6,P-GPS,
360500,2025-09-03 17:23:23,48.1487672255778,11.57217556669,30.839896,,,1723.710282849,33.136484,0,1.21437996012,11.2601381556,13,4,14.917,1723.710282849,30.839896,1.006623,4.9386156436,0,0,-2.460634,206.4, 0.3, -1.6,0,0,1024,1024,1280,1024,0,0,39,0,0.3,22.5,-24.9,67,3.765,3.782,3.781,3.73,0,0,18.664,127.31,1723.710282849,30.839896,6,P-GPS,
360600,2025-09-03 17:23:24,48.1487672339333,11.5721754744694,31.16798,,,1724.038366849,33.136484,0,1.19202431636,11.28280876,14,4,14.917,1724.038366849,31.16798,1.006623,4.9386156436,0,0,-2.460634,206.4, 0.5, -1.6,0,0,1024,1024,1282,1024,0,0,39,0,0.3,22.6,-25.2,67,3.765,3.782,3.781,3.73,0,0,18.664,127.31,1724.038366849,31.16798,6,P-GPS,
360700,2025-09-03 17:23:24,48.1487672347882,11.5721753554791,31.824148,,,1724.694534849,33.136484,0,1.16308074588,11.3117457688,14,4,14.917,1724.694534849,31.824148,1.006623,4.9386156436,0,0,-2.684328,206.4, 0.3, -1.5,0,0,1024,1024,1282,1024,0,0,39,0,0,22,-25.5,67,3.765,3.782,3.781,3.73,0,0,18.664,127.31,1724.694534849,31.824148,6,P-GPS,
360800,2025-09-03 17:23:24,48.148767370309,11.5721750633556,32.152232,,,1725.022618849,33.136484,0.223694,1.09470804028,11.3983599448,13,4,14.917,1725.022618849,32.152232,1.006623,4.9386156436,0.223694,0,-2.684328,206.5, -0.4, -1.4,0,0,1024,1024,1283,1024,0,0,39,0,359.6,20.5,-24.7,67,3.765,3.782,3.781,3.73,0,0,18.664,127.31,1725.022618849,32.152232,6,P-GPS,
360900,2025-09-03 17:23:24,48.1487674416772,11.5721750410924,32.480316,,,1725.350702849,33.136484,0,1.09163717404,11.4249675572,13,4,14.917,1725.350702849,32.480316,1.006623,4.9386156436,0,0,-2.684328,206.5, -1.3, -1,0,0,1024,1024,1284,1024,0,0,39,0,359.6,20.5,-24.7,67,3.765,3.782,3.781,3.73,0,0,18.664,127.31,1725.350702849,32.480316,6,P-GPS,
361000,2025-09-03 17:23:24,48.1487675102982,11.5721750236247,32.8084,,,1725.678786849,33.136484,0,1.09023625536,11.4503612588,13,4,14.917,1725.678786849,32.8084,1.006623,4.9386156436,0,0,-2.684328,206.3, -1.2, -0.9,0,0,1024,1024,1285,1024,0,0,40,0,0,20.5,-25,67,3.765,3.782,3.781,3.73,0,0,18.664,127.31,1725.678786849,32.8084,6,P-GPS,
361100,2025-09-03 17:23:24,48.1487674428871,11.5721750269821,33.136484,,,1726.006870849,33.136484,0,1.08826447052,11.4749675588,13,4,14.917,1726.006870849,33.136484,1.006623,4.9386156436,0,0,-2.684328,206.1, -0.8, -0.9,0,0,1024,1024,1285,1024,0,0,40,0,359.5,20.7,-24.8,67,3.765,3.782,3.781,3.73,0,0,18.664,127.31,1726.006870849,33.136484,6,P-GPS,
