time(millisecond),datetime(utc),latitude,longitude,height_above_takeoff(feet),height_above_ground_at_drone_location(feet),ground_elevation_at_drone_location(feet),altitude_above_seaLevel(feet),height_sonar(feet),speed(mph),distance(feet),mileage(feet),satellites,gpslevel,voltage(v),max_altitude(feet),max_ascent(feet),max_speed(mph),max_distance(feet), xSpeed(mph), ySpeed(mph), zSpeed(mph), compass_heading(degrees), pitch(degrees), roll(degrees),isPhoto,isVideo,rc_elevator,rc_aileron,rc_throttle,rc_rudder,rc_elevator(percent),rc_aileron(percent),rc_throttle(percent),rc_rudder(percent),gimbal_heading(degrees),gimbal_pitch(degrees),gimbal_roll(degrees),battery_percent,voltageCell1,voltageCell2,voltageCell3,voltageCell4,voltageCell5,voltageCell6,current(A),battery_temperature(f),altitude(feet),ascent(feet),flycStateRaw,flycState,message
0,2025-09-03 10:57:06,0,0,0,Available with any HD 360 subscription,Available with any HD 360 subscription,1689.8498673954,0.328084,0,0,0,6,0,0,1689.8498673954,0,0,0,0,0,0,189.7, -1.6, -0.3,0,0,1024,1024,1024,1024,0,0,0,0,280.3,-18.4,-29.8,98,4.285,4.293,4.297,4.303,0,0,0,91.31,1689.8498673954,0,6,P-GPS,
100,2025-09-03 10:57:06,0,0,0,,,1689.8498673954,0.328084,0,0,0,6,0,0,1689.8498673954,0,0,0,0,0,0,189.7, -1.6, -0.3,0,0,1024,1024,1024,1024,0,0,0,0,280.1,-18.6,-30,98,4.285,4.293,4.297,4.303,0,0,0,91.31,1689.8498673954,0,41,Motors_Started,
200,2025-09-03 10:57:06,0,0,0,,,1689.8498673954,0.328084,0,0,0,6,0,0,1689.8498673954,0,0,0,0,0,0,189.8, -1.6, -0.3,0,0,366,364,364,1684,-100,-100,-100,100,279.9,-18.6,-30,98,4.285,4.293,4.297,4.303,0,0,0,91.31,1689.8498673954,0,41,Motors_Started,
300,2025-09-03 10:57:06,0,0,0,,,1689.8498673954,0.328084,0,0,0,6,0,0,1689.8498673954,0,0,0,0,0,0,189.7, -1.6, -0.3,0,0,471,423,415,1626,-84,-91,-92,91,279.8,-18.6,-30,98,4.285,4.293,4.297,4.303,0,0,0,91.31,1689.8498673954,0,41,Motors_Started,
400,2025-09-03 10:57:06,0,0,0,,,1689.8498673954,0.328084,0,0,0,6,0,17.062,1689.8498673954,0,0,0,0,0,0,189.7, -1.6, -0.3,0,0,1024,975,998,1120,0,-7,-4,15,279.8,-18.6,-30.1,98,4.285,4.293,4.297,4.303,0,0,1.356,91.31,1689.8498673954,0,41,Motors_Started,"Setting new Return-To-Home altitude to 100m (328 ft). Data Recorder File Index is 238. Setting new Maximum Flight Altitude to 150m (492 ft)"
500,2025-09-03 10:57:06,0,0,0,,,1689.8498673954,0.328084,0,0,0,6,0,17.062,1689.8498673954,0,0,0,0,0,0,189.7, -1.6, -0.3,0,0,1024,1024,1024,1024,0,0,0,0,279.8,-18.6,-30.1,98,4.285,4.293,4.297,4.303,0,0,1.356,91.31,1689.8498673954,0,41,Motors_Started,
600,2025-09-03 10:57:06,0,0,0,,,1689.8498673954,0.328084,0,0,0,6,0,17.062,1689.8498673954,0,0,0,0,0,0,189.6, -1.6, -0.3,0,0,1024,1024,1024,1024,0,0,0,0,279.7,-18.6,-30.1,98,4.285,4.293,4.297,4.303,0,0,1.356,91.31,1689.8498673954,0,41,Motors_Started,
700,2025-09-03 10:57:06,0,0,0,,,1689.8498673954,0.328084,0,0,0,6,0,17.062,1689.8498673954,0,0,0,0,0,0,189.7, -1.6, -0.3,0,0,1024,1024,1024,1024,0,0,0,0,279.5,-18.7,-30.1,98,4.285,4.293,4.297,4.303,0,0,1.356,91.31,1689.8498673954,0,41,Motors_Started,
800,2025-09-03 10:57:06,0,0,0,,,1689.8498673954,0.328084,0,0,0,6,0,17.062,1689.8498673954,0,0,0,0,0,0,189.7, -1.6, -0.3,0,0,1024,1024,1024,1024,0,0,0,0,279.4,-18.8,-30.1,98,4.285,4.293,4.297,4.303,0,0,1.356,91.31,1689.8498673954,0,41,Motors_Started,
900,2025-09-03 10:57:07,0,0,0,,,1689.8498673954,0.328084,0,0,0,6,0,17.062,1689.8498673954,0,0,0,0,0,0,189.7, -1.6, -0.3,0,0,1024,1024,1024,1024,0,0,0,0,279.4,-18.8,-30.1,98,4.285,4.293,4.297,4.303,0,0,1.356,91.31,1689.8498673954,0,41,Motors_Started,
1000,2025-09-03 10:57:07,0,0,0,,,1689.8498673954,0.328084,0,0,0,6,0,17.062,1689.8498673954,0,0,0,0,0,0,189.7, -1.7, -0.3,0,0,1024,1024,1024,1024,0,0,0,0,279.2,-18.9,-30.2,98,4.285,4.293,4.297,4.303,0,0,1.356,91.31,1689.8498673954,0,41,Motors_Started,
1100,2025-09-03 10:57:07,0,0,0,,,1689.8498673954,0.328084,0,0,0,6,0,17.062,1689.8498673954,0,0,0,0,0,0,189.7, -1.7, -0.3,0,0,1024,1024,1024,1024,0,0,0,0,279.2,-19,-30.1,98,4.285,4.293,4.297,4.303,0,0,1.356,91.31,1689.8498673954,0,41,Motors_Started,
1200,2025-09-03 10:57:07,0,0,0,,,1689.8498673954,0.328084,0,0,0,6,0,17.062,1689.8498673954,0,0,0,0,0,0,189.7, -1.7, -0.3,0,0,1024,1024,1024,1024,0,0,0,0,279.2,-18.9,-30.2,98,4.285,4.293,4.297,4.303,0,0,1.356,91.31,1689.8498673954,0,41,Motors_Started,
1300,2025-09-03 10:57:07,0,0,0,,,1689.8498673954,0.328084,0,0,0,6,0,17.062,1689.8498673954,0,0,0,0,0,0,189.7, -1.7, -0.3,0,0,1024,1024,1024,1024,0,0,0,0,279.1,-19,-30.3,98,4.285,4.293,4.297,4.303,0,0,1.356,91.31,1689.8498673954,0,41,Motors_Started,
1400,2025-09-03 10:57:07,0,0,0,,,1689.8498673954,0.328084,0,0,0,6,0,17.178,1689.8498673954,0,0,0,0,0,0,189.7, -1.7, -0.3,0,0,1024,1024,1024,1024,0,0,0,0,279,-19,-30.4,98,4.285,4.293,4.297,4.303,0,0,1.36,91.31,1689.8498673954,0,41,Motors_Started,
1500,2025-09-03 10:57:07,0,0,0,,,1689.8498673954,0.328084,0,0,0,6,0,17.178,1689.8498673954,0,0,0,0,0,0,189.6, -1.7, -0.3,0,0,1024,1024,1024,1024,0,0,0,0,279.1,-19,-30.1,98,4.285,4.293,4.297,4.303,0,0,1.36,91.31,1689.8498673954,0,41,Motors_Started,
1600,2025-09-03 10:57:07,0,0,0,,,1689.8498673954,0.328084,0,0,0,6,0,17.178,1689.8498673954,0,0,0,0,0,0,189.6, -1.7, -0.3,0,0,1024,1024,1024,1024,0,0,0,0,278.9,-19,-30.2,98,4.285,4.293,4.297,4.303,0,0,1.36,91.31,1689.8498673954,0,10,Assisted_Takeoff,
1700,2025-09-03 10:57:07,0,0,0,,,1689.8498673954,0.328084,0,0,0,6,0,17.178,1689.8498673954,0,0,0,0,0,0,189.7, -1.7, -0.3,0,0,1024,1024,1024,1024,0,0,0,0,278.6,-19.1,-30.4,98,4.285,4.293,4.297,4.303,0,0,1.36,91.31,1689.8498673954,0,10,Assisted_Takeoff,
1800,2025-09-03 10:57:07,0,0,0,,,1689.8498673954,0.328084,0,0,0,6,0,17.178,1689.8498673954,0,0,0,0,0,0,189.6, -1.7, -0.3,0,0,1024,1024,1024,1024,0,0,0,0,278.8,-19,-30.3,98,4.285,4.293,4.297,4.303,0,0,1.36,91.31,1689.8498673954,0,10,Assisted_Takeoff,
1900,2025-09-03 10:57:07,0,0,0,,,1689.8498673954,0.328084,0,0,0,6,0,17.178,1689.8498673954,0,0,0,0,0,0,189.6, -1.7, -0.3,0,0,1024,1024,1024,1024,0,0,0,0,278.7,-19,-30.4,98,4.285,4.293,4.297,4.303,0,0,1.36,91.31,1689.8498673954,0,10,Assisted_Takeoff,
2000,2025-09-03 10:57:08,0,0,0,,,1689.8498673954,0.328084,0,0,0,6,0,17.178,1689.8498673954,0,0,0,0,0,0,189.7, -1.7, -0.3,0,0,1024,1024,1024,1024,0,0,0,0,278.6,-19.1,-30.4,98,4.285,4.293,4.297,4.303,0,0,1.36,91.31,1689.8498673954,0,10,Assisted_Takeoff,
2100,2025-09-03 10:57:08,0,0,0,,,1689.8498673954,0.328084,0,0,0,6,0,17.178,1689.8498673954,0,0,0,0,0,0,189.7, -1.6, -0.3,0,0,1024,1024,1024,1024,0,0,0,0,278.6,-19.1,-30.4,98,4.285,4.293,4.297,4.303,0,0,1.36,91.31,1689.8498673954,0,10,Assisted_Takeoff,
2200,2025-09-03 10:57:08,0,0,0,,,1689.8498673954,0.328084,0,0,0,6,0,17.178,1689.8498673954,0,0,0,0,0,0,189.7, -1.6, -0.3,0,0,1024,1024,1024,1024,0,0,0,0,278.6,-19.1,-30.3,98,4.285,4.293,4.297,4.303,0,0,1.36,91.31,1689.8498673954,0,10,Assisted_Takeoff,
2300,2025-09-03 10:57:08,0,0,0,,,1689.8498673954,0.328084,0,0,0,6,0,17.178,1689.8498673954,0,0,0,0,0,0,189.7, -1.6, -0.3,0,0,1024,1024,1024,1024,0,0,0,0,278.5,-19.1,-30.3,98,4.285,4.293,4.297,4.303,0,0,1.36,91.31,1689.8498673954,0,10,Assisted_Takeoff,
2400,2025-09-03 10:57:08,0,0,0,,,1689.8498673954,0.328084,0,0,0,6,0,17.047,1689.8498673954,0,0,0,0,0,0,189.7, -1.6, -0.3,0,0,1024,1024,1024,1024,0,0,0,0,278.4,-19.2,-30.4,98,4.25,4.26,4.262,4.261,0,0,4.434,91.31,1689.8498673954,0,10,Assisted_Takeoff,
2500,2025-09-03 10:57:08,0,0,0,,,1689.8498673954,0.328084,0,0,0,6,0,17.047,1689.8498673954,0,0,0,0,0,0,189.7, -1.6, -0.3,0,0,1024,1024,1024,1024,0,0,0,0,278.2,-19.2,-30.4,98,4.25,4.26,4.262,4.261,0,0,4.434,91.31,1689.8498673954,0,10,Assisted_Takeoff,
2600,2025-09-03 10:57:08,0,0,0,,,1689.8498673954,0.328084,0,0,0,6,0,17.047,1689.8498673954,0,0,0,0,0,0,189.7, -1.6, -0.3,0,0,1024,1024,1024,1024,0,0,0,0,278.1,-19.2,-30.5,98,4.25,4.26,4.262,4.261,0,0,4.434,91.31,1689.8498673954,0,10,Assisted_Takeoff,
2700,2025-09-03 10:57:08,0,0,0,,,1689.8498673954,0.328084,0,0,0,6,0,17.047,1689.8498673954,0,0,0,0,0,0,189.7, -1.6, -0.3,0,0,1024,1024,1024,1024,0,0,0,0,278.1,-19.3,-30.5,98,4.25,4.26,4.262,4.261,0,0,4.434,91.31,1689.8498673954,0,10,Assisted_Takeoff,
2800,2025-09-03 10:57:08,0,0,0,,,1689.8498673954,0.328084,0,0,0,6,0,17.047,1689.8498673954,0,0,0,0,0,0,189.7, -1.6, -0.3,0,0,1024,1024,1024,1024,0,0,0,0,278,-19.3,-30.5,98,4.25,4.26,4.262,4.261,0,0,4.434,91.31,1689.8498673954,0,10,Assisted_Takeoff,
2900,2025-09-03 10:57:08,0,0,0,,,1689.8498673954,0.328084,0,0,0,6,0,17.047,1689.8498673954,0,0,0,0,0,0,189.7, -1.7, -0.3,0,0,1024,1024,1024,1024,0,0,0,0,277.9,-19.3,-30.5,98,4.25,4.26,4.262,4.261,0,0,4.434,91.31,1689.8498673954,0,10,Assisted_Takeoff,
3000,2025-09-03 10:57:09,0,0,0,,,1689.8498673954,0.328084,0,0,0,6,0,17.047,1689.8498673954,0,0,0,0,0,0,189.7, -1.6, -0.3,0,0,1024,1024,1024,1024,0,0,0,0,277.8,-19.4,-30.6,98,4.25,4.26,4.262,4.261,0,0,4.434,91.31,1689.8498673954,0,10,Assisted_Takeoff,
3100,2025-09-03 10:57:09,0,0,0,,,1689.8498673954,0.328084,0,0,0,6,0,17.047,1689.8498673954,0,0,0,0,0,0,189.7, -1.7, -0.3,0,0,1024,1024,1024,1024,0,0,0,0,277.7,-19.4,-30.6,98,4.25,4.26,4.262,4.261,0,0,4.434,91.31,1689.8498673954,0,10,Assisted_Takeoff,
3200,2025-09-03 10:57:09,0,0,0,,,1689.8498673954,0.328084,0,0,0,6,0,17.047,1689.8498673954,0,0,0,0,0,0,189.7, -1.7, -0.4,0,0,1024,1024,1024,1024,0,0,0,0,277.7,-19.4,-30.6,98,4.25,4.26,4.262,4.261,0,0,4.434,91.31,1689.8498673954,0,10,Assisted_Takeoff,
3300,2025-09-03 10:57:09,0,0,0,,,1689.8498673954,0.328084,0,0,0,6,0,17.047,1689.8498673954,0,0,0,0,0,0,189.7, -1.7, -0.4,0,0,1024,1024,1024,1024,0,0,0,0,277.5,-19.5,-30.6,98,4.25,4.26,4.262,4.261,0,0,4.434,91.31,1689.8498673954,0,10,Assisted_Takeoff,
3400,2025-09-03 10:57:09,0,0,0,,,1689.8498673954,0.328084,0,0,0,6,0,17.114,1689.8498673954,0,0,0,0,0,0,189.7, -1.7, -0.4,0,0,1024,1024,1024,1024,0,0,0,0,277.5,-19.5,-30.6,98,4.25,4.26,4.262,4.261,0,0,2.006,91.31,1689.8498673954,0,10,Assisted_Takeoff,
3500,2025-09-03 10:57:09,0,0,0,,,1689.8498673954,0.328084,0,0,0,6,0,17.114,1689.8498673954,0,0,0,0,0,0,189.7, -1.7, -0.4,0,0,1024,1024,1024,1024,0,0,0,0,277.4,-19.5,-30.6,98,4.25,4.26,4.262,4.261,0,0,2.006,91.31,1689.8498673954,0,10,Assisted_Takeoff,
3600,2025-09-03 10:57:09,0,0,0,,,1689.8498673954,0.328084,0,0,0,6,0,17.114,1689.8498673954,0,0,0,0,0,0,189.7, -1.6, -0.4,0,0,1024,1024,1024,1024,0,0,0,0,277.4,-19.5,-30.6,98,4.25,4.26,4.262,4.261,0,0,2.006,91.31,1689.8498673954,0,10,Assisted_Takeoff,
3700,2025-09-03 10:57:09,0,0,0,,,1689.8498673954,0.328084,0,0,0,6,0,17.114,1689.8498673954,0,0,0,0,0,0,189.7, -1.7, -0.4,0,0,1024,1024,1024,1024,0,0,0,0,277.3,-19.6,-30.6,98,4.25,4.26,4.262,4.261,0,0,2.006,91.31,1689.8498673954,0,10,Assisted_Takeoff,
3800,2025-09-03 10:57:09,0,0,0,,,1689.8498673954,0.328084,0,0,0,6,0,17.114,1689.8498673954,0,0,0,0,0,0,189.7, -1.7, -0.4,0,0,1024,1024,1024,1024,0,0,0,0,277.2,-19.6,-30.7,98,4.25,4.26,4.262,4.261,0,0,2.006,91.31,1689.8498673954,0,10,Assisted_Takeoff,
3900,2025-09-03 10:57:10,0,0,0,,,1689.8498673954,0.328084,0,0,0,6,0,17.114,1689.8498673954,0,0,0,0,0,0,189.7, -1.7, -0.4,0,0,1024,1024,1024,1024,0,0,0,0,277.1,-19.6,-30.7,98,4.25,4.26,4.262,4.261,0,0,2.006,91.31,1689.8498673954,0,10,Assisted_Takeoff,
4000,2025-09-03 10:57:10,0,0,0,,,1689.8498673954,0.328084,0,0,0,6,0,17.114,1689.8498673954,0,0,0,0,0,0,189.7, -1.6, -0.4,0,0,1024,1024,1024,1024,0,0,0,0,277,-19.6,-30.7,98,4.25,4.26,4.262,4.261,0,0,2.006,91.31,1689.8498673954,0,10,Assisted_Takeoff,
4100,2025-09-03 10:57:10,0,0,0,,,1689.8498673954,0.328084,0,0,0,6,0,17.114,1689.8498673954,0,0,0,0,0,0,189.7, -1.6, -0.4,0,0,1024,1024,1024,1024,0,0,0,0,276.9,-19.7,-30.7,98,4.25,4.26,4.262,4.261,0,0,2.006,91.31,1689.8498673954,0,10,Assisted_Takeoff,
4200,2025-09-03 10:57:10,0,0,0,,,1689.8498673954,0.328084,0,0,0,6,0,17.114,1689.8498673954,0,0,0,0,0,0,189.7, -1.6, -0.4,0,0,1024,1024,1024,1024,0,0,0,0,276.9,-19.6,-30.5,98,4.25,4.26,4.262,4.261,0,0,2.006,91.31,1689.8498673954,0,10,Assisted_Takeoff,
4300,2025-09-03 10:57:10,0,0,0,,,1689.8498673954,0.328084,0,0,0,6,0,17.114,1689.8498673954,0,0,0,0,0,0,189.7, -1.6, -0.4,0,0,1024,1024,1024,1024,0,0,0,0,276.8,-19.7,-30.7,98,4.25,4.26,4.262,4.261,0,0,2.006,91.31,1689.8498673954,0,10,Assisted_Takeoff,
4400,2025-09-03 10:57:10,0,0,0,,,1689.8498673954,0.328084,0,0,0,6,0,17.118,1689.8498673954,0,0,0,0,0,0,189.7, -1.6, -0.4,0,0,1024,1024,1024,1024,0,0,0,0,276.7,-19.8,-30.7,98,4.273,4.282,4.284,4.293,0,0,2.006,91.31,1689.8498673954,0,10,Assisted_Takeoff,
4500,2025-09-03 10:57:10,0,0,0,,,1689.8498673954,0.328084,0,0,0,6,0,17.118,1689.8498673954,0,0,0,0,0,0,189.7, -1.6, -0.4,0,0,1024,1024,1024,1024,0,0,0,0,276.7,-19.8,-30.8,98,4.273,4.282,4.284,4.293,0,0,2.006,91.31,1689.8498673954,0,10,Assisted_Takeoff,
4600,2025-09-03 10:57:10,0,0,0,,,1689.8498673954,0.328084,0,0,0,6,0,17.118,1689.8498673954,0,0,0,0,0,0,189.7, -1.6, -0.4,0,0,1024,1024,1024,1024,0,0,0,0,276.7,-19.8,-30.8,98,4.273,4.282,4.284,4.293,0,0,2.006,91.31,1689.8498673954,0,10,Assisted_Takeoff,
4700,2025-09-03 10:57:10,0,0,0,,,1689.8498673954,0.328084,0,0,0,6,0,17.118,1689.8498673954,0,0,0,0,0,0,189.7, -1.6, -0.4,0,0,1024,1024,1024,1024,0,0,0,0,276.5,-19.8,-30.8,98,4.273,4.282,4.284,4.293,0,0,2.006,91.31,1689.8498673954,0,10,Assisted_Takeoff,
4800,2025-09-03 10:57:10,0,0,0,,,1689.8498673954,0.328084,0,0,0,6,0,17.118,1689.8498673954,0,0,0,0,0,0,189.7, -1.6, -0.4,0,0,1024,1024,1024,1024,0,0,0,0,276.4,-19.9,-30.8,98,4.273,4.282,4.284,4.293,0,0,2.006,91.31,1689.8498673954,0,10,Assisted_Takeoff,
4900,2025-09-03 10:57:10,0,0,0,,,1689.8498673954,0.328084,0,0,0,6,0,17.118,1689.8498673954,0,0,0,0,0,0,189.7, -1.6, -0.4,0,0,1024,1024,1199,1024,0,0,27,0,276.4,-19.9,-30.9,98,4.273,4.282,4.284,4.293,0,0,2.006,91.31,1689.8498673954,0,10,Assisted_Takeoff,
5000,2025-09-03 10:57:11,0,0,0,,,1689.8498673954,0.328084,0,0,0,6,0,17.118,1689.8498673954,0,0,0,0,0,0,189.7, -1.6, -0.4,0,0,1024,1024,1209,1024,0,0,28,0,276.2,-19.9,-30.9,98,4.273,4.282,4.284,4.293,0,0,2.006,91.31,1689.8498673954,0,10,Assisted_Takeoff,
5100,2025-09-03 10:57:11,0,0,0,,,1689.8498673954,0.328084,0,0,0,6,0,17.118,1689.8498673954,0,0,0,0,0,0,189.7, -1.6, -0.4,0,0,1024,1024,1205,1024,0,0,27,0,276.3,-19.9,-30.9,98,4.273,4.282,4.284,4.293,0,0,2.006,91.31,1689.8498673954,0,10,Assisted_Takeoff,
5200,2025-09-03 10:57:11,0,0,0,,,1689.8498673954,0.328084,0,0,0,6,0,17.118,1689.8498673954,0,0,0,0,0,0,189.7, -1.6, -0.5,0,0,1024,1024,1205,1024,0,0,27,0,276.1,-20,-30.8,98,4.273,4.282,4.284,4.293,0,0,2.006,91.31,1689.8498673954,0,10,Assisted_Takeoff,
5300,2025-09-03 10:57:11,0,0,0,,,1689.8498673954,0.328084,0,0,0,6,0,17.118,1689.8498673954,0,0,0,0,0,0,189.7, -1.7, -0.5,0,0,1024,1024,1202,1024,0,0,27,0,276.3,-20,-30.7,98,4.273,4.282,4.284,4.293,0,0,2.006,91.31,1689.8498673954,0,10,Assisted_Takeoff,
5400,2025-09-03 10:57:11,0,0,0,,,1689.8498673954,0.328084,0,0,0,6,0,17.037,1689.8498673954,0,0,0,0,0,0,189.7, -1.7, -0.5,0,0,1024,1024,1203,1024,0,0,27,0,276.1,-20.1,-30.7,98,4.275,4.284,4.287,4.293,0,0,1.89,91.31,1689.8498673954,0,10,Assisted_Takeoff,
5500,2025-09-03 10:57:11,0,0,0,,,1689.8498673954,0.328084,0,0,0,6,0,17.037,1689.8498673954,0,0,0,0,0,0,189.7, -1.8, -0.5,0,0,1024,1024,1202,1024,0,0,27,0,276.2,-20.3,-30.8,98,4.275,4.284,4.287,4.293,0,0,1.89,91.31,1689.8498673954,0,10,Assisted_Takeoff,
5600,2025-09-03 10:57:11,0,0,0,,,1689.8498673954,0.328084,0,0,0,6,0,17.037,1689.8498673954,0,0,0,0,0,0,189.7, -2, -0.6,0,0,1024,1024,1205,1024,0,0,27,0,276.1,-20.6,-30.8,98,4.275,4.284,4.287,4.293,0,0,1.89,91.31,1689.8498673954,0,10,Assisted_Takeoff,
5700,2025-09-03 10:57:11,0,0,0,,,1689.8498673954,0.328084,0,0,0,6,0,17.037,1689.8498673954,0,0,0,0,0,0,189.7, -2.4, -0.5,0,0,1024,1024,1200,1024,0,0,27,0,275.9,-21.3,-30.3,98,4.275,4.284,4.287,4.293,0,0,1.89,91.31,1689.8498673954,0,10,Assisted_Takeoff,
5800,2025-09-03 10:57:11,0,0,0,,,1689.8498673954,0.328084,0,0,0,6,0,17.037,1689.8498673954,0,0,0,0,0,0,189.7, -3.2, -0.4,0,0,1024,1024,1201,1024,0,0,27,0,275.9,-21.3,-30.3,98,4.275,4.284,4.287,4.293,0,0,1.89,91.31,1689.8498673954,0,10,Assisted_Takeoff,
5900,2025-09-03 10:57:11,0,0,0,,,1689.8498673954,0.328084,0,0,0,6,0,17.037,1689.8498673954,0,0,0,0,0,0,189.6, -4.9, -0.5,0,0,1024,1024,1200,1024,0,0,27,0,276.6,-22.6,-30.6,98,4.275,4.284,4.287,4.293,0,0,1.89,91.31,1689.8498673954,0,10,Assisted_Takeoff,
6000,2025-09-03 10:57:12,0,0,0,,,1689.8498673954,0.328084,0.223694,0,0,6,0,17.037,1689.8498673954,0,0.223694,0,-0.223694,0,0,189.2, -7.5, -0.4,0,0,1024,1024,1200,1024,0,0,27,0,276.9,-25.6,-30.1,98,4.275,4.284,4.287,4.293,0,0,1.89,91.31,1689.8498673954,0,10,Assisted_Takeoff,
6100,2025-09-03 10:57:12,0,0,0,,,1689.8498673954,0.328084,0.447388,0,0,6,0,17.037,1689.8498673954,0,0.447388,0,-0.447388,0,0,188.7, -9, 0.5,0,0,1024,1024,1201,1024,0,0,27,0,276.6,-26.5,-28.5,98,4.275,4.284,4.287,4.293,0,0,1.89,91.31,1689.8498673954,0,10,Assisted_Takeoff,
6200,2025-09-03 10:57:12,0,0,0,,,1689.8498673954,0.656168,0.671082,0,0,6,0,17.037,1689.8498673954,0,0.671082,0,-0.671082,0,-0.223694,188.3, -8, 1.4,0,0,1024,1024,1197,1024,0,0,26,0,276.3,-25.7,-27.1,98,4.275,4.284,4.287,4.293,0,0,1.89,91.31,1689.8498673954,0,6,P-GPS,
6300,2025-09-03 10:57:12,0,0,0,,,1689.8498673954,0.656168,0.894776,0,0,6,0,17.037,1689.8498673954,0,0.894776,0,-0.894776,0,-0.671082,188.4, -3.5, 0.8,0,0,1024,1024,1194,1024,0,0,26,0,275.6,-21.7,-28.5,98,4.275,4.284,4.287,4.293,0,0,1.89,91.31,1689.8498673954,0,6,P-GPS,
6400,2025-09-03 10:57:12,0,0,0.328084,,,1690.1779513954,0.984252,0.894776,0,0,6,0,16.8,1690.1779513954,0.328084,0.894776,0,-0.894776,0,-0.894776,188.5, 3.1, -0.1,0,0,1024,1024,1189,1024,0,0,25,0,274,-15.1,-28.6,98,4.252,4.258,4.256,4.253,0,0,2.484,91.31,1690.1779513954,0.328084,6,P-GPS,
6500,2025-09-03 10:57:12,0,0,0.328084,,,1690.1779513954,0.984252,0.671082,0,0,6,0,16.8,1690.1779513954,0.328084,0.894776,0,-0.671082,0,-1.342164,188.5, 6.9, 0.4,0,0,1024,1024,1175,1024,0,0,23,0,272.8,-14.4,-28.5,98,4.252,4.258,4.256,4.253,0,0,2.484,91.31,1690.1779513954,0.328084,6,P-GPS,
6600,2025-09-03 10:57:12,0,0,0.656168,,,1690.5060353954,1.312336,0.447388,0,0,5,0,16.8,1690.5060353954,0.656168,0.894776,0,-0.447388,0,-1.342164,188.6, 6.6, -0.2,0,0,1024,1024,1172,1024,0,0,22,0,273.7,-16.4,-28,98,4.252,4.258,4.256,4.253,0,0,2.484,91.31,1690.5060353954,0.656168,6,P-GPS,
6700,2025-09-03 10:57:12,0,0,0.656168,,,1690.5060353954,1.312336,0.223694,0,0,5,0,16.8,1690.5060353954,0.656168,0.894776,0,-0.223694,0,-1.565858,188.9, 4.3, 0,0,0,1024,1024,1167,1024,0,0,22,0,276.1,-17.7,-29,98,4.252,4.258,4.256,4.253,0,0,2.484,91.31,1690.5060353954,0.656168,6,P-GPS,
6800,2025-09-03 10:57:12,0,0,0.984252,,,1690.8341193954,1.64042,0,0,0,5,0,16.8,1690.8341193954,0.984252,0.894776,0,0,0,-1.342164,188.9, 1.9, 0.5,0,0,1024,1024,1166,1024,0,0,22,0,275.8,-20.3,-28.3,98,4.252,4.258,4.256,4.253,0,0,2.484,91.31,1690.8341193954,0.984252,6,P-GPS,
6900,2025-09-03 10:57:13,0,0,1.312336,,,1691.1622033954,1.64042,0,0,0,5,0,16.8,1691.1622033954,1.312336,0.894776,0,0,0,-1.342164,188.9, 0.1, 0.8,0,0,1024,1024,1173,1024,0,0,23,0,274,-22.6,-26.8,98,4.252,4.258,4.256,4.253,0,0,2.484,91.31,1691.1622033954,1.312336,6,P-GPS,
7000,2025-09-03 10:57:13,0,0,1.312336,,,1691.1622033954,1.968504,0.223694,0,0,7,0,16.8,1691.1622033954,1.312336,0.894776,0,0,0.223694,-1.11847,188.8, -0.9, 1.2,0,0,1024,1024,1182,1024,0,0,24,0,274.5,-22.4,-26.6,98,4.252,4.258,4.256,4.253,0,0,2.484,91.31,1691.1622033954,1.312336,6,P-GPS,
7100,2025-09-03 10:57:13,0,0,1.64042,,,1691.4902873954,2.296588,0.3131716,0,0,7,0,16.8,1691.4902873954,1.64042,0.894776,0,0.223694,0.223694,-1.11847,188.8, -1.1, 1.5,0,0,1024,1024,1182,1024,0,0,24,0,274.5,-22.4,-26.6,98,4.252,4.258,4.256,4.253,0,0,2.484,91.31,1691.4902873954,1.64042,6,P-GPS,
7200,2025-09-03 10:57:13,0,0,1.968504,,,1691.8183713954,2.296588,0.223694,0,0,7,0,16.8,1691.8183713954,1.968504,0.894776,0,0,0.223694,-1.11847,188.7, -1.8, 1.5,0,0,1024,1024,1178,1024,0,0,23,0,275.6,-22.9,-26.7,98,4.252,4.258,4.256,4.253,0,0,2.484,91.31,1691.8183713954,1.968504,6,P-GPS,
7300,2025-09-03 10:57:13,0,0,1.968504,,,1691.8183713954,2.624672,0.223694,0,0,7,0,16.8,1691.8183713954,1.968504,0.894776,0,0,0.223694,-1.11847,188.8, -2.4, 1.5,0,0,1024,1024,1194,1024,0,0,26,0,274,-24.3,-26.8,98,4.252,4.258,4.256,4.253,0,0,2.484,91.31,1691.8183713954,1.968504,6,P-GPS,
7400,2025-09-03 10:57:13,0,0,2.296588,,,1692.1464553954,2.624672,0.223694,0,0,7,0,16.322,1692.1464553954,2.296588,0.894776,0,0,0.223694,-1.11847,188.7, -1.9, 2.2,0,0,1024,1024,1188,1024,0,0,25,0,275.2,-23.2,-25.5,98,4.08,4.101,4.103,4.082,0,0,17.114,91.31,1692.1464553954,2.296588,6,P-GPS,
7500,2025-09-03 10:57:13,0,0,2.296588,,,1692.1464553954,2.952756,0.223694,0,0,7,0,16.322,1692.1464553954,2.296588,0.894776,0,0,0.223694,-1.11847,188.6, -1.8, 2.9,0,0,1024,1024,1193,1024,0,0,26,0,276,-23,-25.7,98,4.08,4.101,4.103,4.082,0,0,17.114,91.31,1692.1464553954,2.296588,6,P-GPS,
7600,2025-09-03 10:57:13,0,0,2.624672,,,1692.4745393954,2.952756,0.223694,0,0,7,0,16.322,1692.4745393954,2.624672,0.894776,0,0,0.223694,-1.11847,188.6, -1.8, 2.7,0,0,1024,1024,1205,1024,0,0,27,0,274.4,-23.6,-25.7,98,4.08,4.101,4.103,4.082,0,0,17.114,91.31,1692.4745393954,2.624672,6,P-GPS,
7700,2025-09-03 10:57:13,0,0,2.952756,,,1692.8026233954,3.28084,0.223694,0,0,7,0,16.322,1692.8026233954,2.952756,0.894776,0,0,0.223694,-1.565858,188.7, -1.6, 2.5,0,0,1024,1024,1200,1024,0,0,27,0,273.8,-23.8,-25.6,98,4.08,4.101,4.103,4.082,0,0,17.114,91.31,1692.8026233954,2.952756,6,P-GPS,
7800,2025-09-03 10:57:13,0,0,3.28084,,,1693.1307073954,3.28084,0,0,0,7,0,16.322,1693.1307073954,3.28084,0.894776,0,0,0,-1.565858,188.7, -1.5, 2.5,0,0,1024,1024,1200,1024,0,0,27,0,276,-22.4,-26.1,98,4.08,4.101,4.103,4.082,0,0,17.114,91.31,1693.1307073954,3.28084,6,P-GPS,
7900,2025-09-03 10:57:13,0,0,3.28084,,,1693.1307073954,3.608924,0,0,0,7,0,16.322,1693.1307073954,3.28084,0.894776,0,0,0,-1.565858,188.8, -1.2, 2.7,0,0,1024,1024,1198,1024,0,0,26,0,275.6,-22.5,-26.2,98,4.08,4.101,4.103,4.082,0,0,17.114,91.31,1693.1307073954,3.28084,6,P-GPS,
8000,2025-09-03 10:57:14,0,0,3.608924,,,1693.4587913954,3.608924,0,0,0,8,0,16.322,1693.4587913954,3.608924,0.894776,0,0,0,-1.565858,188.8, -1.3, 2.4,0,0,1024,1024,1211,1024,0,0,28,0,274.4,-23.3,-26.3,98,4.08,4.101,4.103,4.082,0,0,17.114,91.31,1693.4587913954,3.608924,6,P-GPS,
8100,2025-09-03 10:57:14,0,0,3.937008,,,1693.7868753954,3.937008,0,0,0,8,0,16.322,1693.7868753954,3.937008,0.894776,0,0,0,-1.342164,188.8, -1.4, 1.8,0,0,1024,1024,1227,1024,0,0,31,0,273.9,-23.2,-26.8,98,4.08,4.101,4.103,4.082,0,0,17.114,91.31,1693.7868753954,3.937008,6,P-GPS,
8200,2025-09-03 10:57:14,0,0,3.937008,,,1693.7868753954,4.265092,0,0,0,8,0,16.322,1693.7868753954,3.937008,0.894776,0,0,0,-1.342164,188.9, -0.7, 1.3,0,0,1024,1024,1207,1024,0,0,28,0,274.6,-23.4,-26.6,98,4.08,4.101,4.103,4.082,0,0,17.114,91.31,1693.7868753954,3.937008,6,P-GPS,
8300,2025-09-03 10:57:14,0,0,4.265092,,,1694.1149593954,4.265092,0,0,0,8,0,16.322,1694.1149593954,4.265092,0.894776,0,0,0,-1.342164,188.8, -1.3, 1.5,0,0,1024,1024,1196,1024,0,0,26,0,275.2,-23.6,-26.6,98,4.08,4.101,4.103,4.082,0,0,17.114,91.31,1694.1149593954,4.265092,6,P-GPS,
8400,2025-09-03 10:57:14,0,0,4.593176,,,1694.4430433954,4.593176,0,0,0,7,0,16.144,1694.4430433954,4.593176,0.894776,0,0,0,-1.565858,188.8, -1.8, 1.5,0,0,1024,1024,1191,1024,0,0,25,0,275.2,-23.6,-26.6,98,4.08,4.101,4.103,4.082,0,0,17.114,91.31,1694.4430433954,4.593176,6,P-GPS,
8500,2025-09-03 10:57:14,0,0,4.593176,,,1694.4430433954,4.92126,0,0,0,7,0,16.144,1694.4430433954,4.593176,0.894776,0,0,0,-1.342164,188.7, -1.5, 1.5,0,0,1024,1024,1185,1024,0,0,24,0,274.6,-23.2,-26.3,98,4.08,4.101,4.103,4.082,0,0,17.114,91.31,1694.4430433954,4.593176,6,P-GPS,
8600,2025-09-03 10:57:14,0,0,4.92126,,,1694.7711273954,4.92126,0,0,0,7,0,16.144,1694.7711273954,4.92126,0.894776,0,0,0,-1.342164,188.7, -1.3, 2,0,0,1024,1024,1190,1024,0,0,25,0,274,-23.7,-26.3,98,4.08,4.101,4.103,4.082,0,0,17.114,91.31,1694.7711273954,4.92126,6,P-GPS,
8700,2025-09-03 10:57:14,0,0,4.92126,,,1694.7711273954,5.249344,0,0,0,7,0,16.144,1694.7711273954,4.92126,0.894776,0,0,0,-1.342164,188.6, -1.5, 1.7,0,0,1024,1024,1192,1024,0,0,25,0,274.4,-23.8,-26.8,98,4.08,4.101,4.103,4.082,0,0,17.114,91.31,1694.7711273954,4.92126,6,P-GPS,
8800,2025-09-03 10:57:14,0,0,5.249344,,,1695.0992113954,5.577428,0,0,0,7,0,16.144,1695.0992113954,5.249344,0.894776,0,0,0,-1.342164,188.6, -2, 0.8,0,0,1024,1024,1198,1024,0,0,26,0,274.1,-24.3,-27.7,98,4.08,4.101,4.103,4.082,0,0,17.114,91.31,1695.0992113954,5.249344,6,P-GPS,
8900,2025-09-03 10:57:14,0,0,5.249344,,,1695.0992113954,5.577428,0,0,0,7,0,16.144,1695.0992113954,5.249344,0.894776,0,0,0,-1.11847,188.7, -2.2, 0.7,0,0,1024,1024,1195,1024,0,0,26,0,274.3,-24.6,-27,98,4.08,4.101,4.103,4.082,0,0,17.114,91.31,1695.0992113954,5.249344,6,P-GPS,
9000,2025-09-03 10:57:15,0,0,5.577428,,,1695.4272953954,5.905512,0,0,0,8,0,16.144,1695.4272953954,5.577428,0.894776,0,0,0,-1.342164,188.7, -2.3, 1.4,0,0,1024,1024,1207,1024,0,0,28,0,274.7,-24.4,-26.8,98,4.08,4.101,4.103,4.082,0,0,17.114,91.31,1695.4272953954,5.577428,6,P-GPS,
9100,2025-09-03 10:57:15,0,0,5.905512,,,1695.7553793954,5.905512,0,0,0,8,2,16.144,1695.7553793954,5.905512,0.894776,0,0,0,-1.342164,188.7, -2.3, 1.8,0,0,1024,1024,1222,1024,0,0,30,0,274.1,-24.5,-26.7,98,4.08,4.101,4.103,4.082,0,0,17.114,91.31,1695.7553793954,5.905512,6,P-GPS,
9200,2025-09-03 10:57:15,0,0,5.905512,,,1695.7553793954,6.233596,0,0,0,8,2,16.144,1695.7553793954,5.905512,0.894776,0,0,0,-1.342164,188.6, -2.2, 1.5,0,0,1024,1024,1222,1024,0,0,30,0,273.6,-24.6,-27.2,98,4.08,4.101,4.103,4.082,0,0,17.114,91.31,1695.7553793954,5.905512,6,P-GPS,
9300,2025-09-03 10:57:15,0,0,6.233596,,,1696.0834633954,6.56168,0,0,0,8,2,16.144,1696.0834633954,6.233596,0.894776,0,0,0,-1.565858,188.6, -2.1, 1.2,0,0,1024,1024,1225,1024,0,0,30,0,274.1,-24.4,-27.6,98,4.08,4.101,4.103,4.082,0,0,17.114,91.31,1696.0834633954,6.233596,6,P-GPS,
9400,2025-09-03 10:57:15,0,0,6.56168,,,1696.4115473954,6.889764,0,0,0,7,2,16.175,1696.4115473954,6.56168,0.894776,0,0,0,-1.565858,188.6, -2, 1.2,0,0,1024,1024,1232,1024,0,0,32,0,273.5,-24.4,-27.2,98,4.059,4.082,4.086,4.069,0,0,17.226,91.31,1696.4115473954,6.56168,6,P-GPS,
9500,2025-09-03 10:57:15,0,0,6.889764,,,1696.7396313954,6.889764,0,0,0,7,2,16.175,1696.7396313954,6.889764,0.894776,0,0,0,-1.789552,188.6, -1.8, 0.9,0,0,1024,1024,1246,1024,0,0,34,0,273.2,-24.7,-27.2,98,4.059,4.082,4.086,4.069,0,0,17.226,91.31,1696.7396313954,6.889764,6,P-GPS,
9600,2025-09-03 10:57:15,0,0,6.889764,,,1696.7396313954,7.217848,0,0,0,7,2,16.175,1696.7396313954,6.889764,0.894776,0,0,0,-1.789552,188.6, -1.9, 1,0,0,1024,1024,1247,1024,0,0,34,0,273.2,-24.7,-27.2,98,4.059,4.082,4.086,4.069,0,0,17.226,91.31,1696.7396313954,6.889764,6,P-GPS,
9700,2025-09-03 10:57:15,0,0,7.217848,,,1697.0677153954,7.545932,0.223694,0,0,7,2,16.175,1697.0677153954,7.217848,0.894776,0,0,-0.223694,-1.789552,188.6, -2, 0.7,0,0,1024,1024,1247,1024,0,0,34,0,272.6,-24.9,-27.5,98,4.059,4.082,4.086,4.069,0,0,17.226,91.31,1697.0677153954,7.217848,6,P-GPS,
9800,2025-09-03 10:57:15,0,0,7.545932,,,1697.3957993954,7.874016,0,0,0,7,2,16.175,1697.3957993954,7.545932,0.894776,0,0,0,-2.013246,188.7, -1.7, 0.4,0,0,1024,1024,1256,1024,0,0,35,0,273.1,-24.5,-28.6,98,4.059,4.082,4.086,4.069,0,0,17.226,91.31,1697.3957993954,7.545932,6,P-GPS,
9900,2025-09-03 10:57:15,0,0,7.874016,,,1697.7238833954,8.2021,0.223694,0,0,7,2,16.175,1697.7238833954,7.874016,0.894776,0,0,-0.223694,-2.013246,188.7, -1.9, 0,0,0,1024,1024,1253,1024,0,0,35,0,272.4,-25.3,-28.8,98,4.059,4.082,4.086,4.069,0,0,17.226,91.31,1697.7238833954,7.874016,6,P-GPS,
10000,2025-09-03 10:57:16,0,0,8.2021,,,1698.0519673954,8.530184,0,0,0,6,2,16.175,1698.0519673954,8.2021,0.894776,0,0,0,-2.23694,188.7, -2.2, 0.2,0,0,1024,1024,1248,1024,0,0,34,0,270.2,-26.6,-27.7,98,4.059,4.082,4.086,4.069,0,0,17.226,91.31,1698.0519673954,8.2021,6,P-GPS,
10100,2025-09-03 10:57:16,0,0,8.530184,,,1698.3800513954,8.530184,0.223694,0,0,6,2,16.175,1698.3800513954,8.530184,0.894776,0,0,-0.223694,-2.23694,188.6, -2.2, 0.4,0,0,1024,1024,1249,1024,0,0,34,0,271.6,-25.9,-28.4,98,4.059,4.082,4.086,4.069,0,0,17.226,91.31,1698.3800513954,8.530184,6,P-GPS,
10200,2025-09-03 10:57:16,0,0,8.858268,,,1698.7081353954,8.858268,0.223694,0,0,7,2,16.175,1698.7081353954,8.858268,0.894776,0,0,-0.223694,-2.23694,188.6, -1.8, -0.8,0,0,1024,1024,1262,1024,0,0,36,0,271.6,-25.2,-30.3,98,4.059,4.082,4.086,4.069,0,0,17.226,91.31,1698.7081353954,8.858268,6,P-GPS,
10300,2025-09-03 10:57:16,0,0,9.186352,,,1699.0362193954,9.186352,0,0,0,7,2,16.175,1699.0362193954,9.186352,0.894776,0,0,0,-2.23694,188.7, -1.1, -1.6,0,0,1024,1024,1263,1024,0,0,36,0,270.5,-25.2,-29.2,98,4.059,4.082,4.086,4.069,0,0,17.226,91.31,1699.0362193954,9.186352,6,P-GPS,
10400,2025-09-03 10:57:16,0,0,9.514436,,,1699.3643033954,9.514436,0,0,0,7,2,16.172,1699.3643033954,9.514436,0.894776,0,0,0,-2.23694,188.6, -0.9, -0.9,0,0,1024,1024,1261,1024,0,0,36,0,270.8,-25,-27.9,98,4.045,4.068,4.068,4.045,0,0,17.29,91.31,1699.3643033954,9.514436,6,P-GPS,
10500,2025-09-03 10:57:16,0,0,9.84252,,,1699.6923873954,9.84252,0,0,0,7,2,16.172,1699.6923873954,9.84252,0.894776,0,0,0,-2.23694,188.6, -0.8, 0.1,0,0,1024,1024,1258,1024,0,0,35,0,272.8,-23.9,-28.3,98,4.045,4.068,4.068,4.045,0,0,17.29,91.31,1699.6923873954,9.84252,6,P-GPS,
10600,2025-09-03 10:57:16,0,0,10.170604,,,1700.0204713954,10.170604,0,0,0,8,2,16.172,1700.0204713954,10.170604,0.894776,0,0,0,-2.460634,188.6, -0.8, 0.8,0,0,1024,1024,1257,1024,0,0,35,0,271.9,-24.4,-27.5,98,4.045,4.068,4.068,4.045,0,0,17.29,91.31,1700.0204713954,10.170604,6,P-GPS,
10700,2025-09-03 10:57:16,0,0,10.826772,,,1700.6766393954,10.826772,0,0,0,8,2,16.172,1700.6766393954,10.826772,0.894776,0,0,0.223694,-2.460634,188.6, -1, 1.2,0,0,1024,1024,1256,1024,0,0,35,0,272,-24.7,-27.4,98,4.045,4.068,4.068,4.045,0,0,17.29,91.31,1700.6766393954,10.826772,6,P-GPS,
10800,2025-09-03 10:57:16,0,0,11.154856,,,1701.0047233954,11.154856,0,0,0,7,2,16.172,1701.0047233954,11.154856,0.894776,0,0,0,-2.460634,188.7, -1.3, 1.4,0,0,1024,1024,1251,1024,0,0,34,0,272.2,-24.4,-27.7,98,4.045,4.068,4.068,4.045,0,0,17.29,91.31,1701.0047233954,11.154856,6,P-GPS,
10900,2025-09-03 10:57:16,0,0,11.48294,,,1701.3328073954,11.48294,0,0,0,7,2,16.172,1701.3328073954,11.48294,0.894776,0,0,0,-2.460634,188.7, -1.3, 1.2,0,0,1024,1024,1247,1024,0,0,34,0,272.2,-24.4,-27.7,98,4.045,4.068,4.068,4.045,0,0,17.29,91.31,1701.3328073954,11.48294,6,P-GPS,
11000,2025-09-03 10:57:17,0,0,11.811024,,,1701.6608913954,11.811024,0,0,0,7,2,16.172,1701.6608913954,11.811024,0.894776,0,0,0,-2.23694,188.8, -1, 0.8,0,0,1024,1024,1250,1024,0,0,34,0,271.5,-24.6,-27.9,98,4.045,4.068,4.068,4.045,0,0,17.29,91.31,1701.6608913954,11.811024,6,P-GPS,
11100,2025-09-03 10:57:17,0,0,12.139108,,,1701.9889753954,12.139108,0,0,0,7,2,16.172,1701.9889753954,12.139108,0.894776,0,0,0,-2.23694,188.8, -1, 0.8,0,0,1024,1024,1255,1024,0,0,35,0,271.8,-24.6,-28.3,98,4.045,4.068,4.068,4.045,0,0,17.29,91.31,1701.9889753954,12.139108,6,P-GPS,
11200,2025-09-03 10:57:17,0,0,12.467192,,,1702.3170593954,12.467192,0,0,0,7,2,16.172,1702.3170593954,12.467192,0.894776,0,0,0,-2.23694,188.8, -1.2, 0.7,0,0,1024,1024,1267,1024,0,0,37,0,271.7,-24.8,-28,98,4.045,4.068,4.068,4.045,0,0,17.29,91.31,1702.3170593954,12.467192,6,P-GPS,
11300,2025-09-03 10:57:17,0,0,12.795276,,,1702.6451433954,12.795276,0,0,0,7,2,16.172,1702.6451433954,12.795276,0.894776,0,0,0,-2.23694,188.8, -1.3, 0.4,0,0,1024,1024,1267,1024,0,0,37,0,272,-24.5,-28.8,98,4.045,4.068,4.068,4.045,0,0,17.29,91.31,1702.6451433954,12.795276,6,P-GPS,
11400,2025-09-03 10:57:17,0,0,13.12336,,,1702.9732273954,13.12336,0,0,0,7,2,16.044,1702.9732273954,13.12336,0.894776,0,0,0,-2.23694,188.8, -1.1, 0,0,0,1024,1024,1264,1024,0,0,36,0,271.9,-24.5,-29.2,98,4.041,4.062,4.061,4.038,0,0,17.18,91.31,1702.9732273954,13.12336,6,P-GPS,
11500,2025-09-03 10:57:17,0,0,13.451444,,,1703.3013113954,13.451444,0.223694,0,0,7,2,16.044,1703.3013113954,13.451444,0.894776,0,0,0.223694,-2.460634,188.9, -0.9, 0.5,0,0,1024,1024,1268,1024,0,0,37,0,271.6,-24.4,-28.2,98,4.041,4.062,4.061,4.038,0,0,17.18,91.31,1703.3013113954,13.451444,6,P-GPS,
11600,2025-09-03 10:57:17,0,0,13.779528,,,1703.6293953954,13.779528,0.223694,0,0,7,2,16.044,1703.6293953954,13.779528,0.894776,0,0,0.223694,-2.460634,188.9, -0.6, 1,0,0,1024,1024,1270,1024,0,0,37,0,271.3,-24.2,-27.9,98,4.041,4.062,4.061,4.038,0,0,17.18,91.31,1703.6293953954,13.779528,6,P-GPS,
11700,2025-09-03 10:57:17,0,0,14.107612,,,1703.9574793954,14.107612,0.223694,0,0,7,2,16.044,1703.9574793954,14.107612,0.894776,0,0,0.223694,-2.460634,188.9, -0.6, 0.9,0,0,1024,1024,1270,1024,0,0,37,0,271.8,-24.2,-28.5,98,4.041,4.062,4.061,4.038,0,0,17.18,91.31,1703.9574793954,14.107612,6,P-GPS,
11800,2025-09-03 10:57:17,0,0,14.435696,,,1704.2855633954,14.435696,0,0,0,6,2,16.044,1704.2855633954,14.435696,0.894776,0,0,0,-2.460634,188.9, -0.7, 1,0,0,1024,1024,1268,1024,0,0,37,0,271.4,-24.7,-27.5,98,4.041,4.062,4.061,4.038,0,0,17.18,91.31,1704.2855633954,14.435696,6,P-GPS,
11900,2025-09-03 10:57:17,0,0,15.091864,,,1704.9417313954,14.76378,0,0,0,6,2,16.044,1704.9417313954,15.091864,0.894776,0,0,0,-2.460634,188.9, -0.9, 1.3,0,0,1024,1024,1273,1024,0,0,38,0,270.8,-25,-27.3,98,4.041,4.062,4.061,4.038,0,0,17.18,91.31,1704.9417313954,15.091864,6,P-GPS,
12000,2025-09-03 10:57:18,0,0,15.419948,,,1705.2698153954,15.091864,0,0,0,8,2,16.044,1705.2698153954,15.419948,0.894776,0,0,0,-2.460634,188.8, -1.4, 1.8,0,0,1024,1024,1273,1024,0,0,38,0,271.1,-25,-27.8,98,4.041,4.062,4.061,4.038,0,0,17.18,91.31,1705.2698153954,15.419948,6,P-GPS,
12100,2025-09-03 10:57:18,0,0,15.748032,,,1705.5978993954,15.419948,0,0,0,8,2,16.044,1705.5978993954,15.748032,0.894776,0,0,0,-2.460634,188.7, -1.4, 1.6,0,0,1024,1024,1270,1024,0,0,37,0,270.4,-25,-28.3,98,4.041,4.062,4.061,4.038,0,0,17.18,91.31,1705.5978993954,15.748032,6,P-GPS,
12200,2025-09-03 10:57:18,0,0,16.076116,,,1705.9259833954,15.748032,0,0,0,7,2,16.044,1705.9259833954,16.076116,0.894776,0,0,0,-2.460634,188.7, -1, 0.8,0,0,1024,1024,1273,1024,0,0,38,0,270.4,-25,-28.3,98,4.041,4.062,4.061,4.038,0,0,17.18,91.31,1705.9259833954,16.076116,6,P-GPS,
12300,2025-09-03 10:57:18,0,0,16.4042,,,1706.2540673954,16.076116,0,0,0,7,2,16.044,1706.2540673954,16.4042,0.894776,0,0,0,-2.460634,188.7, -0.6, 0.3,0,0,1024,1024,1275,1024,0,0,38,0,270.1,-24.9,-28.7,98,4.041,4.062,4.061,4.038,0,0,17.18,91.31,1706.2540673954,16.4042,6,P-GPS,
12400,2025-09-03 10:57:18,0,0,16.732284,,,1706.5821513954,16.732284,0,0,0,7,2,16.137,1706.5821513954,16.732284,0.894776,0,0,0,-2.460634,188.6, -0.5, -0.1,0,0,1024,1024,1273,1024,0,0,38,0,269.9,-24.8,-29.1,98,4.041,4.062,4.061,4.038,0,0,17.588,91.31,1706.5821513954,16.732284,6,P-GPS,
12500,2025-09-03 10:57:18,0,0,17.388452,,,1707.2383193954,17.060368,0,0,0,7,2,16.137,1707.2383193954,17.388452,0.894776,0,0,0,-2.460634,188.6, -0.4, -0.5,0,0,1024,1024,1273,1024,0,0,38,0,269.5,-25.1,-29.5,98,4.041,4.062,4.061,4.038,0,0,17.588,91.31,1707.2383193954,17.388452,6,P-GPS,
12600,2025-09-03 10:57:18,0,0,17.716536,,,1707.5664033954,17.388452,0,0,0,8,2,16.137,1707.5664033954,17.716536,0.894776,0,0,0,-2.684328,188.6, -0.1, -0.6,0,0,1024,1024,1274,1024,0,0,38,0,269.5,-24.9,-29.5,98,4.041,4.062,4.061,4.038,0,0,17.588,91.31,1707.5664033954,17.716536,6,P-GPS,
12700,2025-09-03 10:57:18,0,0,18.04462,,,1707.8944873954,17.716536,0,0,0,8,2,16.137,1707.8944873954,18.04462,0.894776,0,0,0,-2.684328,188.6, -0.1, -0.5,0,0,1024,1024,1274,1024,0,0,38,0,270,-24.7,-29.3,98,4.041,4.062,4.061,4.038,0,0,17.588,91.31,1707.8944873954,18.04462,6,P-GPS,
12800,2025-09-03 10:57:18,0,0,18.372704,,,1708.2225713954,18.372704,0,0,0,8,2,16.137,1708.2225713954,18.372704,0.894776,0,0,0,-2.684328,188.6, -0.3, -0.3,0,0,1024,1024,1273,1024,0,0,38,0,269.7,-25.1,-29.3,98,4.041,4.062,4.061,4.038,0,0,17.588,91.31,1708.2225713954,18.372704,6,P-GPS,
12900,2025-09-03 10:57:18,0,0,19.028872,,,1708.8787393954,18.700788,0,0,0,8,2,16.137,1708.8787393954,19.028872,0.894776,0,0,0,-2.684328,188.6, -0.6, 0,0,0,1024,1024,1271,1024,0,0,37,0,269.4,-25.4,-28.9,98,4.041,4.062,4.061,4.038,0,0,17.588,91.31,1708.8787393954,19.028872,6,P-GPS,
13000,2025-09-03 10:57:19,0,0,19.356956,,,1709.2068233954,19.028872,0,0,0,8,2,16.137,1709.2068233954,19.356956,0.894776,0,0,0,-2.684328,188.6, -0.8, 0.3,0,0,1024,1024,1270,1024,0,0,37,0,270.1,-25.1,-28.9,98,4.041,4.062,4.061,4.038,0,0,17.588,91.31,1709.2068233954,19.356956,6,P-GPS,
13100,2025-09-03 10:57:19,0,0,19.68504,,,1709.5349073954,19.356956,0,0,0,8,2,16.137,1709.5349073954,19.68504,0.894776,0,0,0,-2.460634,188.6, -0.9, 0.4,0,0,1024,1024,1269,1024,0,0,37,0,269.7,-25.6,-29.1,98,4.041,4.062,4.061,4.038,0,0,17.588,91.31,1709.5349073954,19.68504,6,P-GPS,
13200,2025-09-03 10:57:19,0,0,20.013124,,,1709.8629913954,20.013124,0,0,0,8,2,16.137,1709.8629913954,20.013124,0.894776,0,0,0,-2.460634,188.6, -1.3, 0.1,0,0,1024,1024,1267,1024,0,0,37,0,268.9,-26.3,-28.9,98,4.041,4.062,4.061,4.038,0,0,17.588,91.31,1709.8629913954,20.013124,6,P-GPS,
13300,2025-09-03 10:57:19,0,0,20.341208,,,1710.1910753954,20.341208,0,0,0,8,2,16.137,1710.1910753954,20.341208,0.894776,0,0,0,-2.460634,188.6, -1.5, 0.1,0,0,1024,1024,1274,1024,0,0,38,0,269.3,-26.1,-28.8,98,4.041,4.062,4.061,4.038,0,0,17.588,91.31,1710.1910753954,20.341208,6,P-GPS,
13400,2025-09-03 10:57:19,0,0,20.669292,,,1710.5191593954,20.669292,0,0,0,7,2,16.062,1710.5191593954,20.669292,0.894776,0,0,0,-2.460634,188.6, -1.4, 0.3,0,0,1024,1024,1274,1024,0,0,38,0,269.3,-26.1,-28.8,98,4.041,4.062,4.061,4.038,0,0,17.588,91.31,1710.5191593954,20.669292,6,P-GPS,
13500,2025-09-03 10:57:19,0,0,21.32546,,,1711.1753273954,20.997376,0,0,0,7,2,16.062,1711.1753273954,21.32546,0.894776,0,0,0,-2.460634,188.6, -1.3, 0.3,0,0,1024,1024,1271,1024,0,0,37,0,269.3,-25.9,-28.9,98,4.041,4.062,4.061,4.038,0,0,17.588,91.31,1711.1753273954,21.32546,6,P-GPS,
13600,2025-09-03 10:57:19,0,0,21.653544,,,1711.5034113954,21.653544,0,0,0,9,2,16.062,1711.5034113954,21.653544,0.894776,0,0,0,-2.460634,188.6, -1, 0,0,0,1024,1024,1270,1024,0,0,37,0,268.9,-25.9,-29.2,98,4.041,4.062,4.061,4.038,0,0,17.588,91.31,1711.5034113954,21.653544,6,P-GPS,
13700,2025-09-03 10:57:19,0,0,21.981628,,,1711.8314953954,21.981628,0,0,0,9,2,16.062,1711.8314953954,21.981628,0.894776,0,0,0,-2.460634,188.6, -0.7, -0.1,0,0,1024,1024,1270,1024,0,0,37,0,269.1,-25.4,-29.5,98,4.041,4.062,4.061,4.038,0,0,17.588,91.31,1711.8314953954,21.981628,6,P-GPS,
13800,2025-09-03 10:57:19,0,0,22.309712,,,1712.1595793954,22.309712,0,0,0,9,2,16.062,1712.1595793954,22.309712,0.894776,0,0,0,-2.460634,188.6, -0.7, -0.1,0,0,1024,1024,1265,1024,0,0,37,0,269.4,-25.3,-28.9,98,4.041,4.062,4.061,4.038,0,0,17.588,91.31,1712.1595793954,22.309712,6,P-GPS,
13900,2025-09-03 10:57:20,0,0,22.637796,,,1712.4876633954,22.637796,0,0,0,9,2,16.062,1712.4876633954,22.637796,0.894776,0,0,0,-2.460634,188.5, -0.8, 0,0,0,1024,1024,1263,1024,0,0,36,0,269.1,-25.6,-28.9,98,4.041,4.062,4.061,4.038,0,0,17.588,91.31,1712.4876633954,22.637796,6,P-GPS,
14000,2025-09-03 10:57:20,0,0,22.96588,,,1712.8157473954,22.96588,0,0,0,8,2,16.062,1712.8157473954,22.96588,0.894776,0,0,0,-2.460634,188.5, -0.8, 0.3,0,0,1024,1024,1268,1024,0,0,37,0,268.4,-26.1,-28.6,98,4.041,4.062,4.061,4.038,0,0,17.588,91.31,1712.8157473954,22.96588,6,P-GPS,
14100,2025-09-03 10:57:20,0,0,23.622048,,,1713.4719153954,23.622048,0,0,0,8,2,16.062,1713.4719153954,23.622048,0.894776,0,0,0,-2.460634,188.4, -0.9, 0.2,0,0,1024,1024,1264,1024,0,0,36,0,268.7,-25.8,-29.4,98,4.041,4.062,4.061,4.038,0,0,17.588,91.31,1713.4719153954,23.622048,6,P-GPS,
14200,2025-09-03 10:57:20,0,0,23.950132,,,1713.7999993954,23.950132,0,0,0,8,2,16.062,1713.7999993954,23.950132,0.894776,0,0,0,-2.460634,188.4, -1, -0.1,0,0,1024,1024,1262,1024,0,0,36,0,268.7,-25.8,-29.6,98,4.041,4.062,4.061,4.038,0,0,17.588,91.31,1713.7999993954,23.950132,6,P-GPS,
14300,2025-09-03 10:57:20,0,0,24.278216,,,1714.1280833954,24.278216,0,0,0,8,2,16.062,1714.1280833954,24.278216,0.894776,0,0,0,-2.460634,188.4, -0.8, 0,0,0,1024,1024,1260,1024,0,0,36,0,267.9,-25.5,-29.2,98,4.041,4.062,4.061,4.038,0,0,17.588,91.31,1714.1280833954,24.278216,6,P-GPS,
14400,2025-09-03 10:57:20,48.1482704262861,11.5742751732625,24.6063,,,1714.4561673954,24.6063,0,0,0,8,2,16.058,1714.4561673954,24.6063,0.894776,0,0,0,-2.460634,188.3, -0.3, 0.2,0,0,1024,1024,1260,1024,0,0,36,0,268,-25,-29.3,98,4.036,4.054,4.05,4.021,0,0,17.588,91.31,1714.4561673954,24.6063,6,P-GPS,
14500,2025-09-03 10:57:20,48.1482701796485,11.5742770290876,24.934384,,,1714.7842513954,25.262468,0.223694,0.46063649768,0.46063649768,8,2,16.058,1714.7842513954,24.934384,0.894776,0.46063649768,-0.223694,0,-2.460634,188.3, 0, 0.2,0,0,1024,1024,1256,1024,0,0,35,0,267.7,-24.8,-29.1,98,4.036,4.054,4.05,4.021,0,0,17.588,91.31,1714.7842513954,24.934384,6,P-GPS,
14600,2025-09-03 10:57:20,48.1482981362539,11.5741718423839,25.262468,,,1715.1123353954,25.590552,0.223694,27.1094824948,28.022966776,9,2,16.058,1715.1123353954,25.262468,0.894776,27.1094824948,-0.223694,0,-2.460634,188.2, 0.5, 0.2,0,0,1024,1024,1254,1024,0,0,35,0,267.7,-24.8,-29.1,98,4.036,4.054,4.05,4.021,0,0,17.588,91.31,1715.1123353954,25.262468,6,P-GPS,
14700,2025-09-03 10:57:20,48.1485798355699,11.573104155024,25.918636,,,1715.7685033954,25.918636,0,306.598435008,307.512148948,9,2,16.058,1715.7685033954,25.918636,0.894776,306.598435008,0,0,-2.460634,188.2, 0.7, 0.4,0,0,1024,1024,1253,1024,0,0,35,0,267.5,-24.8,-29,98,4.036,4.054,4.05,4.021,0,0,17.588,91.31,1715.7685033954,25.918636,6,P-GPS,
14800,2025-09-03 10:57:20,48.1488362720845,11.5721323492855,26.24672,,,1716.0965873954,26.24672,0,560.9908316,561.90618596,10,2,16.058,1716.0965873954,26.24672,0.894776,560.9908316,0,0,-2.23694,188.2, 0.5, 0.2,0,0,1024,1024,1260,1024,0,0,36,0,267.6,-24.9,-29.1,98,4.036,4.054,4.05,4.021,0,0,17.588,91.31,1716.0965873954,26.24672,6,P-GPS,
14900,2025-09-03 10:57:20,48.1488364288902,11.5721332557085,26.574804,,,1716.4246713954,26.574804,0,560.80710456,562.13256392,10,2,16.058,1716.4246713954,26.574804,0.894776,560.9908316,0,0,-2.23694,188.2, 0.3, 0,0,0,1024,1024,1261,1024,0,0,36,0,267.4,-25.2,-29.3,98,4.036,4.054,4.05,4.021,0,0,17.588,91.31,1716.4246713954,26.574804,6,P-GPS,
15000,2025-09-03 10:57:21,48.1488365750799,11.5721341281759,26.902888,,,1716.7527553954,26.902888,0,560.6299392,562.3523802,8,2,16.058,1716.7527553954,26.902888,0.894776,560.9908316,0,0,-2.23694,188.2, 0.2, -0.1,0,0,1024,1024,1261,1024,0,0,36,0,267.9,-25,-29.4,98,4.036,4.054,4.05,4.021,0,0,17.588,91.31,1716.7527553954,26.902888,6,P-GPS,
15100,2025-09-03 10:57:21,48.148836761606,11.5721346898294,27.230972,,,1717.0808393954,27.230972,0,560.52823316,562.50657968,8,2,16.058,1717.0808393954,27.230972,0.894776,560.9908316,0,0,-2.23694,188.2, 0.2, 0,0,0,1024,1024,1263,1024,0,0,36,0,267.6,-25.2,-29.2,98,4.036,4.054,4.05,4.021,0,0,17.588,91.31,1717.0808393954,27.230972,6,P-GPS,
15200,2025-09-03 10:57:21,48.148836944788,11.5721352331781,27.559056,,,1717.4089233954,27.88714,0,560.42980796,562.65421748,8,2,16.058,1717.4089233954,27.559056,0.894776,560.9908316,0,0,-2.23694,188.3, 0.1, 0,0,0,1024,1024,1257,1024,0,0,35,0,267.4,-25.4,-28.6,98,4.036,4.054,4.05,4.021,0,0,17.588,91.31,1717.4089233954,27.559056,6,P-GPS,
15300,2025-09-03 10:57:21,48.1488364501394,11.5721404175957,27.88714,,,1717.7370073954,28.215224,0,559.18965044,563.9271834,8,2,16.058,1717.7370073954,27.88714,0.894776,560.9908316,0,0,-2.460634,188.3, 0.1, 0.3,0,0,1024,1024,1254,1024,0,0,35,0,267.7,-25.2,-28.6,98,4.036,4.054,4.05,4.021,0,0,17.588,91.31,1717.7370073954,27.88714,6,P-GPS,
15400,2025-09-03 10:57:21,48.1488367314637,11.5721409482483,28.215224,,,1718.0650913954,28.543308,0,559.10762944,564.09450624,9,2,16.025,1718.0650913954,28.215224,0.894776,560.9908316,0,0,-2.23694,188.3, 0.2, 0.6,0,0,1024,1024,1254,1024,0,0,35,0,268,-24.9,-28.6,98,4.023,4.044,4.046,4.023,0,0,17.242,91.31,1718.0650913954,28.215224,6,P-GPS,
15500,2025-09-03 10:57:21,48.1488368992233,11.5721408838386,28.543308,,,1718.3931753954,28.871392,0,559.14699952,564.1568422,9,2,16.025,1718.3931753954,28.543308,0.894776,560.9908316,0,0,-2.23694,188.3, 0.2, 0.7,0,0,1024,1024,1257,1024,0,0,35,0,267.2,-25.4,-28.5,98,4.023,4.044,4.046,4.023,0,0,17.242,91.31,1718.3931753954,28.543308,6,P-GPS,
15600,2025-09-03 10:57:21,48.1488370407644,11.5721408348355,28.871392,,,1718.7212593954,29.199476,0,559.17652708,564.20933564,9,2,16.025,1718.7212593954,28.871392,0.894776,560.9908316,0,0,-2.23694,188.4, 0.3, 0.6,0,0,1024,1024,1252,1024,0,0,35,0,267.2,-25.3,-28.8,98,4.023,4.044,4.046,4.023,0,0,17.242,91.31,1718.7212593954,28.871392,6,P-GPS,
15700,2025-09-03 10:57:21,48.1488361082989,11.5721411018878,29.199476,,,1719.0493433954,29.52756,0,558.9895192,564.55710468,9,2,16.025,1719.0493433954,29.199476,0.894776,560.9908316,0,0,-2.23694,188.4, 0.4, 0.5,0,0,1024,1024,1251,1024,0,0,34,0,266.7,-25.7,-28.5,98,4.023,4.044,4.046,4.023,0,0,17.242,91.31,1719.0493433954,29.199476,6,P-GPS,
15800,2025-09-03 10:57:21,48.1488359504418,11.5721416183439,29.52756,,,1719.3774273954,29.855644,0,558.85172392,564.69489996,10,2,16.025,1719.3774273954,29.52756,0.894776,560.9908316,0,0,-2.23694,188.5, 0, 0.6,0,0,1024,1024,1256,1024,0,0,35,0,267.4,-25.5,-28.6,98,4.023,4.044,4.046,4.023,0,0,17.242,91.31,1719.3774273954,29.52756,6,P-GPS,
15900,2025-09-03 10:57:21,48.148836144366,11.5721421246903,29.855644,,,1719.7055113954,30.183728,0,558.76314124,564.83597608,10,2,16.025,1719.7055113954,29.855644,0.894776,560.9908316,0,0,-2.23694,188.5, -0.2, 0.8,0,0,1024,1024,1273,1024,0,0,38,0,267.4,-25.5,-28.6,98,4.023,4.044,4.046,4.023,0,0,17.242,91.31,1719.7055113954,29.855644,6,P-GPS,
16000,2025-09-03 10:57:22,48.1488363133161,11.5721426359573,30.183728,,,1720.0335953954,30.511812,0,558.67127772,564.9770522,8,2,16.025,1720.0335953954,30.183728,0.894776,560.9908316,0,0,-2.23694,188.5, -0.2, 0.9,0,0,1024,1024,1279,1024,0,0,39,0,267.7,-25.5,-28.6,98,4.023,4.044,4.046,4.023,0,0,17.242,91.31,1720.0335953954,30.183728,6,P-GPS,
16100,2025-09-03 10:57:22,48.1488357730201,11.5721445682745,30.511812,,,1720.3616793954,30.839896,0,558.15946668,565.4855824,8,2,16.025,1720.3616793954,30.511812,0.894776,560.9908316,0,0,-2.23694,188.5, -0.1, 0.9,0,0,1024,1024,1281,1024,0,0,39,0,267.5,-25.5,-28.7,98,4.023,4.044,4.046,4.023,0,0,17.242,91.31,1720.3616793954,30.511812,6,P-GPS,
16200,2025-09-03 10:57:22,48.1488355649862,11.5721455052748,30.839896,,,1720.6897633954,31.16798,0,557.91996536,565.72508372,8,2,16.025,1720.6897633954,30.839896,0.894776,560.9908316,0,0,-2.460634,188.5, 0, 0.7,0,0,1024,1024,1283,1024,0,0,39,0,267.4,-25.4,-28.7,98,4.023,4.044,4.046,4.023,0,0,17.242,91.31,1720.6897633954,30.839896,6,P-GPS,
16300,2025-09-03 10:57:22,48.1488348808235,11.5721473665694,31.16798,,,1721.0178473954,31.496064,0,557.40815432,566.24345644,8,2,16.025,1721.0178473954,31.16798,0.894776,560.9908316,0,0,-2.460634,188.5, 0.2, 0.7,0,0,1024,1024,1283,1024,0,0,39,0,266.9,-25.3,-28.7,98,4.023,4.044,4.046,4.023,0,0,17.242,91.31,1721.0178473954,31.16798,6,P-GPS,
16400,2025-09-03 10:57:22,48.1488342226271,11.5721491373141,31.824148,,,1721.6740153954,31.824148,0,556.91602832,566.73558244,8,2,15.956,1721.6740153954,31.824148,0.894776,560.9908316,0,0,-2.684328,188.5, 0.4, 0.7,0,0,1024,1024,1271,1024,0,0,37,0,266.9,-25,-28.6,97,4.024,4.045,4.042,4.013,0,0,16.962,91.31,1721.6740153954,31.824148,6,P-GPS,
16500,2025-09-03 10:57:22,48.1488325694565,11.5721521539062,32.152232,,,1722.0020993954,32.480316,0.223694,556.01379732,567.68702604,8,2,15.956,1722.0020993954,32.152232,0.894776,560.9908316,-0.223694,0,-2.684328,188.5, 0.7, 0.8,0,0,1024,1024,1276,1024,0,0,38,0,267.1,-24.6,-29.1,97,4.024,4.045,4.042,4.013,0,0,16.962,91.31,1722.0020993954,32.152232,6,P-GPS,
16600,2025-09-03 10:57:22,48.148832207544,11.5721531421708,32.480316,,,1722.3301833954,32.8084,0.223694,555.7414876,567.9626166,8,3,15.956,1722.3301833954,32.480316,0.894776,560.9908316,-0.223694,0,-2.684328,188.6, 0.8, 0.9,0,0,1024,1024,1278,1024,0,0,38,0,266.6,-24.6,-28.9,97,4.024,4.045,4.042,4.013,0,0,16.962,91.31,1722.3301833954,32.480316,6,P-GPS,
16700,2025-09-03 10:57:22,48.1488320183492,11.5721537962848,32.8084,,,1722.6582673954,33.136484,0.223694,555.56760308,568.13650112,8,3,15.956,1722.6582673954,32.8084,0.894776,560.9908316,-0.223694,0,-2.684328,188.5, 1.1, 1,0,0,1024,1024,1278,1024,0,0,38,0,266.5,-24.5,-28.8,97,4.024,4.045,4.042,4.013,0,0,16.962,91.31,1722.6582673954,32.8084,6,P-GPS,
16800,2025-09-03 10:57:22,48.1488318475868,11.5721544005636,33.136484,,,1722.9863513954,33.464568,0,555.40684192,568.29398144,8,3,15.956,1722.9863513954,33.136484,0.894776,560.9908316,0,0,-2.460634,188.6, 1.2, 1,0,0,1024,1024,1277,1024,0,0,38,0,266.2,-24.6,-29.1,97,4.024,4.045,4.042,4.013,0,0,16.962,91.31,1722.9863513954,33.136484,6,P-GPS,
16900,2025-09-03 10:57:22,48.1488315665848,11.5721550284536,33.464568,,,1723.3144353954,33.792652,0,555.22639572,568.47770848,8,3,15.956,1723.3144353954,33.464568,0.894776,560.9908316,0,0,-2.460634,188.6, 1.3, 0.8,0,0,1024,1024,1277,1024,0,0,38,0,266.6,-24.4,-29.5,97,4.024,4.045,4.042,4.013,0,0,16.962,91.31,1723.3144353954,33.464568,6,P-GPS,
17000,2025-09-03 10:57:23,48.1488313545661,11.5721546538564,33.792652,,,1723.6425193954,34.44882,0,555.28217,568.59909956,9,3,15.956,1723.6425193954,33.792652,0.894776,560.9908316,0,0,-2.460634,188.6, 1.1, 0.6,0,0,1024,1024,1279,1024,0,0,39,0,266.7,-24.5,-29.3,97,4.024,4.045,4.042,4.013,0,0,16.962,91.31,1723.6425193954,33.792652,6,P-GPS,
17100,2025-09-03 10:57:23,48.1488312062731,11.5721552232223,34.120736,,,1723.9706033954,34.776904,0,555.1345322,568.74673736,9,3,15.956,1723.9706033954,34.120736,0.894776,560.9908316,0,0,-2.460634,188.6, 1.1, 0.7,0,0,1024,1024,1276,1024,0,0,38,0,266.7,-24.5,-29.3,97,4.024,4.045,4.042,4.013,0,0,16.962,91.31,1723.9706033954,34.120736,6,P-GPS,
17200,2025-09-03 10:57:23,48.1488310816265,11.5721557554203,34.776904,,,1724.6267713954,34.776904,0,554.99673692,568.88453264,9,3,15.956,1724.6267713954,34.776904,0.894776,560.9908316,0,0,-2.684328,188.5, 0.8, 0.8,0,0,1024,1024,1278,1024,0,0,38,0,265.3,-25.3,-28.8,97,4.024,4.045,4.042,4.013,0,0,16.962,91.31,1724.6267713954,34.776904,6,P-GPS,
17300,2025-09-03 10:57:23,48.1488310265529,11.5721562400798,35.104988,,,1724.9548553954,23.622048,0,554.88190752,569.00264288,9,3,15.956,1724.9548553954,35.104988,0.894776,560.9908316,0,0,-2.460634,188.6, 0.9, 0.7,0,0,1024,1024,1277,1024,0,0,38,0,266.3,-24.6,-29.4,97,4.024,4.045,4.042,4.013,0,0,16.962,91.31,1724.9548553954,35.104988,6,P-GPS,
17400,2025-09-03 10:57:23,48.1488311629212,11.5721560308061,35.433072,,,1725.2829393954,23.950132,0,554.94752432,569.07482136,9,3,15.901,1725.2829393954,35.433072,0.894776,560.9908316,0,0,-2.460634,188.6, 1.2, 0.7,0,0,1024,1024,1274,1024,0,0,38,0,266.6,-24.1,-29,97,4.01,4.031,4.029,3.999,0,0,17.698,91.31,1725.2829393954,35.433072,6,P-GPS,
17500,2025-09-03 10:57:23,48.1488307949346,11.5721570405058,35.761156,,,1725.6110233954,24.278216,0,554.66865292,569.35369276,9,3,15.901,1725.6110233954,35.761156,0.894776,560.9908316,0,0,-2.460634,188.6, 1.6, 0.8,0,0,1024,1024,1276,1024,0,0,38,0,265.9,-24.1,-28.9,97,4.01,4.031,4.029,3.999,0,0,17.698,91.31,1725.6110233954,35.761156,6,P-GPS,
17600,2025-09-03 10:57:23,48.1488304077656,11.5721580428759,36.08924,,,1725.9391073954,24.6063,0,554.38978152,569.635845,9,3,15.901,1725.9391073954,36.08924,0.894776,560.9908316,0,0,-2.460634,188.6, 1.7, 0.9,0,0,1024,1024,1274,1024,0,0,38,0,266,-24.1,-28.7,97,4.01,4.031,4.029,3.999,0,0,17.698,91.31,1725.9391073954,36.08924,6,P-GPS,
17700,2025-09-03 10:57:23,48.1488298812497,11.5721590732707,36.417324,,,1726.2671913954,24.934384,0,554.0846634,569.95408648,9,3,15.901,1726.2671913954,36.417324,0.894776,560.9908316,0,0,-2.460634,188.6, 1.6, 0.9,0,0,1024,1024,1273,1024,0,0,38,0,265.9,-24.2,-28.8,97,4.01,4.031,4.029,3.999,0,0,17.698,91.31,1726.2671913954,36.417324,6,P-GPS,
17800,2025-09-03 10:57:23,48.1488285042358,11.5721610091769,36.745408,,,1726.5952753954,25.262468,0,553.4613038,570.64306288,10,3,15.901,1726.5952753954,36.745408,0.894776,560.9908316,0,0,-2.460634,188.6, 1.2, 1,0,0,1024,1024,1273,1024,0,0,38,0,265.7,-24.5,-29.1,97,4.01,4.031,4.029,3.999,0,0,17.698,91.31,1726.5952753954,36.745408,6,P-GPS,
17900,2025-09-03 10:57:23,48.1488275576042,11.5721620229241,37.073492,,,1726.9233593954,25.590552,0,553.10697308,571.06629124,10,3,15.901,1726.9233593954,37.073492,0.894776,560.9908316,0,0,-2.460634,188.5, 1.1, 1,0,0,1024,1024,1273,1024,0,0,38,0,264.9,-25,-28.9,97,4.01,4.031,4.029,3.999,0,0,17.698,91.31,1726.9233593954,37.073492,6,P-GPS,
18000,2025-09-03 10:57:24,48.1488266399757,11.5721629711193,37.401576,,,1727.2514433954,25.590552,0,552.76904656,571.4731154,10,3,15.901,1727.2514433954,37.401576,0.894776,560.9908316,0,0,-2.460634,188.5, 1.2, 0.7,0,0,1024,1024,1273,1024,0,0,38,0,264.6,-24.9,-29.6,97,4.01,4.031,4.029,3.999,0,0,17.698,91.31,1727.2514433954,37.401576,6,P-GPS,
18100,2025-09-03 10:57:24,48.1488255904622,11.5721637112125,37.72966,,,1727.5795273954,25.590552,0,552.4606476,571.89634376,10,3,15.901,1727.5795273954,37.72966,0.894776,560.9908316,0,0,-2.460634,188.5, 1.1, 0.6,0,0,1024,1024,1274,1024,0,0,38,0,264.7,-24.9,-29.9,97,4.01,4.031,4.029,3.999,0,0,17.698,91.31,1727.5795273954,37.72966,6,P-GPS,
18200,2025-09-03 10:57:24,48.1488227194951,11.5721643530683,38.057744,,,1727.9076113954,25.590552,0,551.93243236,572.95605508,10,3,15.901,1727.9076113954,38.057744,0.894776,560.9908316,0,0,-2.460634,188.5, 0.9, 0.4,0,0,1024,1024,1273,1024,0,0,38,0,264.3,-25.3,-30.1,97,4.01,4.031,4.029,3.999,0,0,17.698,91.31,1727.9076113954,38.057744,6,P-GPS,
18300,2025-09-03 10:57:24,48.1488215314247,11.5721648888405,38.057744,,,1727.9076113954,25.590552,0,551.65028012,573.408811,10,3,15.901,1727.9076113954,38.057744,0.894776,560.9908316,0,0,-2.460634,188.5, 0.7, 0.1,0,0,1024,1024,1273,1024,0,0,38,0,264.8,-25.1,-29.8,97,4.01,4.031,4.029,3.999,0,0,17.698,91.31,1727.9076113954,38.057744,6,P-GPS,
18400,2025-09-03 10:57:24,48.1488203304627,11.5721654172205,38.385828,,,1728.2356953954,25.918636,0,551.37140872,573.86484776,10,3,15.94,1728.2356953954,38.385828,0.894776,560.9908316,0,0,-2.23694,188.5, 0.7, 0.1,0,0,1024,1024,1273,1024,0,0,38,0,264.8,-25.1,-29.8,97,4.01,4.031,4.029,3.999,0,0,17.698,91.31,1728.2356953954,38.385828,6,P-GPS,
18500,2025-09-03 10:57:24,48.1488179930944,11.5721664478785,38.713912,,,1728.5637793954,25.918636,0,550.83007012,574.7539554,10,3,15.94,1728.5637793954,38.713912,0.894776,560.9908316,0,0,-2.460634,188.6, 0.6, 0,0,0,1024,1024,1274,1024,0,0,38,0,264.2,-25.5,-30.2,97,4.01,4.031,4.029,3.999,0,0,17.698,91.31,1728.5637793954,38.713912,6,P-GPS,
18600,2025-09-03 10:57:24,48.1488157197703,11.5721674633349,39.041996,,,1728.8918633954,26.24672,0,550.29857404,575.62009716,10,4,15.94,1728.8918633954,39.041996,0.894776,560.9908316,0,0,-2.460634,188.6, 0.4, 0.2,0,0,1024,1024,1271,1024,0,0,37,0,264.1,-25.7,-29.3,97,4.01,4.031,4.029,3.999,0,0,17.698,91.31,1728.8918633954,39.041996,6,P-GPS,
18700,2025-09-03 10:57:24,48.148808754119,11.5721696637473,39.041996,,,1728.8918633954,26.574804,0,548.884532,578.2152416,10,4,15.94,1728.8918633954,39.041996,0.894776,560.9908316,0,0,-2.460634,188.6, 0.3, 0.3,0,0,1024,1024,1274,1024,0,0,38,0,263.7,-26,-29.3,97,4.01,4.031,4.029,3.999,0,0,17.698,91.31,1728.8918633954,39.041996,6,P-GPS,
18800,2025-09-03 10:57:24,48.1488064458533,11.5721710038005,39.698164,,,1729.5480313954,26.574804,0,548.2775766,579.12075344,11,4,15.94,1729.5480313954,39.698164,0.894776,560.9908316,0,0,-2.460634,188.6, 0.5, 0.2,0,0,1024,1024,1277,1024,0,0,38,0,264,-25.6,-29.5,97,4.01,4.031,4.029,3.999,0,0,17.698,91.31,1729.5480313954,39.698164,6,P-GPS,
18900,2025-09-03 10:57:24,48.1488045759046,11.5721721802858,40.026248,,,1729.8761153954,26.902888,0,547.7690464,579.85894244,11,4,15.94,1729.8761153954,40.026248,0.894776,560.9908316,0,0,-2.460634,188.6, 0.6, 0.2,0,0,1024,1024,1275,1024,0,0,38,0,264.1,-25.5,-29.2,97,4.01,4.031,4.029,3.999,0,0,17.698,91.31,1729.8761153954,40.026248,6,P-GPS,
19000,2025-09-03 10:57:25,48.1488028581698,11.5721732866435,40.354332,,,1730.2041993954,27.230972,0,547.2933246,580.54135716,11,4,15.94,1730.2041993954,40.354332,0.894776,560.9908316,0,0,-2.460634,188.7, 0.7, 0.4,0,0,1024,1024,1277,1024,0,0,38,0,263.9,-25.7,-29.4,97,4.01,4.031,4.029,3.999,0,0,17.698,91.31,1730.2041993954,40.354332,6,P-GPS,
19100,2025-09-03 10:57:25,48.1488038976446,11.572173780637,40.354332,,,1730.2041993954,27.559056,0,547.31629048,580.9383388,11,4,15.94,1730.2041993954,40.354332,0.894776,560.9908316,0,0,-2.460634,188.7, 0.5, 0.4,0,0,1024,1024,1274,1024,0,0,38,0,263.8,-25.9,-29.5,97,4.01,4.031,4.029,3.999,0,0,17.698,91.31,1730.2041993954,40.354332,6,P-GPS,
19200,2025-09-03 10:57:25,48.1488034029396,11.5721745123061,41.0105,,,1730.8603673954,27.88714,0,547.08663168,581.19424432,11,4,15.94,1730.8603673954,41.0105,0.894776,560.9908316,0,0,-2.460634,188.7, 0.2, 0.6,0,0,1024,1024,1272,1024,0,0,38,0,264.2,-25.8,-29.6,97,4.01,4.031,4.029,3.999,0,0,17.698,91.31,1730.8603673954,41.0105,6,P-GPS,
19300,2025-09-03 10:57:25,48.1488032448405,11.5721752375331,41.338584,,,1731.1884513954,28.215224,0,546.8996238,581.37797136,11,4,15.94,1731.1884513954,41.338584,0.894776,560.9908316,0,0,-2.460634,188.7, 0.1, 0.6,0,0,1024,1024,1275,1024,0,0,38,0,263.9,-25.9,-30.1,97,4.01,4.031,4.029,3.999,0,0,17.698,91.31,1731.1884513954,41.338584,6,P-GPS,
19400,2025-09-03 10:57:25,48.148803125215,11.5721759025539,41.994752,,,1731.8446193954,28.543308,0,546.73230096,581.5452942,11,4,15.952,1731.8446193954,41.994752,0.894776,560.9908316,0,0,-2.684328,188.7, 0.2, 0.5,0,0,1024,1024,1273,1024,0,0,38,0,263.2,-26.1,-30,97,4.013,4.034,4.03,3.998,0,0,17.34,91.31,1731.8446193954,41.994752,6,P-GPS,"Home Point recorded. Return-to-Home Altitude:100M"
19500,2025-09-03 10:57:25,48.148805571786,11.5721753246789,42.322836,,,1732.1727033954,28.871392,0,547.18177604,582.45080604,11,4,15.952,1732.1727033954,42.322836,0.894776,560.9908316,0,0,-2.684328,188.7, 0.4, 0.3,0,0,1024,1024,1273,1024,0,0,38,0,263.5,-25.8,-30.2,97,4.013,4.034,4.03,3.998,0,0,17.34,91.31,1732.1727033954,42.322836,6,P-GPS,
19600,2025-09-03 10:57:25,48.1488053158761,11.5721757529551,42.65092,,,1732.5007873954,29.199476,0,547.05054244,582.58860132,11,4,15.952,1732.5007873954,42.65092,0.894776,560.9908316,0,0,-2.460634,188.6, 0.5, 0.1,0,0,1024,1024,1274,1024,0,0,38,0,264.1,-25.5,-30.4,97,4.013,4.034,4.03,3.998,0,0,17.34,91.31,1732.5007873954,42.65092,6,P-GPS,
19700,2025-09-03 10:57:25,48.1488048086744,11.5721761775401,42.65092,,,1732.5007873954,29.52756,0,546.88978128,582.80185592,11,4,15.952,1732.5007873954,42.65092,0.894776,560.9908316,0,0,-2.460634,188.6, 0.6, 0.1,0,0,1024,1024,1276,1024,0,0,38,0,264.1,-25.5,-30.4,97,4.013,4.034,4.03,3.998,0,0,17.34,91.31,1732.5007873954,42.65092,6,P-GPS,
19800,2025-09-03 10:57:25,48.148804327505,11.572176588859,42.979004,,,1732.8288713954,29.855644,0,546.73230096,583.005268,11,4,15.952,1732.8288713954,42.979004,0.894776,560.9908316,0,0,-2.460634,188.6, 0.6, 0.2,0,0,1024,1024,1276,1024,0,0,38,0,263.1,-26.1,-30.1,97,4.013,4.034,4.03,3.998,0,0,17.34,91.31,1732.8288713954,42.979004,6,P-GPS,
19900,2025-09-03 10:57:25,48.148804091905,11.5721759242971,43.307088,,,1733.1569553954,30.183728,0,546.85369204,583.1857142,11,4,15.952,1733.1569553954,43.307088,0.894776,560.9908316,0,0,-2.460634,188.6, 0.7, 0.3,0,0,1024,1024,1276,1024,0,0,38,0,263.3,-25.9,-30,97,4.013,4.034,4.03,3.998,0,0,17.34,91.31,1733.1569553954,43.307088,6,P-GPS,
20000,2025-09-03 10:57:26,48.1488035347263,11.5721762073527,43.635172,,,1733.4850393954,30.511812,0,546.71589676,583.40224964,11,4,15.952,1733.4850393954,43.635172,0.894776,560.9908316,0,0,-2.460634,188.5, 0.8, 0.6,0,0,1024,1024,1276,1024,0,0,38,0,264.3,-25.3,-29.3,97,4.013,4.034,4.03,3.998,0,0,17.34,91.31,1733.4850393954,43.635172,6,P-GPS,
20100,2025-09-03 10:57:26,48.1488029418685,11.5721764298972,43.963256,,,1733.8131233954,30.839896,0,546.587944,583.62534676,11,4,15.952,1733.8131233954,43.963256,0.894776,560.9908316,0,0,-2.460634,188.4, 0.8, 0.8,0,0,1024,1024,1275,1024,0,0,38,0,264.1,-25.3,-29.7,97,4.013,4.034,4.03,3.998,0,0,17.34,91.31,1733.8131233954,43.963256,6,P-GPS,
20200,2025-09-03 10:57:26,48.1488023454248,11.5721766363639,44.619424,,,1734.4692913954,31.16798,0,546.46327208,583.84844388,11,4,15.952,1734.4692913954,44.619424,0.894776,560.9908316,0,0,-2.460634,188.4, 0.5, 0.3,0,0,1024,1024,1274,1024,0,0,38,0,261.7,-26.7,-30.2,97,4.013,4.034,4.03,3.998,0,0,17.34,91.31,1734.4692913954,44.619424,6,P-GPS,
