time(millisecond),datetime(utc),latitude,longitude,height_above_takeoff(feet),height_above_ground_at_drone_location(feet),ground_elevation_at_drone_location(feet),altitude_above_seaLevel(feet),height_sonar(feet),speed(mph),distance(feet),mileage(feet),satellites,gpslevel,voltage(v),max_altitude(feet),max_ascent(feet),max_speed(mph),max_distance(feet), xSpeed(mph), ySpeed(mph), zSpeed(mph), compass_heading(degrees), pitch(degrees), roll(degrees),isPhoto,isVideo,rc_elevator,rc_aileron,rc_throttle,rc_rudder,rc_elevator(percent),rc_aileron(percent),rc_throttle(percent),rc_rudder(percent),gimbal_heading(degrees),gimbal_pitch(degrees),gimbal_roll(degrees),battery_percent,voltageCell1,voltageCell2,voltageCell3,voltageCell4,voltageCell5,voltageCell6,current(A),battery_temperature(f),altitude(feet),ascent(feet),flycStateRaw,flycState,message
37000,2025-09-03 17:17:03,48.1487670779886,11.5721704673454,0,Available with any HD 360 subscription,Available with any HD 360 subscription,1692.870386849,0.656168,0,0,0,8,4,17.119,1692.870386849,0,0,0,0,0,0,198.5, -1.7, -0.1,0,0,364,364,364,1640,-100,-100,-100,93,0,0,0,99,4.282,4.287,4.29,4.286,0,0,1.542,93.11,1692.870386849,0,41,Motors_Started,"Setting new Return-To-Home altitude to 100m (328 ft). Data Recorder File Index is 246. Setting new Maximum Flight Altitude to 500m (1640 ft)"
37100,2025-09-03 17:17:03,48.1487671142378,11.5721704800113,0,,,1692.870386849,0.656168,0,0.0135801185448,0.0135801185448,8,4,17.119,1692.870386849,0,0,0.0135801185448,0,0,0,198, -1.7, -0.1,0,0,606,452,536,1529,-63,-87,-74,77,247.8,-34.6,-39.9,99,4.282,4.287,4.29,4.286,0,0,1.542,93.11,1692.870386849,0,41,Motors_Started,
37200,2025-09-03 17:17:03,48.1487671560855,11.5721704955467,0,,,1692.870386849,0.656168,0,0.0293089248224,0.0293096137988,8,4,17.119,1692.870386849,0,0,0.0293089248224,0,0,0,198.3, -1.7, -0.1,0,0,1024,1024,1024,1024,0,0,0,0,247.5,-34.7,-40,99,4.282,4.287,4.29,4.286,0,0,1.542,93.11,1692.870386849,0,41,Motors_Started,
37300,2025-09-03 17:17:03,48.1487672496771,11.5721704758128,0.328084,,,1693.198470849,0.656168,0,0.062674214604,0.06379265296,8,4,17.119,1693.198470849,0.328084,0,0.062674214604,0,0,0,198.3, -1.7, -0.1,0,0,1024,1024,1024,1024,0,0,0,0,247.6,-34.7,-39.8,99,4.282,4.287,4.29,4.286,0,0,1.542,93.11,1693.198470849,0.328084,41,Motors_Started,
37400,2025-09-03 17:17:04,48.1487673114505,11.5721705243289,0,,,1692.870386849,0.656168,0,0.086300527696,0.089237535664,8,4,17.119,1693.198470849,0.328084,0,0.086300527696,0,0,0,198.5, -1.7, -0.2,0,0,1024,1024,1024,1024,0,0,0,0,247.4,-34.8,-39.9,99,4.282,4.287,4.29,4.286,0,0,1.542,93.11,1692.870386849,0,41,Motors_Started,
37500,2025-09-03 17:17:04,48.1487673264582,11.5721704814878,0,,,1692.870386849,0.328084,0,0.090719491092,0.101016407432,8,4,17.119,1693.198470849,0.328084,0,0.090719491092,0,0,0,198.4, -1.7, -0.1,0,0,1024,1024,1024,1024,0,0,0,0,247.4,-34.7,-39.8,99,4.282,4.287,4.29,4.286,0,0,1.542,93.11,1692.870386849,0,41,Motors_Started,
37600,2025-09-03 17:17:04,48.148767341054,11.5721704400108,0,,,1692.870386849,0.328084,0,0.096209648748,0.11243110596,8,4,17.119,1693.198470849,0.328084,0,0.096209648748,0,0,0,198.4, -1.7, -0.2,0,0,1024,1024,1024,1024,0,0,0,0,247.3,-34.8,-39.9,99,4.282,4.287,4.29,4.286,0,0,1.542,93.11,1692.870386849,0,41,Motors_Started,
37700,2025-09-03 17:17:04,48.1487673659366,11.57217044159,0,,,1692.870386849,0.328084,0,0.10524442594,0.121517720424,8,4,17.119,1693.198470849,0.328084,0,0.10524442594,0,0,0,198.4, -1.7, -0.2,0,0,1024,1024,1024,1024,0,0,0,0,247.3,-34.8,-39.8,99,4.282,4.287,4.29,4.286,0,0,1.542,93.11,1692.870386849,0,41,Motors_Started,
37800,2025-09-03 17:17:04,48.1487674098329,11.5721704769395,0,,,1692.870386849,0.328084,0,0.1210958044,0.139698495284,8,4,17.119,1693.198470849,0.328084,0,0.1210958044,0,0,0,198.4, -1.7, -0.1,0,0,1024,1024,1024,1024,0,0,0,0,247.3,-34.8,-39.6,99,4.282,4.287,4.29,4.286,0,0,1.542,93.11,1692.870386849,0,41,Motors_Started,
37900,2025-09-03 17:17:04,48.1487674643581,11.5721705381214,0,,,1692.870386849,0.328084,0,0.142015752576,0.164549545948,8,4,17.119,1693.198470849,0.328084,0,0.142015752576,0,0,0,198.4, -1.7, -0.1,0,0,1024,1024,1024,1024,0,0,0,0,247.1,-34.9,-39.7,99,4.282,4.287,4.29,4.286,0,0,1.542,93.11,1692.870386849,0,41,Motors_Started,
38000,2025-09-03 17:17:04,48.1487675211827,11.5721706010494,0,,,1692.870386849,0.328084,0,0.164942262496,0.190327105828,8,4,17.149,1693.198470849,0.328084,0,0.164942262496,0,0,0,198.4, -1.7, -0.1,0,0,1024,1024,1024,1024,0,0,0,0,247,-35,-39.7,99,4.246,4.254,4.257,4.247,0,0,2.888,93.11,1692.870386849,0,41,Motors_Started,
38100,2025-09-03 17:17:04,48.1487676279923,11.5721706334876,0,,,1692.870386849,0.328084,0,0.204703418624,0.23008859004,8,4,17.149,1693.198470849,0.328084,0,0.204703418624,0,0,0,198.4, -1.7, -0.1,0,0,1024,1024,1024,1024,0,0,0,0,247,-35,-39.7,99,4.246,4.254,4.257,4.247,0,0,2.888,93.11,1692.870386849,0,41,Motors_Started,
38200,2025-09-03 17:17:04,48.1487676843951,11.5721706416148,0,,,1692.870386849,0.328084,0,0.22527723818,0.250761819048,8,4,17.149,1693.198470849,0.328084,0,0.22527723818,0,0,0,198.3, -1.7, -0.1,0,0,1024,1024,1024,1024,0,0,0,0,246.7,-35.2,-39.8,99,4.246,4.254,4.257,4.247,0,0,2.888,93.11,1692.870386849,0,41,Motors_Started,
38300,2025-09-03 17:17:04,48.1487676872986,11.5721706307754,0,,,1692.870386849,0.328084,0,0.225837933736,0.253605323076,8,4,17.149,1693.198470849,0.328084,0,0.225837933736,0,0,0,198.3, -1.7, -0.1,0,0,1024,1024,1024,1024,0,0,0,0,246.8,-35,-39.5,99,4.246,4.254,4.257,4.247,0,0,2.888,93.11,1692.870386849,0,41,Motors_Started,
38400,2025-09-03 17:17:05,48.1487676898944,11.5721706199198,0,,,1692.870386849,0.328084,0,0.226321857636,0.25641240978,8,4,17.149,1693.198470849,0.328084,0,0.226321857636,0,0,0,198.3, -1.7, -0.1,0,0,1024,1024,1024,1024,0,0,0,0,246.7,-35.1,-39.6,99,4.246,4.254,4.257,4.247,0,0,2.888,93.11,1692.870386849,0,41,Motors_Started,
38500,2025-09-03 17:17:05,48.1487676737826,11.5721706606746,0,,,1692.870386849,0.328084,0,0.222411096356,0.267943906212,8,4,17.149,1693.198470849,0.328084,0,0.226321857636,0,0,0,198.3, -1.8, -0.1,0,0,1024,1024,1024,1024,0,0,0,0,246.7,-35.1,-39.6,99,4.246,4.254,4.257,4.247,0,0,2.888,93.11,1692.870386849,0,10,Assisted_Takeoff,
38600,2025-09-03 17:17:05,48.1487677104616,11.5721706949424,0,,,1692.870386849,0.328084,0,0.237315296308,0.283713263672,8,4,17.149,1693.198470849,0.328084,0,0.237315296308,0,0,0,198.3, -1.8, -0.2,0,0,1024,1024,1024,1024,0,0,0,0,246.7,-35.1,-39.6,99,4.246,4.254,4.257,4.247,0,0,2.888,93.11,1692.870386849,0,10,Assisted_Takeoff,
38700,2025-09-03 17:17:05,48.1487677595641,11.5721706979949,0,,,1692.870386849,0.328084,0,0.254932094772,0.30164371044,8,4,17.149,1693.198470849,0.328084,0,0.254932094772,0,0,0,198.3, -1.8, -0.2,0,0,1024,1024,1024,1024,0,0,0,0,246.5,-35.2,-39.6,99,4.246,4.254,4.257,4.247,0,0,2.888,93.11,1692.870386849,0,10,Assisted_Takeoff,
38800,2025-09-03 17:17:05,48.1487678099384,11.5721707009832,0,,,1692.870386849,0.328084,0,0.273040363068,0.320037083732,8,4,17.149,1693.198470849,0.328084,0,0.273040363068,0,0,0,198.3, -1.7, -0.2,0,0,1024,1024,1024,1024,0,0,0,0,246.4,-35.3,-39.6,99,4.246,4.254,4.257,4.247,0,0,2.888,93.11,1692.870386849,0,10,Assisted_Takeoff,
38900,2025-09-03 17:17:05,48.1487677647116,11.5721707408649,0,,,1692.870386849,0.328084,0,0.259246399372,0.33918308172,8,4,17.149,1693.198470849,0.328084,0,0.273040363068,0,0,0,198.3, -1.7, -0.2,0,0,1024,1024,1024,1024,0,0,0,0,246.3,-35.3,-39.6,99,4.246,4.254,4.257,4.247,0,0,2.888,93.11,1692.870386849,0,10,Assisted_Takeoff,
39000,2025-09-03 17:17:05,48.1487676088011,11.5721708522866,0,,,1692.870386849,0.328084,0,0.215145020008,0.40220145644,8,4,17.088,1693.198470849,0.328084,0,0.273040363068,0,0,0,198.3, -1.7, -0.2,0,0,1024,1024,1024,1024,0,0,0,0,246.2,-35.4,-39.5,99,4.246,4.254,4.257,4.247,0,0,2.888,93.11,1692.870386849,0,10,Assisted_Takeoff,
39100,2025-09-03 17:17:05,48.1487676282317,11.5721709121332,0,,,1692.870386849,0.328084,0,0.2280921989,0.41840224436,8,4,17.088,1693.198470849,0.328084,0,0.273040363068,0,0,0,198.3, -1.7, -0.2,0,0,1024,1024,1024,1024,0,0,0,0,246,-35.5,-39.6,99,4.246,4.254,4.257,4.247,0,0,2.888,93.11,1692.870386849,0,10,Assisted_Takeoff,
39200,2025-09-03 17:17:05,48.1487676512025,11.572170973267,0,,,1692.870386849,0.328084,0,0.242704076008,0.4354822974,8,4,17.088,1693.198470849,0.328084,0,0.273040363068,0,0,0,198.3, -1.7, -0.1,0,0,1024,1024,1024,1024,0,0,0,0,246,-35.5,-39.6,99,4.246,4.254,4.257,4.247,0,0,2.888,93.11,1692.870386849,0,10,Assisted_Takeoff,
39300,2025-09-03 17:17:05,48.1487676557964,11.5721710327381,0,,,1692.870386849,0.328084,0,0.251762803332,0.45005578868,8,4,17.088,1693.198470849,0.328084,0,0.273040363068,0,0,0,198.3, -1.7, -0.1,0,0,1024,1024,1024,1024,0,0,0,0,245.9,-35.5,-39.6,99,4.246,4.254,4.257,4.247,0,0,2.888,93.11,1692.870386849,0,10,Assisted_Takeoff,
39400,2025-09-03 17:17:06,48.1487676730335,11.572171171857,0,,,1692.870386849,0.328084,0,0.27666667552,0.48450132784,8,4,17.088,1693.198470849,0.328084,0,0.27666667552,0,0,0,198.3, -1.7, -0.2,0,0,1024,1024,1024,1024,0,0,0,0,245.8,-35.6,-39.6,99,4.246,4.254,4.257,4.247,0,0,2.888,93.11,1692.870386849,0,10,Assisted_Takeoff,
39500,2025-09-03 17:17:06,48.1487677180941,11.5721711768065,0,,,1692.870386849,0.328084,0,0.290461623468,0.500984268,8,4,17.088,1693.198470849,0.328084,0,0.290461623468,0,0,0,198.3, -1.7, -0.1,0,0,1024,1024,1024,1024,0,0,0,0,245.6,-35.7,-39.7,99,4.246,4.254,4.257,4.247,0,0,2.888,93.11,1692.870386849,0,10,Assisted_Takeoff,
39600,2025-09-03 17:17:06,48.1487677653597,11.5721711809889,0,,,1692.870386849,0.328084,0,0.305078421836,0.5182578906,8,4,17.088,1693.198470849,0.328084,0,0.305078421836,0,0,0,198.3, -1.7, -0.2,0,0,1024,1024,1024,1024,0,0,0,0,245.6,-35.7,-39.5,99,4.246,4.254,4.257,4.247,0,0,2.888,93.11,1692.870386849,0,10,Assisted_Takeoff,
39700,2025-09-03 17:17:06,48.1487677764901,11.5721712141108,0,,,1692.870386849,0.328084,0,0.313037411592,0.52728676228,8,4,17.088,1693.198470849,0.328084,0,0.313037411592,0,0,0,198.3, -1.7, -0.2,0,0,1024,1024,1024,1024,0,0,0,0,245.5,-35.7,-39.6,99,4.246,4.254,4.257,4.247,0,0,2.888,93.11,1692.870386849,0,10,Assisted_Takeoff,
39800,2025-09-03 17:17:06,48.148767826739,11.5721712054187,0,,,1692.870386849,0.328084,0,0.326968186316,0.54574148728,8,4,17.088,1693.198470849,0.328084,0,0.326968186316,0,0,0,198.2, -1.7, -0.1,0,0,1024,1024,1024,1024,0,0,0,0,245.5,-35.7,-39.6,99,4.246,4.254,4.257,4.247,0,0,2.888,93.11,1692.870386849,0,10,Assisted_Takeoff,
39900,2025-09-03 17:17:06,48.1487678208832,11.5721712568171,0,,,1692.870386849,0.328084,0,0.33226050932,0.55843505724,8,4,17.088,1693.198470849,0.328084,0,0.33226050932,0,0,0,198.2, -1.7, -0.1,0,0,1024,1024,1026,1024,0,0,0,0,245.3,-35.8,-39.6,99,4.246,4.254,4.257,4.247,0,0,2.888,93.11,1692.870386849,0,10,Assisted_Takeoff,
40000,2025-09-03 17:17:06,48.1487678141381,11.5721713086232,0,,,1692.870386849,0.328084,0,0.33775263548,0.57128282668,8,4,16.95,1693.198470849,0.328084,0,0.33775263548,0,0,0,198.2, -1.7, -0.1,0,0,1024,1024,1073,1024,0,0,7,0,245.3,-35.8,-39.5,98,4.262,4.273,4.272,4.264,0,0,3.058,93.11,1692.870386849,0,10,Assisted_Takeoff,
40100,2025-09-03 17:17:06,48.1487678572952,11.5721712643024,0,,,1692.870386849,0.328084,0,0.3442093286,0.5903707538,8,4,16.95,1693.198470849,0.328084,0,0.3442093286,0,0,0,198.2, -1.7, -0.2,0,0,1024,1024,1124,1024,0,0,15,0,245.2,-35.9,-39.6,98,4.262,4.273,4.272,4.264,0,0,3.058,93.11,1692.870386849,0,10,Assisted_Takeoff,
40200,2025-09-03 17:17:06,48.1487679149307,11.5721711159809,0,,,1692.870386849,0.328084,0,0.3437664152,0.63215553204,8,4,16.95,1693.198470849,0.328084,0,0.3442093286,0,0,0,198.2, -1.7, -0.2,0,0,1024,1024,1150,1024,0,0,19,0,245.1,-35.9,-39.5,98,4.262,4.273,4.272,4.264,0,0,3.058,93.11,1692.870386849,0,10,Assisted_Takeoff,
40300,2025-09-03 17:17:06,48.1487678722964,11.5721711921975,0,,,1692.870386849,0.328084,0,0.33929463028,0.6563648504,8,4,16.95,1693.198470849,0.328084,0,0.3442093286,0,0,0,198.2, -1.7, -0.2,0,0,1024,1024,1156,1024,0,0,20,0,245.1,-35.9,-39.5,98,4.262,4.273,4.272,4.264,0,0,3.058,93.11,1692.870386849,0,10,Assisted_Takeoff,
40400,2025-09-03 17:17:06,48.1487678293315,11.5721712658045,0,,,1692.870386849,0.328084,0,0.336040037,0.68017390628,8,4,16.95,1693.198470849,0.328084,0,0.3442093286,0,0,0,198.2, -1.8, -0.2,0,0,1024,1024,1160,1024,0,0,21,0,245,-36,-39.5,98,4.262,4.273,4.272,4.264,0,0,3.058,93.11,1692.870386849,0,10,Assisted_Takeoff,
40500,2025-09-03 17:17:07,48.148767806587,11.5721713378645,0,,,1692.870386849,0.328084,0,0.33995407912,0.69957679404,8,4,16.95,1693.198470849,0.328084,0,0.3442093286,0,0,0,198.2, -1.8, -0.2,0,0,1024,1024,1162,1024,0,0,21,0,245,-36,-39.5,98,4.262,4.273,4.272,4.264,0,0,3.058,93.11,1692.870386849,0,10,Assisted_Takeoff,
40600,2025-09-03 17:17:07,48.1487677819943,11.5721714096259,0,,,1692.870386849,0.328084,0,0.34436680892,0.71921590228,9,4,16.95,1693.198470849,0.328084,0,0.34436680892,0,0,0,198.2, -1.8, -0.2,0,0,1024,1024,1162,1024,0,0,21,0,244.7,-36.3,-39.5,98,4.262,4.273,4.272,4.264,0,0,3.058,93.11,1692.870386849,0,10,Assisted_Takeoff,
40700,2025-09-03 17:17:07,48.1487677217353,11.5721715410285,0,,,1692.870386849,0.328084,0,0.35139108736,0.75802823948,9,4,16.95,1693.198470849,0.328084,0,0.35139108736,0,0,0,198.2, -1.9, -0.2,0,0,1024,1024,1159,1024,0,0,20,0,244.8,-36.2,-39.5,98,4.262,4.273,4.272,4.264,0,0,3.058,93.11,1692.870386849,0,10,Assisted_Takeoff,
40800,2025-09-03 17:17:07,48.1487676532544,11.5721716844357,0,,,1692.870386849,0.328084,0,0.36308400112,0.80095803088,9,4,16.95,1693.198470849,0.328084,0,0.36308400112,0,0,0,198.2, -2, -0.1,0,0,1024,1024,1157,1024,0,0,20,0,244.9,-36.4,-39.3,98,4.262,4.273,4.272,4.264,0,0,3.058,93.11,1692.870386849,0,10,Assisted_Takeoff,
40900,2025-09-03 17:17:07,48.148767641953,11.5721716486305,0,,,1692.870386849,0.328084,0,0.353592531,0.81060041964,9,4,16.95,1693.198470849,0.328084,0,0.36308400112,0,0,0,198.3, -2.2, -0.1,0,0,1024,1024,1161,1024,0,0,21,0,244.5,-37.1,-39.1,98,4.262,4.273,4.272,4.264,0,0,3.058,93.11,1692.870386849,0,10,Assisted_Takeoff,
41000,2025-09-03 17:17:07,48.1487676304513,11.5721715931877,0,,,1692.870386849,0.328084,0,0.34020342296,0.82473427836,9,4,16.973,1693.198470849,0.328084,0,0.36308400112,0,0,0,198.3, -2.7, -0.1,0,0,1024,1024,1162,1024,0,0,21,0,244.5,-37.8,-39.2,98,4.272,4.278,4.277,4.267,0,0,2.078,93.11,1692.870386849,0,10,Assisted_Takeoff,
41100,2025-09-03 17:17:07,48.1487675161769,11.5721710775789,0,,,1692.870386849,0.328084,0,0.218232946616,0.95699150044,9,4,16.973,1693.198470849,0.328084,0,0.36308400112,0,0,0,198.3, -3.7, -0.1,0,0,1024,1024,1162,1024,0,0,21,0,244,-40,-39.6,98,4.272,4.278,4.277,4.267,0,0,2.078,93.11,1692.870386849,0,10,Assisted_Takeoff,
41200,2025-09-03 17:17:07,48.1487674199342,11.5721709200742,0,,,1692.870386849,0.328084,0,0.166463916088,1.00898297192,9,4,16.973,1693.198470849,0.328084,0,0.36308400112,0,0,0,198.6, -5.7, -0.2,0,0,1024,1024,1161,1024,0,0,21,0,244,-40,-39.6,98,4.272,4.278,4.277,4.267,0,0,2.078,93.11,1692.870386849,0,10,Assisted_Takeoff,
41300,2025-09-03 17:17:07,48.1487672595487,11.5721707177961,0,,,1692.870386849,0.328084,0.223694,0.090027233852,1.08545935232,9,4,16.973,1693.198470849,0.328084,0.223694,0.36308400112,-0.223694,0,-0.223694,199.3, -7.7, 0.1,0,0,1024,1024,1162,1024,0,0,21,0,244.6,-41.9,-38.6,98,4.272,4.278,4.277,4.267,0,0,2.078,93.11,1692.870386849,0,10,Assisted_Takeoff,
41400,2025-09-03 17:17:08,48.1487670179284,11.5721704487061,0,,,1692.870386849,0.328084,0.4921268,0.0223777566216,1.19528547132,9,4,16.973,1693.198470849,0.328084,0.4921268,0.36308400112,-0.447388,-0.223694,-0.447388,199.9, -6.5, 1.1,0,0,1024,1024,1161,1024,0,0,21,0,245.9,-40.1,-38.5,98,4.272,4.278,4.277,4.267,0,0,2.078,93.11,1692.870386849,0,6,P-GPS,
41500,2025-09-03 17:17:08,48.1487666122211,11.5721701358441,0,,,1692.870386849,0.656168,0.7158208,0.18812172518,1.36175201208,9,4,16.973,1693.198470849,0.328084,0.7158208,0.36308400112,-0.671082,-0.223694,-0.671082,199.9, -1.7, 1,0,0,1024,1024,1159,1024,0,0,20,0,245.6,-35,-38.8,98,4.272,4.278,4.277,4.267,0,0,2.078,93.11,1692.870386849,0,6,P-GPS,
41600,2025-09-03 17:17:08,48.1487662416002,11.572169862867,0.328084,,,1693.198470849,0.656168,0.7158208,0.3387795384,1.5124180274,9,4,16.973,1693.198470849,0.328084,0.7158208,0.36308400112,-0.671082,-0.223694,-0.894776,199.7, 2.7, -0.5,0,0,1024,1024,1160,1024,0,0,21,0,242.4,-33.1,-39.9,98,4.272,4.278,4.277,4.267,0,0,2.078,93.11,1693.198470849,0.328084,6,P-GPS,
41700,2025-09-03 17:17:08,48.1487659289781,11.572169575218,0.328084,,,1693.198470849,0.984252,0.7158208,0.47212599936,1.64625661436,9,4,16.973,1693.198470849,0.328084,0.7158208,0.47212599936,-0.671082,-0.223694,-1.11847,199.4, 4.7, -1.1,0,0,1024,1024,1158,1024,0,0,20,0,242.6,-31.9,-39.4,98,4.272,4.278,4.277,4.267,0,0,2.078,93.11,1693.198470849,0.328084,6,P-GPS,
41800,2025-09-03 17:17:08,48.1487656533525,11.5721693124352,0.656168,,,1693.526554849,0.984252,0.4921268,0.59093833912,1.76543968904,9,4,16.973,1693.526554849,0.656168,0.7158208,0.59093833912,-0.447388,-0.223694,-1.11847,199.2, 4.7, -0.2,0,0,1024,1024,1158,1024,0,0,20,0,244.5,-31.6,-38.8,98,4.272,4.278,4.277,4.267,0,0,2.078,93.11,1693.526554849,0.656168,6,P-GPS,
41900,2025-09-03 17:17:08,48.1487654995232,11.5721693945482,0.984252,,,1693.854638849,1.312336,0.223694,0.63234582076,1.8250164626,9,4,16.973,1693.854638849,0.984252,0.7158208,0.63234582076,-0.223694,0,-1.11847,199.1, 4.7, 0.3,0,0,1024,1024,1156,1024,0,0,20,0,244.5,-32,-38.3,98,4.272,4.278,4.277,4.267,0,0,2.078,93.11,1693.854638849,0.984252,6,P-GPS,
42000,2025-09-03 17:17:08,48.1487653759813,11.5721693223856,0.984252,,,1693.854638849,1.312336,0.223694,0.68065618976,1.8733924484,9,4,17.064,1693.854638849,0.984252,0.7158208,0.68065618976,-0.223694,0,-1.11847,199.2, 3.6, -1,0,0,1024,1024,1157,1024,0,0,20,0,242.1,-36.2,-40.1,98,4.272,4.278,4.277,4.267,0,0,2.078,93.11,1693.854638849,0.984252,6,P-GPS,"Home Point recorded. Return-to-Home Altitude:100M"
42100,2025-09-03 17:17:08,48.1487651942697,11.5721693855801,1.312336,,,1694.182722849,1.64042,0,0.73599411804,1.9414534742,9,4,17.064,1694.182722849,1.312336,0.7158208,0.73599411804,0,0,-0.894776,199.5, 1.4, -1.8,0,0,1024,1024,1161,1024,0,0,21,0,244.7,-39.2,-39.8,98,4.272,4.278,4.277,4.267,0,0,2.078,93.11,1694.182722849,1.312336,6,P-GPS,
42200,2025-09-03 17:17:08,48.1487650349672,11.5721694912915,1.312336,,,1694.182722849,1.64042,0,0.78234582556,2.00501646836,10,4,17.064,1694.182722849,1.312336,0.7158208,0.78234582556,0,0,-0.894776,199.5, 0.6, 0,0,0,1024,1024,1163,1024,0,0,21,0,246,-41.4,-38.6,98,4.272,4.278,4.277,4.267,0,0,2.078,93.11,1694.182722849,1.312336,6,P-GPS,
42300,2025-09-03 17:17:08,48.1487650900119,11.5721695472157,1.64042,,,1694.510806849,1.968504,0,0.75910763584,2.02927828016,10,4,17.064,1694.510806849,1.64042,0.7158208,0.78234582556,0,0,-0.894776,199.5, 0, 0.7,0,0,1024,1024,1164,1024,0,0,21,0,245.2,-42.9,-38.9,98,4.272,4.278,4.277,4.267,0,0,2.078,93.11,1694.510806849,1.64042,6,P-GPS,
42400,2025-09-03 17:17:09,48.148765243154,11.5721697864675,1.64042,,,1694.510806849,1.968504,0,0.68965225304,2.10998694416,9,3,17.064,1694.510806849,1.64042,0.7158208,0.78234582556,0,0,-0.894776,199.3, -0.4, 0.6,0,0,1024,1024,1161,1024,0,0,21,0,244.5,-43.1,-39.6,98,4.272,4.278,4.277,4.267,0,0,2.078,93.11,1694.510806849,1.64042,6,P-GPS,
42500,2025-09-03 17:17:09,48.148765240586,11.5721697933589,1.968504,,,1694.838890849,1.968504,0,0.69016078324,2.11190623556,9,3,17.064,1694.838890849,1.968504,0.7158208,0.78234582556,0,0,-0.671082,199.2, -0.1, 0,0,0,1024,1024,1163,1024,0,0,21,0,243.6,-43.2,-39.9,98,4.272,4.278,4.277,4.267,0,0,2.078,93.11,1694.838890849,1.968504,6,P-GPS,
42600,2025-09-03 17:17:09,48.1487652264364,11.5721697994479,1.968504,,,1694.838890849,2.296588,0,0.69482613772,2.11728025148,9,3,17.064,1694.838890849,1.968504,0.7158208,0.78234582556,0,0,-0.671082,199.2, 0.3, -0.4,0,0,1024,1024,1164,1024,0,0,21,0,243.6,-43.2,-39.9,98,4.272,4.278,4.277,4.267,0,0,2.078,93.11,1694.838890849,1.968504,6,P-GPS,
42700,2025-09-03 17:17:09,48.1487651984695,11.5721697217067,1.968504,,,1694.838890849,2.296588,0,0.70935697808,2.138779596,9,3,17.064,1694.838890849,1.968504,0.7158208,0.78234582556,0,0,-0.671082,199.3, 0, -0.6,0,0,1024,1024,1166,1024,0,0,22,0,244.3,-43.7,-39,98,4.272,4.278,4.277,4.267,0,0,2.078,93.11,1694.838890849,1.968504,6,P-GPS,
42800,2025-09-03 17:17:09,48.1487651073988,11.5721694678054,1.968504,,,1694.838890849,2.296588,0,0.75902561484,2.20895020192,9,3,17.064,1694.838890849,1.968504,0.7158208,0.78234582556,0,0,-0.671082,199.3, -0.4, -1.3,0,0,1024,1024,1163,1024,0,0,21,0,244.4,-44.1,-40.7,98,4.272,4.278,4.277,4.267,0,0,2.078,93.11,1694.838890849,1.968504,6,P-GPS,
42900,2025-09-03 17:17:09,48.1487651753668,11.5721694155499,2.296588,,,1695.166974849,2.296588,0,0.73988191344,2.23682093772,9,3,17.064,1695.166974849,2.296588,0.7158208,0.78234582556,0,0,-0.671082,199.3, -0.2, -1.2,0,0,1024,1024,1164,1024,0,0,21,0,243.9,-44.3,-40,98,4.272,4.278,4.277,4.267,0,0,2.078,93.11,1695.166974849,2.296588,6,P-GPS,
43000,2025-09-03 17:17:09,48.1487652496776,11.5721693877242,2.296588,,,1695.166974849,2.624672,0,0.7169619652,2.26476713284,9,3,16.252,1695.166974849,2.296588,0.7158208,0.78234582556,0,0,-0.671082,199.4, 0, -0.8,0,0,1024,1024,1164,1024,0,0,21,0,243.7,-44.4,-40.1,98,4.115,4.123,4.126,4.099,0,0,14.452,93.11,1695.166974849,2.296588,6,P-GPS,
43100,2025-09-03 17:17:09,48.1487651391404,11.5721694442904,2.296588,,,1695.166974849,2.624672,0,0.74994424972,2.3073819636,9,3,16.252,1695.166974849,2.296588,0.7158208,0.78234582556,0,0,-0.894776,199.4, 0, -0.7,0,0,1024,1024,1165,1024,0,0,21,0,245.3,-43.1,-41,98,4.115,4.123,4.126,4.099,0,0,14.452,93.11,1695.166974849,2.296588,6,P-GPS,
43200,2025-09-03 17:17:09,48.1487648630573,11.5721695094814,2.624672,,,1695.495058849,2.952756,0,0.84108270408,2.40935375164,9,3,16.252,1695.495058849,2.624672,0.7158208,0.84108270408,0,0,-0.894776,199.3, -0.4, -1,0,0,1024,1024,1168,1024,0,0,22,0,243.7,-45,-40.4,98,4.115,4.123,4.126,4.099,0,0,14.452,93.11,1695.495058849,2.624672,6,P-GPS,
43300,2025-09-03 17:17:09,48.148764862515,11.572169667628,2.624672,,,1695.495058849,2.952756,0,0.83142719196,2.4478511282,9,3,16.252,1695.495058849,2.624672,0.7158208,0.84108270408,0,0,-0.894776,199.3, -0.7, -0.8,0,0,1024,1024,1170,1024,0,0,22,0,244.9,-44.2,-40.5,98,4.115,4.123,4.126,4.099,0,0,14.452,93.11,1695.495058849,2.624672,6,P-GPS,
43400,2025-09-03 17:17:09,48.1487648557472,11.572169836627,2.952756,,,1695.823142849,3.28084,0,0.82519359596,2.48906175944,9,3,16.252,1695.823142849,2.952756,0.7158208,0.84108270408,0,0,-0.894776,199.3, -0.7, -0.4,0,0,1024,1024,1171,1024,0,0,22,0,245.8,-43.3,-40.6,98,4.115,4.123,4.126,4.099,0,0,14.452,93.11,1695.823142849,2.952756,6,P-GPS,
43500,2025-09-03 17:17:10,48.1487647495026,11.5721700198293,2.952756,,,1695.823142849,3.28084,0,0.85650265208,2.54815296868,9,3,16.252,1695.823142849,2.952756,0.7158208,0.85650265208,0,0,-0.894776,199.3, -0.5, -0.1,0,0,1024,1024,1173,1024,0,0,23,0,244.8,-43.8,-40,98,4.115,4.123,4.126,4.099,0,0,14.452,93.11,1695.823142849,2.952756,6,P-GPS,
43600,2025-09-03 17:17:10,48.1487644989225,11.5721704797224,3.28084,,,1696.151226849,3.608924,0,0.94097443956,2.69269037488,10,3,16.252,1696.151226849,3.28084,0.7158208,0.94097443956,0,0,-0.894776,199.2, -0.2, -0.1,0,0,1024,1024,1175,1024,0,0,23,0,244.4,-43.8,-40.1,98,4.115,4.123,4.126,4.099,0,0,14.452,93.11,1696.151226849,3.28084,6,P-GPS,
43700,2025-09-03 17:17:10,48.1487643424177,11.5721705935449,3.28084,,,1696.151226849,3.608924,0,0.99854333904,2.75615822468,10,3,16.252,1696.151226849,3.28084,0.7158208,0.99854333904,0,0,-1.11847,199.3, -0.1, -0.4,0,0,1024,1024,1179,1024,0,0,23,0,243.7,-44.6,-40.9,98,4.115,4.123,4.126,4.099,0,0,14.452,93.11,1696.151226849,3.28084,6,P-GPS,
43800,2025-09-03 17:17:10,48.1487641867417,11.5721707029958,3.608924,,,1696.479310849,3.608924,0,1.05642719916,2.81889444716,10,3,16.252,1696.479310849,3.608924,0.7158208,1.05642719916,0,0,-1.11847,199.4, -0.2, -1.3,0,0,1024,1024,1181,1024,0,0,24,0,243.7,-44.6,-40.9,98,4.115,4.123,4.126,4.099,0,0,14.452,93.11,1696.479310849,3.608924,6,P-GPS,
43900,2025-09-03 17:17:10,48.1487641483348,11.5721707785576,3.608924,,,1696.479310849,3.937008,0,1.07156499492,2.84201780748,10,3,16.252,1696.479310849,3.608924,0.7158208,1.07156499492,0,0,-1.11847,199.5, -0.7, -1.6,0,0,1024,1024,1182,1024,0,0,24,0,243.6,-45.2,-42,98,4.115,4.123,4.126,4.099,0,0,14.452,93.11,1696.479310849,3.608924,6,P-GPS,
44000,2025-09-03 17:17:10,48.1487641026521,11.5721708694301,3.937008,,,1696.807394849,4.265092,0,1.08995410312,2.86971465876,10,3,16.245,1696.807394849,3.937008,0.7158208,1.08995410312,0,0,-1.11847,199.6, -0.9, -1.1,0,0,1024,1024,1182,1024,0,0,24,0,244.2,-44.8,-41.4,98,4.115,4.123,4.126,4.099,0,0,17.006,93.11,1696.807394849,3.937008,6,P-GPS,
44100,2025-09-03 17:17:10,48.1487644003203,11.572171138045,3.937008,,,1696.807394849,4.265092,0,0.99049543852,2.99648303552,10,3,16.245,1696.807394849,3.937008,0.7158208,1.08995410312,0,0,-1.11847,199.7, -0.9, -0.6,0,0,1024,1024,1183,1024,0,0,24,0,244.5,-44.6,-40.9,98,4.115,4.123,4.126,4.099,0,0,17.006,93.11,1696.807394849,3.937008,6,P-GPS,
44200,2025-09-03 17:17:10,48.1487644525786,11.572171319774,4.265092,,,1697.135478849,4.593176,0,0.98009845656,3.04465560924,6,3,16.245,1697.135478849,4.265092,0.7158208,1.08995410312,0,0,-1.11847,199.7, -0.8, -0.7,0,0,1024,1024,1186,1024,0,0,25,0,245,-44,-41.1,98,4.115,4.123,4.126,4.099,0,0,17.006,93.11,1697.135478849,4.265092,6,P-GPS,
44300,2025-09-03 17:17:10,48.1487644694119,11.5721713510375,4.265092,,,1697.135478849,4.593176,0,0.97574478188,3.05443579328,6,3,16.245,1697.135478849,4.265092,0.7158208,1.08995410312,0,0,-1.11847,199.7, -0.5, -0.8,0,0,1024,1024,1190,1024,0,0,25,0,245.1,-43.7,-41.6,98,4.115,4.123,4.126,4.099,0,0,17.006,93.11,1697.135478849,4.265092,6,P-GPS,
44400,2025-09-03 17:17:11,48.1487644799919,11.572171374623,4.593176,,,1697.463562849,4.92126,0,0.97326774768,3.06135508484,8,3,16.245,1697.463562849,4.593176,0.7158208,1.08995410312,0,0,-1.11847,199.7, -0.4, -0.4,0,0,1024,1024,1193,1024,0,0,26,0,245.1,-43.5,-40.8,98,4.115,4.123,4.126,4.099,0,0,17.006,93.11,1697.463562849,4.593176,6,P-GPS,
44500,2025-09-03 17:17:11,48.1487644289613,11.5721716838804,4.593176,,,1697.463562849,4.92126,0,1.01084648904,3.13890429992,8,3,16.245,1697.463562849,4.593176,0.7158208,1.08995410312,0,0,-1.11847,199.7, -0.2, -0.1,0,0,1024,1024,1189,1024,0,0,25,0,244.2,-43.9,-40.6,98,4.115,4.123,4.126,4.099,0,0,17.006,93.11,1697.463562849,4.593176,6,P-GPS,
44600,2025-09-03 17:17:11,48.1487643511412,11.572171905581,4.92126,,,1697.791646849,5.249344,0,1.0546916348,3.199885273,9,3,16.245,1697.791646849,4.92126,0.7158208,1.08995410312,0,0,-1.11847,199.7, -0.1, 0,0,0,1024,1024,1194,1024,0,0,26,0,244.9,-43.3,-40.9,98,4.115,4.123,4.126,4.099,0,0,17.006,93.11,1697.791646849,4.92126,6,P-GPS,
44700,2025-09-03 17:17:11,48.1487642203723,11.5721719631583,5.249344,,,1698.119730849,5.577428,0,1.10435370988,3.24961296488,9,3,16.245,1698.119730849,5.249344,0.7158208,1.10435370988,0,0,-1.342164,199.7, 0, 0,0,0,1024,1024,1193,1024,0,0,26,0,244.2,-43.7,-40.8,98,4.115,4.123,4.126,4.099,0,0,17.006,93.11,1698.119730849,5.249344,6,P-GPS,
44800,2025-09-03 17:17:11,48.1487640872096,11.5721720116808,5.249344,,,1698.119730849,5.577428,0,1.15412733352,3.2996064048,9,3,16.245,1698.119730849,5.249344,0.7158208,1.15412733352,0,0,-1.342164,199.8, 0.1, -0.3,0,0,1024,1024,1195,1024,0,0,26,0,243.8,-43.8,-40.4,98,4.115,4.123,4.126,4.099,0,0,17.006,93.11,1698.119730849,5.249344,6,P-GPS,
44900,2025-09-03 17:17:11,48.1487636389592,11.5721717723809,5.577428,,,1698.447814849,5.905512,0,1.29432090756,3.4732284576,9,3,16.245,1698.447814849,5.577428,0.7158208,1.29432090756,0,0,-1.342164,199.7, 0.4, -0.5,0,0,1024,1024,1196,1024,0,0,26,0,243.9,-43.4,-41,98,4.115,4.123,4.126,4.099,0,0,17.006,93.11,1698.447814849,5.577428,6,P-GPS,
45000,2025-09-03 17:17:11,48.1487634758054,11.5721717571825,5.905512,,,1698.775898849,5.905512,0,1.35124020072,3.5328741288,8,3,16.176,1698.775898849,5.905512,0.7158208,1.35124020072,0,0,-1.342164,199.7, 0.5, -0.7,0,0,1024,1024,1200,1024,0,0,27,0,243.9,-43.7,-41.3,98,4.069,4.087,4.086,4.05,0,0,17.006,93.11,1698.775898849,5.905512,6,P-GPS,
45100,2025-09-03 17:17:11,48.148763375643,11.5721716916642,5.905512,,,1698.775898849,6.233596,0,1.38328744584,3.5727363348,8,3,16.176,1698.775898849,5.905512,0.7158208,1.38328744584,0,0,-1.342164,199.7, 0.3, -0.8,0,0,1024,1024,1201,1024,0,0,27,0,243.9,-43.7,-41.3,98,4.069,4.087,4.086,4.05,0,0,17.006,93.11,1698.775898849,5.905512,6,P-GPS,
45200,2025-09-03 17:17:11,48.1487632829976,11.5721716267685,6.233596,,,1699.103982849,6.56168,0,1.4130741922,3.6100394856,9,3,16.176,1699.103982849,6.233596,0.7158208,1.4130741922,0,0,-1.342164,199.7, 0.1, -0.6,0,0,1024,1024,1204,1024,0,0,27,0,243.6,-44,-41.1,98,4.069,4.087,4.086,4.05,0,0,17.006,93.11,1699.103982849,6.233596,6,P-GPS,
45300,2025-09-03 17:17:11,48.1487634770348,11.572171457975,6.56168,,,1699.432066849,6.56168,0,1.33575463592,3.6918964436,9,3,16.176,1699.432066849,6.56168,0.7158208,1.4130741922,0,0,-1.342164,199.7, 0, -0.6,0,0,1024,1024,1208,1024,0,0,28,0,243.7,-44.2,-41.2,98,4.069,4.087,4.086,4.05,0,0,17.006,93.11,1699.432066849,6.56168,6,P-GPS,
45400,2025-09-03 17:17:12,48.148763507293,11.572171463666,6.56168,,,1699.432066849,6.889764,0,1.32515096104,3.7030184912,8,3,16.176,1699.432066849,6.56168,0.7158208,1.4130741922,0,0,-1.342164,199.7, -0.3, -0.7,0,0,1024,1024,1216,1024,0,0,29,0,243.8,-44.5,-41.5,98,4.069,4.087,4.086,4.05,0,0,17.006,93.11,1699.432066849,6.56168,6,P-GPS,
45500,2025-09-03 17:17:12,48.1487634656097,11.5721713192091,6.889764,,,1699.760150849,7.217848,0,1.3341863944,3.7413387024,8,3,16.176,1699.760150849,6.889764,0.7158208,1.4130741922,0,0,-1.565858,199.7, -0.4, -0.6,0,0,1024,1024,1225,1024,0,0,30,0,243.3,-44.7,-41.4,98,4.069,4.087,4.086,4.05,0,0,17.006,93.11,1699.760150849,6.889764,6,P-GPS,
45600,2025-09-03 17:17:12,48.1487634152354,11.5721711515583,7.217848,,,1700.088234849,7.217848,0,1.34669295648,3.78608936,8,3,16.176,1700.088234849,7.217848,0.7158208,1.4130741922,0,0,-1.565858,199.7, -0.4, -0.5,0,0,1024,1024,1238,1024,0,0,32,0,242.9,-45.1,-41.2,98,4.069,4.087,4.086,4.05,0,0,17.006,93.11,1700.088234849,7.217848,6,P-GPS,
45700,2025-09-03 17:17:12,48.1487633577204,11.5721711189339,7.217848,,,1700.088234849,7.545932,0,1.36657484688,3.8085303056,8,3,16.176,1700.088234849,7.217848,0.7158208,1.4130741922,0,0,-1.565858,199.6, -0.4, -0.4,0,0,1024,1024,1245,1024,0,0,33,0,243.7,-44.5,-41,98,4.069,4.087,4.086,4.05,0,0,17.006,93.11,1700.088234849,7.217848,6,P-GPS,
45800,2025-09-03 17:17:12,48.1487632755752,11.572170941827,7.545932,,,1700.416318849,7.874016,0,1.3921096246,3.8610237456,9,3,16.176,1700.416318849,7.545932,0.7158208,1.4130741922,0,0,-1.789552,199.6, -0.3, -0.5,0,0,1024,1024,1249,1024,0,0,34,0,243.2,-44.7,-41.6,98,4.069,4.087,4.086,4.05,0,0,17.006,93.11,1700.416318849,7.545932,6,P-GPS,
45900,2025-09-03 17:17:12,48.1487632485023,11.5721708677032,7.874016,,,1700.744402849,8.2021,0,1.40058075348,3.8815946124,9,3,16.176,1700.744402849,7.874016,0.7158208,1.4130741922,0,0,-1.789552,199.6, -0.2, -0.5,0,0,1024,1024,1256,1024,0,0,35,0,242.4,-45.2,-41.5,98,4.069,4.087,4.086,4.05,0,0,17.006,93.11,1700.744402849,7.874016,6,P-GPS,
46000,2025-09-03 17:17:12,48.1487632190633,11.5721707808943,8.2021,,,1701.072486849,8.530184,0,1.40999348344,3.9053150856,8,3,16.123,1701.072486849,8.2021,0.7158208,1.4130741922,0,0,-2.013246,199.6, -0.1, -0.7,0,0,1024,1024,1261,1024,0,0,36,0,242.1,-45.2,-42.1,98,4.061,4.079,4.077,4.041,0,0,17.238,93.11,1701.072486849,8.2021,6,P-GPS,
46100,2025-09-03 17:17:12,48.1487633116957,11.5721707321214,8.530184,,,1701.400570849,8.858268,0,1.3756398078,3.9411418584,8,3,16.123,1701.400570849,8.530184,0.7158208,1.4130741922,0,0,-2.23694,199.6, 0, -0.8,0,0,1024,1024,1267,1024,0,0,37,0,242.2,-45.2,-42.2,98,4.061,4.079,4.077,4.041,0,0,17.238,93.11,1701.400570849,8.530184,6,P-GPS,
46200,2025-09-03 17:17:12,48.1487637086273,11.5721706983062,8.858268,,,1701.728654849,8.858268,0,1.2305938714,4.0861877948,8,3,16.123,1701.728654849,8.858268,0.7158208,1.4130741922,0,0,-2.23694,199.6, -0.1, -0.9,0,0,1024,1024,1264,1024,0,0,36,0,241.6,-45.5,-41.5,98,4.061,4.079,4.077,4.041,0,0,17.238,93.11,1701.728654849,8.858268,6,P-GPS,
46300,2025-09-03 17:17:12,48.1487637506379,11.5721705826445,9.186352,,,1702.056738849,9.186352,0,1.21430778164,4.1182416016,8,3,16.123,1702.056738849,9.186352,0.7158208,1.4130741922,0,0,-2.460634,199.6, 0, -0.9,0,0,1024,1024,1262,1024,0,0,36,0,241.2,-45.6,-41.4,98,4.061,4.079,4.077,4.041,0,0,17.238,93.11,1702.056738849,9.186352,6,P-GPS,
46400,2025-09-03 17:17:12,48.148763790792,11.5721704626623,9.514436,,,1702.384822849,9.514436,0,1.19933074704,4.150918768,9,3,16.123,1702.384822849,9.514436,0.7158208,1.4130741922,0,0,-2.460634,199.6, 0.1, -0.9,0,0,1024,1024,1266,1024,0,0,37,0,241.2,-45.6,-41.4,98,4.061,4.079,4.077,4.041,0,0,17.238,93.11,1702.384822849,9.514436,6,P-GPS,
46500,2025-09-03 17:17:13,48.1487637111969,11.5721702899657,9.84252,,,1702.712906849,10.170604,0,1.22913061676,4.2020014468,9,3,16.123,1702.712906849,9.84252,0.7158208,1.4130741922,0,0,-2.460634,199.6, 0.1, -0.6,0,0,1024,1024,1263,1024,0,0,36,0,242.4,-44.7,-42,98,4.061,4.079,4.077,4.041,0,0,17.238,93.11,1702.712906849,9.84252,6,P-GPS,
46600,2025-09-03 17:17:13,48.1487635308207,11.572169945545,10.498688,,,1703.369074849,10.498688,0,1.30040030408,4.3085959384,9,3,16.123,1703.369074849,10.498688,0.7158208,1.4130741922,0,0,-2.460634,199.7, 0, -0.8,0,0,1024,1024,1262,1024,0,0,36,0,241.6,-45.4,-41.7,98,4.061,4.079,4.077,4.041,0,0,17.238,93.11,1703.369074849,10.498688,6,P-GPS,
46700,2025-09-03 17:17:13,48.1487636106878,11.5721698549389,10.826772,,,1703.697158849,10.826772,0,1.27379597252,4.345144496,9,3,16.123,1703.697158849,10.826772,0.7158208,1.4130741922,0,0,-2.460634,199.6, 0.1, -0.9,0,0,1024,1024,1253,1024,0,0,35,0,240.7,-45.8,-41.3,98,4.061,4.079,4.077,4.041,0,0,17.238,93.11,1703.697158849,10.826772,6,P-GPS,
46800,2025-09-03 17:17:13,48.148763700288,11.5721697574766,11.154856,,,1704.025242849,11.154856,0,1.24440948864,4.3855316364,10,3,16.123,1704.025242849,11.154856,0.7158208,1.4130741922,0,0,-2.460634,199.7, 0.2, -1,0,0,1024,1024,1239,1024,0,0,33,0,240.7,-45.8,-41.8,98,4.061,4.079,4.077,4.041,0,0,17.238,93.11,1704.025242849,11.154856,6,P-GPS,
46900,2025-09-03 17:17:13,48.1487637028056,11.5721697462873,11.48294,,,1704.353326849,11.48294,0,1.2438812734,4.3884187756,10,3,16.123,1704.353326849,11.48294,0.7158208,1.4130741922,0,0,-2.460634,199.6, 0, -1,0,0,1024,1024,1238,1024,0,0,32,0,240.7,-45.8,-42.2,98,4.061,4.079,4.077,4.041,0,0,17.238,93.11,1704.353326849,11.48294,6,P-GPS,
47000,2025-09-03 17:17:13,48.1487637962327,11.5721699177642,12.139108,,,1705.009494849,11.811024,0,1.20479662648,4.4422901684,9,3,16.097,1705.009494849,12.139108,0.7158208,1.4130741922,0,0,-2.460634,199.6, 0, -1.1,0,0,1024,1024,1233,1024,0,0,32,0,239.7,-46.4,-41.5,98,4.042,4.061,4.06,4.02,0,0,17.906,93.11,1705.009494849,12.139108,6,P-GPS,
47100,2025-09-03 17:17:13,48.1487638436644,11.5721697332619,12.467192,,,1705.337578849,12.139108,0,1.19349413268,4.4904528996,9,3,16.097,1705.337578849,12.467192,0.7158208,1.4130741922,0,0,-2.23694,199.6, 0, -1.1,0,0,1024,1024,1237,1024,0,0,32,0,239.2,-46.8,-41.3,98,4.042,4.061,4.06,4.02,0,0,17.906,93.11,1705.337578849,12.467192,6,P-GPS,
47200,2025-09-03 17:17:13,48.1487638951199,11.5721695279602,12.795276,,,1705.665662849,12.467192,0,1.18356959168,4.5438321664,10,3,16.097,1705.665662849,12.795276,0.7158208,1.4130741922,0,0,-2.23694,199.6, 0, -1.3,0,0,1024,1024,1234,1024,0,0,32,0,239.4,-46.5,-41.8,98,4.042,4.061,4.06,4.02,0,0,17.906,93.11,1705.665662849,12.795276,6,P-GPS,
47300,2025-09-03 17:17:13,48.1487641034533,11.5721693771415,13.12336,,,1705.993746849,12.795276,0,1.11723428772,4.6282481796,10,3,16.097,1705.993746849,13.12336,0.7158208,1.4130741922,0,0,-2.013246,199.5, 0.1, -1.4,0,0,1024,1024,1232,1024,0,0,32,0,239.4,-46.5,-41.7,98,4.042,4.061,4.06,4.02,0,0,17.906,93.11,1705.993746849,13.12336,6,P-GPS,
47400,2025-09-03 17:17:14,48.1487643199647,11.5721692274751,13.451444,,,1706.321830849,13.12336,0,1.05055121472,4.715223248,10,3,16.097,1706.321830849,13.451444,0.7158208,1.4130741922,0,0,-2.013246,199.6, 0, -1.3,0,0,1024,1024,1233,1024,0,0,32,0,239.7,-46.5,-41.5,98,4.042,4.061,4.06,4.02,0,0,17.906,93.11,1706.321830849,13.451444,6,P-GPS,
47500,2025-09-03 17:17:14,48.1487650445457,11.5721696596324,13.779528,,,1706.649914849,13.451444,0,0.76751314792,4.9997376928,10,3,16.097,1706.649914849,13.779528,0.7158208,1.4130741922,0,0,-2.013246,199.6, -0.3, -1.5,0,0,1024,1024,1233,1024,0,0,32,0,239.6,-46.7,-41.2,98,4.042,4.061,4.06,4.02,0,0,17.906,93.11,1706.649914849,13.779528,6,P-GPS,
47600,2025-09-03 17:17:14,48.1487652472137,11.5721698146591,14.107612,,,1706.977998849,13.779528,0,0.68659451016,5.0827757532,11,3,16.097,1706.977998849,14.107612,0.7158208,1.4130741922,0,0,-2.013246,199.6, -0.3, -1.7,0,0,1024,1024,1240,1024,0,0,33,0,239.2,-47.2,-41.5,98,4.042,4.061,4.06,4.02,0,0,17.906,93.11,1706.977998849,14.107612,6,P-GPS,
47700,2025-09-03 17:17:14,48.1487652626335,11.5721698215891,14.435696,,,1707.306082849,14.107612,0,0.68072836824,5.0886484568,11,3,16.097,1707.306082849,14.435696,0.7158208,1.4130741922,0,0,-2.013246,199.7, -0.4, -1.8,0,0,1024,1024,1238,1024,0,0,32,0,239.2,-47.2,-41.5,98,4.042,4.061,4.06,4.02,0,0,17.906,93.11,1707.306082849,14.435696,6,P-GPS,
47800,2025-09-03 17:17:14,48.1487652579696,11.5721698282654,14.435696,,,1707.306082849,14.435696,0,0.68201445752,5.0910106616,11,3,16.097,1707.306082849,14.435696,0.7158208,1.4130741922,0,0,-2.013246,199.7, -0.5, -1.8,0,0,1024,1024,1232,1024,0,0,32,0,239.4,-47,-41.5,98,4.042,4.061,4.06,4.02,0,0,17.906,93.11,1707.306082849,14.435696,6,P-GPS,
47900,2025-09-03 17:17:14,48.1487650816677,11.5721696922311,14.76378,,,1707.634166849,14.76378,0,0.75239831804,5.1633531836,11,3,16.097,1707.634166849,14.76378,0.7158208,1.4130741922,0,0,-2.013246,199.8, -0.2, -1.6,0,0,1024,1024,1232,1024,0,0,32,0,239.6,-46.6,-41,98,4.042,4.061,4.06,4.02,0,0,17.906,93.11,1707.634166849,14.76378,6,P-GPS,
48000,2025-09-03 17:17:14,48.1487650941954,11.5721696254609,15.091864,,,1707.962250849,15.091864,0,0.75224083772,5.1802167012,10,3,16.082,1707.962250849,15.091864,0.7158208,1.4130741922,0,0,-2.013246,199.8, 0, -1.1,0,0,1024,1024,1231,1024,0,0,31,0,239.4,-46.6,-40.7,98,4.054,4.072,4.069,4.028,0,0,16.792,93.11,1707.962250849,15.091864,6,P-GPS,
48100,2025-09-03 17:17:14,48.1487649371596,11.5721695329161,15.419948,,,1708.290334849,15.419948,0,0.81352692892,5.241798068,10,3,16.082,1708.290334849,15.419948,0.7158208,1.4130741922,0,0,-2.013246,199.8, 0, -1.1,0,0,1024,1024,1233,1024,0,0,32,0,239.2,-46.8,-40.9,98,4.054,4.072,4.069,4.028,0,0,16.792,93.11,1708.290334849,15.419948,6,P-GPS,
48200,2025-09-03 17:17:14,48.1487647608773,11.572169430315,15.748032,,,1708.618418849,15.419948,0,0.8822834928,5.3107941332,9,3,16.082,1708.618418849,15.748032,0.7158208,1.4130741922,0,0,-2.013246,199.8, 0, -1.3,0,0,1024,1024,1232,1024,0,0,32,0,239.6,-46.8,-41.6,98,4.054,4.072,4.069,4.028,0,0,16.792,93.11,1708.618418849,15.748032,6,P-GPS,
48300,2025-09-03 17:17:14,48.148764556006,11.572169348324,16.076116,,,1708.946502849,15.748032,0,0.95961945328,5.3881563404,9,3,16.082,1708.946502849,16.076116,0.7158208,1.4130741922,0,0,-2.013246,199.8, -0.2, -1.3,0,0,1024,1024,1234,1024,0,0,32,0,240.3,-46.5,-41.8,98,4.054,4.072,4.069,4.028,0,0,16.792,93.11,1708.946502849,16.076116,6,P-GPS,
48400,2025-09-03 17:17:14,48.1487645531953,11.5721693320471,16.4042,,,1709.274586849,16.076116,0,0.96173231424,5.3922573904,10,3,16.082,1709.274586849,16.4042,0.7158208,1.4130741922,0,0,-2.013246,199.7, -0.2, -1.3,0,0,1024,1024,1235,1024,0,0,32,0,239.6,-46.8,-40.8,98,4.054,4.072,4.069,4.028,0,0,16.792,93.11,1709.274586849,16.4042,6,P-GPS,
48500,2025-09-03 17:17:15,48.1487645436217,11.572169489035,16.732284,,,1709.602670849,16.4042,0,0.95483598856,5.43061041,10,3,16.082,1709.602670849,16.732284,0.7158208,1.4130741922,0,0,-2.013246,199.7, -0.2, -1.2,0,0,1024,1024,1236,1024,0,0,32,0,239.5,-47.1,-40.7,98,4.054,4.072,4.069,4.028,0,0,16.792,93.11,1709.602670849,16.732284,6,P-GPS,
48600,2025-09-03 17:17:15,48.1487645303075,11.5721696526993,17.060368,,,1709.930754849,16.732284,0,0.95043966296,5.4707678916,10,3,16.082,1709.930754849,17.060368,0.7158208,1.4130741922,0,0,-2.013246,199.7, -0.5, -1,0,0,1024,1024,1237,1024,0,0,32,0,240.4,-46.6,-41.6,98,4.054,4.072,4.069,4.028,0,0,16.792,93.11,1709.930754849,17.060368,6,P-GPS,
48700,2025-09-03 17:17:15,48.1487647016671,11.5721702045434,17.388452,,,1710.258838849,17.060368,0,0.8693569832,5.618930626,10,3,16.082,1710.258838849,17.388452,0.7158208,1.4130741922,0,0,-2.013246,199.8, -0.7, -0.8,0,0,1024,1024,1238,1024,0,0,32,0,240,-47.2,-41.3,98,4.054,4.072,4.069,4.028,0,0,16.792,93.11,1710.258838849,17.388452,6,P-GPS,
48800,2025-09-03 17:17:15,48.1487647327785,11.572170300022,17.716536,,,1710.586922849,17.388452,0,0.85661748148,5.6447836452,10,3,16.082,1710.586922849,17.716536,0.7158208,1.4130741922,0,0,-2.013246,199.8, -0.7, -0.6,0,0,1024,1024,1238,1024,0,0,32,0,239.6,-47.4,-40.7,98,4.054,4.072,4.069,4.028,0,0,16.792,93.11,1710.586922849,17.716536,6,P-GPS,
48900,2025-09-03 17:17:15,48.1487646858923,11.5721702438152,18.04462,,,1710.915006849,17.716536,0,0.87444884688,5.6666996564,10,3,16.082,1710.915006849,18.04462,0.7158208,1.4130741922,0,0,-2.013246,199.7, -0.7, -0.4,0,0,1024,1024,1232,1024,0,0,32,0,240,-47,-40.6,98,4.054,4.072,4.069,4.028,0,0,16.792,93.11,1710.915006849,18.04462,6,P-GPS,
49000,2025-09-03 17:17:15,48.1487646236369,11.5721701531674,18.04462,,,1710.915006849,18.04462,0,0.89873034372,5.6983597624,11,3,16.047,1710.915006849,18.04462,0.7158208,1.4130741922,0,0,-2.013246,199.8, -0.6, -0.5,0,0,1024,1024,1231,1024,0,0,31,0,240,-47,-40.6,98,4.054,4.072,4.069,4.028,0,0,16.792,93.11,1710.915006849,18.04462,6,P-GPS,
49100,2025-09-03 17:17:15,48.1487647651243,11.5721700474784,18.372704,,,1711.243090849,18.372704,0,0.85001315056,5.7560369296,11,3,16.047,1711.243090849,18.372704,0.7158208,1.4130741922,0,0,-2.013246,199.8, -0.6, -0.9,0,0,1024,1024,1233,1024,0,0,32,0,239.5,-47.3,-41.3,98,4.054,4.072,4.069,4.028,0,0,16.792,93.11,1711.243090849,18.372704,6,P-GPS,
49200,2025-09-03 17:17:15,48.1487652187762,11.5721696566345,18.700788,,,1711.571174849,18.700788,0,0.70645671552,5.9469490092,10,3,16.047,1711.571174849,18.700788,0.7158208,1.4130741922,0,0,-2.013246,199.8, -0.5, -1.3,0,0,1024,1024,1233,1024,0,0,32,0,239.1,-47.4,-41.2,98,4.054,4.072,4.069,4.028,0,0,16.792,93.11,1711.571174849,18.700788,6,P-GPS,
49300,2025-09-03 17:17:15,48.1487653074124,11.572169418259,19.028872,,,1711.899258849,19.028872,0,0.69463912984,6.0133860192,10,3,16.047,1711.899258849,19.028872,0.7158208,1.4130741922,0,0,-2.013246,199.8, -0.2, -1.5,0,0,1024,1024,1231,1024,0,0,31,0,238.8,-47.4,-41.3,98,4.054,4.072,4.069,4.028,0,0,16.792,93.11,1711.899258849,19.028872,6,P-GPS,
49400,2025-09-03 17:17:16,48.148765383622,11.5721691687166,19.356956,,,1712.227342849,19.356956,0,0.69432745004,6.0801839216,10,3,16.047,1712.227342849,19.356956,0.7158208,1.4130741922,0,0,-2.013246,199.7, -0.1, -1.5,0,0,1024,1024,1231,1024,0,0,31,0,238.3,-47.6,-41.1,98,4.054,4.072,4.069,4.028,0,0,16.792,93.11,1712.227342849,19.356956,6,P-GPS,
49500,2025-09-03 17:17:16,48.1487653245078,11.572168979435,19.68504,,,1712.555426849,19.68504,0,0.7351706272,6.13106975,10,3,16.047,1712.555426849,19.68504,0.7158208,1.4130741922,0,0,-1.789552,199.6, 0, -1.4,0,0,1024,1024,1230,1024,0,0,31,0,238.4,-47.2,-40.6,98,4.054,4.072,4.069,4.028,0,0,16.792,93.11,1712.555426849,19.68504,6,P-GPS,
49600,2025-09-03 17:17:16,48.1487651823398,11.5721685165343,20.013124,,,1712.883510849,20.013124,0,0.83896328144,6.2551183104,10,3,16.047,1712.883510849,20.013124,0.7158208,1.4130741922,0,0,-1.789552,199.6, 0.4, -1.2,0,0,1024,1024,1231,1024,0,0,31,0,238.6,-46.7,-41.1,98,4.054,4.072,4.069,4.028,0,0,16.792,93.11,1712.883510849,20.013124,6,P-GPS,
49700,2025-09-03 17:17:16,48.1487650329414,11.5721683755729,20.341208,,,1713.211594849,20.341208,0,0.90332351972,6.3195211996,10,3,16.047,1713.211594849,20.341208,0.7158208,1.4130741922,0,0,-2.013246,199.6, 0.5, -0.8,0,0,1024,1024,1231,1024,0,0,31,0,239.2,-46.1,-40.9,98,4.054,4.072,4.069,4.028,0,0,16.792,93.11,1713.211594849,20.341208,6,P-GPS,
49800,2025-09-03 17:17:16,48.1487648875735,11.5721682313632,20.669292,,,1713.539678849,20.669292,0,0.96692260312,6.3831366872,10,3,16.047,1713.539678849,20.669292,0.7158208,1.4130741922,0,0,-2.013246,199.6, 0.7, -0.6,0,0,1024,1024,1232,1024,0,0,32,0,238.7,-46.6,-40.8,98,4.054,4.072,4.069,4.028,0,0,16.792,93.11,1713.539678849,20.669292,6,P-GPS,
49900,2025-09-03 17:17:16,48.1487647539043,11.5721682014287,20.997376,,,1713.867762849,20.997376,0,1.01155843132,6.4324477124,10,3,16.047,1713.867762849,20.997376,0.7158208,1.4130741922,0,0,-2.013246,199.6, 0.6, -0.8,0,0,1024,1024,1234,1024,0,0,32,0,238.1,-46.9,-40.7,98,4.054,4.072,4.069,4.028,0,0,16.792,93.11,1713.867762849,20.997376,6,P-GPS,
50000,2025-09-03 17:17:16,48.1487642727089,11.572168270343,21.32546,,,1714.195846849,21.32546,0,1.15480974824,6.6087928624,9,3,16.048,1714.195846849,21.32546,0.7158208,1.4130741922,0,0,-2.013246,199.6, 0.6, -1,0,0,1024,1024,1240,1024,0,0,33,0,237.8,-47.3,-41,98,4.039,4.055,4.052,4.011,0,0,17.382,93.11,1714.195846849,21.32546,6,P-GPS,
50100,2025-09-03 17:17:16,48.1487641871065,11.572168008292,21.653544,,,1714.523930849,21.653544,0,1.212762506,6.6798230484,9,3,16.048,1714.523930849,21.653544,0.7158208,1.4130741922,0,0,-2.013246,199.6, 0.4, -1.2,0,0,1024,1024,1244,1024,0,0,33,0,238.1,-47.1,-41.3,98,4.039,4.055,4.052,4.011,0,0,17.382,93.11,1714.523930849,21.653544,6,P-GPS,
50200,2025-09-03 17:17:16,48.1487641061777,11.572167734015,21.981628,,,1714.852014849,21.981628,0,1.27213914832,6.7528217384,10,3,16.048,1714.852014849,21.981628,0.7158208,1.4130741922,0,0,-2.013246,199.7, 0.4, -1.4,0,0,1024,1024,1245,1024,0,0,33,0,238.1,-47.1,-41.3,98,4.039,4.055,4.052,4.011,0,0,17.382,93.11,1714.852014849,21.981628,6,P-GPS,
50300,2025-09-03 17:17:16,48.1487639907145,11.5721675308799,22.309712,,,1715.180098849,22.309712,0,1.33405844164,6.8177823704,10,3,16.048,1715.180098849,22.309712,0.7158208,1.4130741922,0,0,-2.013246,199.7, 0.1, -1.6,0,0,1024,1024,1245,1024,0,0,33,0,237.8,-47.6,-41.6,98,4.039,4.055,4.052,4.011,0,0,17.382,93.11,1715.180098849,22.309712,6,P-GPS,
50400,2025-09-03 17:17:17,48.1487637033544,11.5721670901813,22.637796,,,1715.508182849,22.637796,0,1.4804626458,6.9677823752,10,3,16.048,1715.508182849,22.637796,0.7158208,1.4804626458,0,0,-2.013246,199.7, 0.1, -1.5,0,0,1024,1024,1245,1024,0,0,33,0,237.8,-47.6,-40.9,98,4.039,4.055,4.052,4.011,0,0,17.382,93.11,1715.508182849,22.637796,6,P-GPS,
50500,2025-09-03 17:17:17,48.1487635991405,11.5721669987471,22.96588,,,1715.836266849,23.293964,0,1.52444558684,7.0118440564,10,3,16.048,1715.836266849,22.96588,0.7158208,1.52444558684,0,0,-2.013246,199.8, 0.1, -1.2,0,0,1024,1024,1245,1024,0,0,33,0,238.1,-47.3,-41.3,98,4.039,4.055,4.052,4.011,0,0,17.382,93.11,1715.836266849,22.96588,6,P-GPS,
50600,2025-09-03 17:17:17,48.1487634954867,11.5721669077333,23.293964,,,1716.164350849,23.622048,0,1.5682087116,7.0556760788,11,3,16.048,1716.164350849,23.293964,0.7158208,1.5682087116,0,0,-2.23694,199.8, 0.3, -0.9,0,0,1024,1024,1247,1024,0,0,34,0,238.4,-47,-40.9,98,4.039,4.055,4.052,4.011,0,0,17.382,93.11,1716.164350849,23.293964,6,P-GPS,
50700,2025-09-03 17:17:17,48.1487634056911,11.5721668100721,23.622048,,,1716.492434849,23.950132,0,1.60865162628,7.0961616444,11,3,16.048,1716.492434849,23.622048,0.7158208,1.60865162628,0,0,-2.23694,199.8, 0.3, -1,0,0,1024,1024,1248,1024,0,0,34,0,237.7,-47.5,-40.7,98,4.039,4.055,4.052,4.011,0,0,17.382,93.11,1716.492434849,23.622048,6,P-GPS,
50800,2025-09-03 17:17:17,48.1487633151968,11.5721667052691,23.950132,,,1716.820518849,24.278216,0,1.65027236252,7.1378939292,11,3,16.048,1716.820518849,23.950132,0.7158208,1.65027236252,0,0,-2.23694,199.8, 0.1, -1.2,0,0,1024,1024,1249,1024,0,0,34,0,237.7,-47.6,-41,98,4.039,4.055,4.052,4.011,0,0,17.382,93.11,1716.820518849,23.950132,6,P-GPS,
50900,2025-09-03 17:17:17,48.1487633185644,11.5721669018209,24.278216,,,1717.148602849,24.6063,0,1.62316934328,7.1857285764,11,3,16.048,1717.148602849,24.278216,0.7158208,1.65027236252,0,0,-2.23694,199.8, 0, -1.4,0,0,1024,1024,1251,1024,0,0,34,0,237.1,-48,-41.2,98,4.039,4.055,4.052,4.011,0,0,17.382,93.11,1717.148602849,24.278216,6,P-GPS,
51000,2025-09-03 17:17:17,48.1487633793266,11.5721670246822,24.6063,,,1717.476686849,24.934384,0,1.588500707,7.2229661104,10,3,16.032,1717.476686849,24.6063,0.7158208,1.65027236252,0,0,-2.23694,199.8, 0.1, -1.5,0,0,1024,1024,1250,1024,0,0,34,0,237.4,-47.7,-41.1,98,4.033,4.049,4.046,4.006,0,0,17.184,93.11,1717.476686849,24.6063,6,P-GPS,
51100,2025-09-03 17:17:17,48.148763392473,11.5721671572243,24.934384,,,1717.804770849,25.262468,0,1.5676017562,7.25557766,10,3,16.032,1717.804770849,24.934384,0.7158208,1.65027236252,0,0,-2.23694,199.8, 0.2, -1.4,0,0,1024,1024,1249,1024,0,0,34,0,237.2,-47.9,-41.2,98,4.033,4.049,4.046,4.006,0,0,17.184,93.11,1717.804770849,24.934384,6,P-GPS,
51200,2025-09-03 17:17:17,48.1487633959367,11.5721672796748,25.262468,,,1718.132854849,25.590552,0,1.55139768744,7.285433304,11,3,16.032,1718.132854849,25.262468,0.7158208,1.65027236252,0,0,-2.23694,199.8, 0.1, -1.5,0,0,1024,1024,1248,1024,0,0,34,0,236.8,-48,-41.3,98,4.033,4.049,4.046,4.006,0,0,17.184,93.11,1718.132854849,25.262468,6,P-GPS,
51300,2025-09-03 17:17:17,48.1487635898111,11.572167492404,25.590552,,,1718.460938849,25.918636,0,1.46427498124,7.3730973488,11,3,16.032,1718.460938849,25.590552,0.7158208,1.65027236252,0,0,-2.23694,199.7, 0.3, -1.6,0,0,1024,1024,1248,1024,0,0,34,0,236.6,-47.8,-41,98,4.033,4.049,4.046,4.006,0,0,17.184,93.11,1718.460938849,25.590552,6,P-GPS,
51400,2025-09-03 17:17:18,48.1487635597484,11.5721673405968,25.918636,,,1718.789022849,26.24672,0,1.4923228824,7.4116472188,10,3,16.032,1718.789022849,25.918636,0.7158208,1.65027236252,0,0,-2.23694,199.7, 0.7, -1.7,0,0,1024,1024,1248,1024,0,0,34,0,236.6,-47.8,-41.1,98,4.033,4.049,4.046,4.006,0,0,17.184,93.11,1718.789022849,25.918636,6,P-GPS,
51500,2025-09-03 17:17:18,48.1487635238836,11.5721673897837,26.24672,,,1719.117106849,26.902888,0,1.49756894556,7.4293637548,10,3,16.032,1719.117106849,26.24672,0.7158208,1.65027236252,0,0,-2.23694,199.7, 0.6, -1.7,0,0,1024,1024,1249,1024,0,0,34,0,236.6,-47.8,-41.1,98,4.033,4.049,4.046,4.006,0,0,17.184,93.11,1719.117106849,26.24672,6,P-GPS,
51600,2025-09-03 17:17:18,48.1487634944038,11.5721674625176,26.574804,,,1719.445190849,27.230972,0,1.49816605844,7.4500986636,10,3,16.032,1719.445190849,26.574804,0.7158208,1.65027236252,0,0,-2.23694,199.7, 0.3, -1.6,0,0,1024,1024,1250,1024,0,0,34,0,236.1,-48.3,-41.1,98,4.033,4.049,4.046,4.006,0,0,17.184,93.11,1719.445190849,26.574804,6,P-GPS,
51700,2025-09-03 17:17:18,48.1487637668132,11.5721678265309,26.902888,,,1719.773274849,27.559056,0,1.3684711724,7.5832351508,10,3,16.032,1719.773274849,26.902888,0.7158208,1.65027236252,0,0,-2.23694,199.7, 0.2, -1.5,0,0,1024,1024,1250,1024,0,0,34,0,236,-48.5,-40.7,98,4.033,4.049,4.046,4.006,0,0,17.184,93.11,1719.773274849,26.902888,6,P-GPS,
51800,2025-09-03 17:17:18,48.1487638969845,11.5721679346593,27.230972,,,1720.101358849,27.88714,0,1.31417983208,7.6375330528,11,4,16.032,1720.101358849,27.230972,0.7158208,1.65027236252,0,0,-2.23694,199.7, 0.3, -1.6,0,0,1024,1024,1251,1024,0,0,34,0,236.3,-48.3,-41.1,98,4.033,4.049,4.046,4.006,0,0,17.184,93.11,1720.101358849,27.230972,6,P-GPS,
51900,2025-09-03 17:17:18,48.1487639758061,11.572167670705,27.559056,,,1720.429442849,28.215224,0,1.32079400552,7.7079398792,11,4,16.032,1720.429442849,27.559056,0.7158208,1.65027236252,0,0,-2.23694,199.7, 0.2, -1.8,0,0,1024,1024,1251,1024,0,0,34,0,236,-48.6,-41.3,98,4.033,4.049,4.046,4.006,0,0,17.184,93.11,1720.429442849,27.559056,6,P-GPS,
52000,2025-09-03 17:17:18,48.148764054924,11.572167376447,27.88714,,,1720.757526849,28.543308,0,1.33515752304,7.7851708528,11,4,15.998,1720.757526849,27.88714,0.7158208,1.65027236252,0,0,-2.23694,199.7, 0.1, -2,0,0,1024,1024,1251,1024,0,0,34,0,235.5,-49,-41.1,98,4.028,4.045,4.043,4.002,0,0,17.126,93.11,1720.757526849,27.88714,6,P-GPS,
52100,2025-09-03 17:17:18,48.1487642312764,11.5721667750051,28.215224,,,1721.085610849,28.871392,0,1.37353678936,7.9450789944,11,4,15.998,1721.085610849,28.215224,0.7158208,1.65027236252,0,0,-2.23694,199.7, 0, -2,0,0,1024,1024,1251,1024,0,0,34,0,235.8,-48.9,-41.5,98,4.028,4.045,4.043,4.002,0,0,17.126,93.11,1721.085610849,28.215224,6,P-GPS,
52200,2025-09-03 17:17:18,48.1487643201373,11.5721667313198,28.543308,,,1721.413694849,29.199476,0,1.35629597516,7.9791997304,11,4,15.998,1721.413694849,28.543308,0.7158208,1.65027236252,0,0,-2.23694,199.7, 0, -1.9,0,0,1024,1024,1249,1024,0,0,34,0,235.6,-49.1,-41.2,98,4.028,4.045,4.043,4.002,0,0,17.126,93.11,1721.413694849,28.543308,6,P-GPS,
52300,2025-09-03 17:17:18,48.148764297129,11.5721669207009,28.871392,,,1721.741778849,29.52756,0,1.33220804788,8.0260501256,11,4,15.998,1721.741778849,28.871392,0.7158208,1.65027236252,0,0,-2.23694,199.7, -0.1, -1.8,0,0,1024,1024,1250,1024,0,0,34,0,235.4,-49.4,-41.2,98,4.028,4.045,4.043,4.002,0,0,17.126,93.11,1721.741778849,28.871392,6,P-GPS,
52400,2025-09-03 17:17:19,48.1487642620914,11.5721671439486,29.199476,,,1722.069862849,29.855644,0,1.30766736468,8.0818900224,11,4,15.998,1722.069862849,29.199476,0.7158208,1.65027236252,0,0,-2.23694,199.7, -0.2, -1.8,0,0,1024,1024,1250,1024,0,0,34,0,235.7,-49.2,-40.9,98,4.028,4.045,4.043,4.002,0,0,17.126,93.11,1722.069862849,29.199476,6,P-GPS,
52500,2025-09-03 17:17:19,48.1487643116792,11.5721671975875,29.52756,,,1722.397946849,30.183728,0,1.28537733772,8.1041997344,11,4,15.998,1722.397946849,29.52756,0.7158208,1.65027236252,0,0,-2.23694,199.7, -0.2, -1.5,0,0,1024,1024,1252,1024,0,0,35,0,236.1,-48.9,-40.8,98,4.028,4.045,4.043,4.002,0,0,17.126,93.11,1722.397946849,29.52756,6,P-GPS,
52600,2025-09-03 17:17:19,48.1487642312177,11.5721675188913,29.855644,,,1722.726030849,30.511812,0,1.26250660208,8.1877299208,11,4,15.998,1722.726030849,29.855644,0.7158208,1.65027236252,0,0,-2.23694,199.7, -0.1, -1,0,0,1024,1024,1253,1024,0,0,35,0,236.3,-48.7,-40.5,98,4.028,4.045,4.043,4.002,0,0,17.126,93.11,1722.726030849,29.855644,6,P-GPS,
52700,2025-09-03 17:17:19,48.1487641833822,11.5721677706644,30.183728,,,1723.054114849,30.839896,0,1.2434875726,8.251476642,11,4,15.998,1723.054114849,30.183728,0.7158208,1.65027236252,0,0,-2.23694,199.6, -0.1, -0.8,0,0,1024,1024,1248,1024,0,0,34,0,235.8,-48.9,-40.4,98,4.028,4.045,4.043,4.002,0,0,17.126,93.11,1723.054114849,30.183728,6,P-GPS,
52800,2025-09-03 17:17:19,48.1487641296045,11.5721680395201,30.511812,,,1723.382198849,31.16798,0,1.22737208652,8.3197837308,10,4,15.998,1723.382198849,30.511812,0.7158208,1.65027236252,0,0,-2.23694,199.6, -0.1, -1.1,0,0,1024,1024,1248,1024,0,0,34,0,235.2,-49.4,-40.8,98,4.028,4.045,4.043,4.002,0,0,17.126,93.11,1723.382198849,30.511812,6,P-GPS,
52900,2025-09-03 17:17:19,48.1487641421435,11.5721681150851,30.839896,,,1723.710282849,31.496064,0,1.21458665304,8.338746986,10,4,15.998,1723.710282849,30.839896,0.7158208,1.65027236252,0,0,-2.23694,199.5, 0, -1.3,0,0,1024,1024,1249,1024,0,0,34,0,235.2,-49.4,-40.8,98,4.028,4.045,4.043,4.002,0,0,17.126,93.11,1723.710282849,30.839896,6,P-GPS,
53000,2025-09-03 17:17:19,48.14876408222,11.5721683574279,31.16798,,,1724.038366849,31.824148,0,1.20766408064,8.4016734972,10,4,16.001,1724.038366849,31.16798,0.7158208,1.65027236252,0,0,-2.23694,199.5, -0.3, -1.8,0,0,1024,1024,1246,1024,0,0,34,0,235,-49.6,-41.2,98,4.028,4.045,4.043,4.002,0,0,17.164,93.11,1724.038366849,31.16798,6,P-GPS,
53100,2025-09-03 17:17:19,48.1487640502683,11.5721683184803,31.496064,,,1724.366450849,32.152232,0,1.22225397612,8.4166997444,10,4,16.001,1724.366450849,31.496064,0.7158208,1.65027236252,0,0,-2.013246,199.6, -0.5, -1.9,0,0,1024,1024,1249,1024,0,0,34,0,234.8,-50.1,-41,98,4.028,4.045,4.043,4.002,0,0,17.164,93.11,1724.366450849,31.496064,6,P-GPS,
53200,2025-09-03 17:17:19,48.1487640118354,11.5721682886709,31.824148,,,1724.694534849,32.480316,0,1.23803153568,8.4324805848,11,4,16.001,1724.694534849,31.824148,0.7158208,1.65027236252,0,0,-2.013246,199.6, -0.8, -1.1,0,0,1024,1024,1249,1024,0,0,34,0,235.4,-49.9,-40.6,98,4.028,4.045,4.043,4.002,0,0,17.164,93.11,1724.694534849,31.824148,6,P-GPS,
53300,2025-09-03 17:17:19,48.1487640405725,11.5721685197698,32.152232,,,1725.022618849,32.8084,0,1.20535108844,8.4896984344,11,4,16.001,1725.022618849,32.152232,0.7158208,1.65027236252,0,0,-2.23694,199.6, -1, -0.8,0,0,1024,1024,1247,1024,0,0,34,0,235.7,-49.9,-40.6,98,4.028,4.045,4.043,4.002,0,0,17.164,93.11,1725.022618849,32.152232,6,P-GPS,
53400,2025-09-03 17:17:20,48.1487640369151,11.5721688615392,32.480316,,,1725.350702849,33.136484,0,1.1763779904,8.5729005368,11,4,16.001,1725.350702849,32.480316,0.7158208,1.65027236252,0,0,-2.013246,199.6, -0.8, -1.1,0,0,1024,1024,1245,1024,0,0,33,0,235.1,-49.8,-40.8,98,4.028,4.045,4.043,4.002,0,0,17.164,93.11,1725.350702849,32.480316,6,P-GPS,
53500,2025-09-03 17:17:20,48.1487640341614,11.5721689116922,32.480316,,,1725.350702849,33.464568,0,1.17333009004,8.5851708784,11,4,16.001,1725.350702849,32.480316,0.7158208,1.65027236252,0,0,-2.013246,199.7, -0.5, -1.7,0,0,1024,1024,1242,1024,0,0,33,0,233.9,-50.5,-40.9,98,4.028,4.045,4.043,4.002,0,0,17.164,93.11,1725.350702849,32.480316,6,P-GPS,
53600,2025-09-03 17:17:20,48.1487640231531,11.5721689478763,33.136484,,,1726.006870849,33.792652,0,1.1743274654,8.5948493564,11,4,16.001,1726.006870849,33.136484,0.7158208,1.65027236252,0,0,-2.013246,199.7, -0.3, -1.9,0,0,1024,1024,1240,1024,0,0,33,0,234.5,-50.1,-41.3,98,4.028,4.045,4.043,4.002,0,0,17.164,93.11,1726.006870849,33.136484,6,P-GPS,
53700,2025-09-03 17:17:20,48.148763908579,11.5721690068852,33.136484,,,1726.006870849,34.120736,0,1.20977366076,8.6390422712,11,4,16.001,1726.006870849,33.136484,0.7158208,1.65027236252,0,0,-2.013246,199.7, -0.4, -1.7,0,0,1024,1024,1233,1024,0,0,32,0,234.5,-50.2,-41.1,98,4.028,4.045,4.043,4.002,0,0,17.164,93.11,1726.006870849,33.136484,6,P-GPS,
53800,2025-09-03 17:17:20,48.1487636277636,11.5721690057714,33.464568,,,1726.334954849,34.120736,0,1.30812668228,8.7415029044,11,4,16.001,1726.334954849,33.464568,0.7158208,1.65027236252,0,0,-2.013246,199.8, -0.6, -1.5,0,0,1024,1024,1235,1024,0,0,32,0,234.3,-50.5,-40.5,98,4.028,4.045,4.043,4.002,0,0,17.164,93.11,1726.334954849,33.464568,6,P-GPS,
53900,2025-09-03 17:17:20,48.1487636903936,11.572169102521,33.464568,,,1726.334954849,34.44882,0,1.27983599896,8.7743113044,11,4,16.001,1726.334954849,33.464568,0.7158208,1.65027236252,0,0,-2.013246,199.8, -0.9, -1.4,0,0,1024,1024,1235,1024,0,0,32,0,234.8,-50.3,-40.9,98,4.028,4.045,4.043,4.002,0,0,17.164,93.11,1726.334954849,33.464568,6,P-GPS,
54000,2025-09-03 17:17:20,48.1487637755856,11.5721692047177,34.120736,,,1726.991122849,34.776904,0,1.24346460672,8.814140702,11,4,15.984,1726.991122849,34.120736,0.7158208,1.65027236252,0,0,-2.013246,199.7, -0.9, -1.1,0,0,1024,1024,1240,1024,0,0,33,0,234.8,-50.1,-40.4,98,4.021,4.037,4.035,3.993,0,0,17.164,93.11,1726.991122849,34.120736,6,P-GPS,
54100,2025-09-03 17:17:20,48.1487637150694,11.5721692220249,34.120736,,,1726.991122849,35.104988,0,1.26385174648,8.836614456,11,4,15.984,1726.991122849,34.120736,0.7158208,1.65027236252,0,0,-1.789552,199.7, -0.7, -0.9,0,0,1024,1024,1236,1024,0,0,32,0,234.8,-50.1,-40.4,98,4.021,4.037,4.035,3.993,0,0,17.164,93.11,1726.991122849,34.120736,6,P-GPS,
54200,2025-09-03 17:17:20,48.1487636221911,11.5721692155026,34.44882,,,1727.319206849,35.433072,0,1.29714899164,8.8705383416,11,4,15.984,1727.319206849,34.44882,0.7158208,1.65027236252,0,0,-1.789552,199.6, -0.6, -1.3,0,0,1024,1024,1239,1024,0,0,33,0,234,-50.4,-40.6,98,4.021,4.037,4.035,3.993,0,0,17.164,93.11,1727.319206849,34.44882,6,P-GPS,
54300,2025-09-03 17:17:20,48.1487636719091,11.5721689386995,34.776904,,,1727.647290849,35.761156,0,1.29722445096,8.9403218084,11,4,15.984,1727.647290849,34.776904,0.7158208,1.65027236252,0,0,-2.013246,199.5, -0.1, -1.8,0,0,1024,1024,1235,1024,0,0,32,0,233.3,-50.3,-40.7,98,4.021,4.037,4.035,3.993,0,0,17.164,93.11,1727.647290849,34.776904,6,P-GPS,
