time(millisecond),datetime(utc),latitude,longitude,height_above_takeoff(feet),height_above_ground_at_drone_location(feet),ground_elevation_at_drone_location(feet),altitude_above_seaLevel(feet),height_sonar(feet),speed(mph),distance(feet),mileage(feet),satellites,gpslevel,voltage(v),max_altitude(feet),max_ascent(feet),max_speed(mph),max_distance(feet), xSpeed(mph), ySpeed(mph), zSpeed(mph), compass_heading(degrees), pitch(degrees), roll(degrees),isPhoto,isVideo,rc_elevator,rc_aileron,rc_throttle,rc_rudder,rc_elevator(percent),rc_aileron(percent),rc_throttle(percent),rc_rudder(percent),gimbal_heading(degrees),gimbal_pitch(degrees),gimbal_roll(degrees),battery_percent,voltageCell1,voltageCell2,voltageCell3,voltageCell4,voltageCell5,voltageCell6,current(A),battery_temperature(f),altitude(feet),ascent(feet),flycStateRaw,flycState,message
42000,2025-09-03 15:20:02,48.1487409279719,11.5721754156,0,Available with any HD 360 subscription,Available with any HD 360 subscription,1692.9252546329,0.328084,0,0,0,7,3,0,1692.9252546329,0,0,0,0,0,0,257.9, -0.8, -3.6,0,0,1024,1024,1024,1024,0,0,0,0,320.2,-3,-30.8,96,4.252,4.258,4.261,4.262,0,0,0,98.51,1692.9252546329,0,41,Motors_Started,
42100,2025-09-03 15:20:02,48.1487409789291,11.5721753650297,0,,,1692.9252546329,0.328084,0,0.0222978353592,0.0222978353592,7,3,0,1692.9252546329,0,0,0.0222978353592,0,0,0,258, -0.8, -3.6,0,0,1024,1024,1024,1024,0,0,0,0,320.1,-3.2,-31,96,4.252,4.258,4.261,4.262,0,0,0,98.51,1692.9252546329,0,41,Motors_Started,
42200,2025-09-03 15:20:02,48.148741029235,11.5721753093718,0,,,1692.9252546329,0.328084,0,0.045096130052,0.045110893832,7,3,0,1692.9252546329,0,0,0.045096130052,0,0,0,258, -0.7, -3.6,0,0,368,364,364,1684,-99,-100,-100,100,320.1,-3.2,-31,96,4.252,4.258,4.261,4.262,0,0,0,98.51,1692.9252546329,0,41,Motors_Started,
42300,2025-09-03 15:20:02,48.1487410709786,11.5721750330981,0,,,1692.9252546329,0.328084,0,0.106733599216,0.114066276616,7,3,0,1692.9252546329,0,0,0.106733599216,0,0,0,257.9, -0.7, -3.6,0,0,706,574,678,1462,-48,-68,-52,66,320,-3.2,-31.1,96,4.252,4.258,4.261,4.262,0,0,0,98.51,1692.9252546329,0,41,Motors_Started,
42400,2025-09-03 15:20:03,48.1487411186073,11.5721749604796,0,,,1692.9252546329,0.328084,0,0.13081201206,0.138854663236,7,3,0,1692.9252546329,0,0,0.13081201206,0,0,0,257.9, -0.7, -3.6,0,0,1024,1024,1024,1024,0,0,0,0,319.9,-3.3,-31,96,4.252,4.258,4.261,4.262,0,0,0,98.51,1692.9252546329,0,41,Motors_Started,
42500,2025-09-03 15:20:03,48.1487411628684,11.5721749839721,0,,,1692.9252546329,0.328084,0,0.135589571268,0.15598589738,7,3,0,1692.9252546329,0,0,0.135589571268,0,0,0,257.9, -0.7, -3.6,0,0,1024,1024,1024,1024,0,0,0,0,319.8,-3.3,-31.1,96,4.252,4.258,4.261,4.262,0,0,0,98.51,1692.9252546329,0,41,Motors_Started,
42600,2025-09-03 15:20:03,48.1487412092204,11.5721750158871,0,,,1692.9252546329,0.328084,0,0.14141076568,0.174596790364,7,3,0,1692.9252546329,0,0,0.14141076568,0,0,0,258, -0.7, -3.6,0,0,1024,1024,1024,1024,0,0,0,0,319.8,-3.3,-31.1,96,4.252,4.258,4.261,4.262,0,0,0,98.51,1692.9252546329,0,41,Motors_Started,
42700,2025-09-03 15:20:03,48.1487412497752,11.5721751701275,0,,,1692.9252546329,0.328084,0,0.131740817864,0.214953418952,7,3,0,1692.9252546329,0,0,0.14141076568,0,0,0,258, -0.7, -3.6,0,0,1024,1024,1024,1024,0,0,0,0,319.7,-3.3,-31.1,96,4.252,4.258,4.261,4.262,0,0,0,98.51,1692.9252546329,0,41,Motors_Started,
42800,2025-09-03 15:20:03,48.1487412931667,11.5721751905611,0,,,1692.9252546329,0.328084,0,0.144062996736,0.231547579588,7,3,0,1692.9252546329,0,0,0.144062996736,0,0,0,257.9, -0.7, -3.6,0,0,1024,1024,1024,1024,0,0,0,0,319.6,-3.4,-31.1,96,4.252,4.258,4.261,4.262,0,0,0,98.51,1692.9252546329,0,41,Motors_Started,
42900,2025-09-03 15:20:03,48.1487412895027,11.5721752472461,0,,,1692.9252546329,0.328084,0,0.138124020168,0.245411097092,7,3,17.021,1692.9252546329,0,0,0.144062996736,0,0,0,258, -0.7, -3.6,0,0,1024,1024,1024,1024,0,0,0,0,319.5,-3.4,-31.2,96,4.252,4.258,4.261,4.262,0,0,1.842,98.51,1692.9252546329,0,41,Motors_Started,
43000,2025-09-03 15:20:03,48.1487412823864,11.5721753079177,0,,,1692.9252546329,0.328084,0,0.131937996348,0.260406504396,7,3,17.021,1692.9252546329,0,0,0.144062996736,0,0,0,257.9, -0.7, -3.6,0,0,1024,1024,1024,1024,0,0,0,0,319.4,-3.3,-31.3,96,4.252,4.258,4.261,4.262,0,0,1.842,98.51,1692.9252546329,0,41,Motors_Started,
43100,2025-09-03 15:20:03,48.1487413542952,11.5721753293207,0,,,1692.9252546329,0.328084,0,0.1569553856,0.287154864832,7,3,17.021,1692.9252546329,0,0,0.1569553856,0,0,0,258, -0.7, -3.6,0,0,1024,1024,1024,1024,0,0,0,0,319.4,-3.4,-31.2,96,4.252,4.258,4.261,4.262,0,0,1.842,98.51,1692.9252546329,0,41,Motors_Started,
43200,2025-09-03 15:20:03,48.1487414602548,11.5721754367719,0,,,1692.9252546329,0.328084,0,0.19427165976,0.33383203168,7,3,17.021,1692.9252546329,0,0,0.19427165976,0,0,0,258, -0.7, -3.6,0,0,1024,1024,1024,1024,0,0,0,0,319.2,-3.4,-31.2,96,4.252,4.258,4.261,4.262,0,0,1.842,98.51,1692.9252546329,0,41,Motors_Started,
43300,2025-09-03 15:20:03,48.1487415268875,11.5721754372116,0,,,1692.9252546329,0.328084,0,0.218577434816,0.35814305608,7,3,17.021,1692.9252546329,0,0,0.218577434816,0,0,0,258, -0.7, -3.6,0,0,1024,1024,1024,1024,0,0,0,0,319.1,-3.4,-31.4,96,4.252,4.258,4.261,4.262,0,0,1.842,98.51,1692.9252546329,0,41,Motors_Started,
43400,2025-09-03 15:20:03,48.1487415938491,11.5721754374555,0,,,1692.9252546329,0.328084,0,0.243003288616,0.38257219072,7,3,17.021,1692.9252546329,0,0,0.243003288616,0,0,0,258, -0.7, -3.6,0,0,1024,1024,1024,1024,0,0,0,0,319.1,-3.4,-31.3,96,4.252,4.258,4.261,4.262,0,0,1.842,98.51,1692.9252546329,0,41,Motors_Started,
43500,2025-09-03 15:20:04,48.1487416477148,11.5721754298644,0,,,1692.9252546329,0.328084,0,0.262620743312,0.402313005,7,3,17.021,1692.9252546329,0,0,0.262620743312,0,0,0,258, -0.7, -3.6,0,0,1024,1024,1024,1024,0,0,0,0,319,-3.4,-31.4,96,4.252,4.258,4.261,4.262,0,0,1.842,98.51,1692.9252546329,0,10,Assisted_Takeoff,
43600,2025-09-03 15:20:04,48.1487417467502,11.5721753525082,0,,,1692.9252546329,0.328084,0,0.299125337656,0.44305775696,7,3,17.021,1692.9252546329,0,0,0.299125337656,0,0,0,258, -0.7, -3.6,0,0,1024,1024,1024,1024,0,0,0,0,319,-3.4,-31.5,96,4.252,4.258,4.261,4.262,0,0,1.842,98.51,1692.9252546329,0,10,Assisted_Takeoff,
43700,2025-09-03 15:20:04,48.1487418414443,11.5721752981311,0,,,1692.9252546329,0.328084,0,0.33450460388,0.48005578964,7,3,17.021,1692.9252546329,0,0,0.33450460388,0,0,0,258, -0.7, -3.6,0,0,1024,1024,1024,1024,0,0,0,0,318.9,-3.5,-31.4,96,4.252,4.258,4.261,4.262,0,0,1.842,98.51,1692.9252546329,0,10,Assisted_Takeoff,
43800,2025-09-03 15:20:04,48.1487419433523,11.5721752392473,0,,,1692.9252546329,0.328084,0,0.37293964448,0.51990487228,7,3,17.021,1692.9252546329,0,0,0.37293964448,0,0,0,258, -0.8, -3.6,0,0,1024,1024,1024,1024,0,0,0,0,318.8,-3.5,-31.6,96,4.252,4.258,4.261,4.262,0,0,1.842,98.51,1692.9252546329,0,10,Assisted_Takeoff,
43900,2025-09-03 15:20:04,48.1487421007056,11.5721752605379,0,,,1692.9252546329,0.328084,0,0.42953413448,0.57754923108,7,3,16.825,1692.9252546329,0,0,0.42953413448,0,0,0,258, -0.7, -3.6,0,0,1024,1024,1024,1024,0,0,0,0,318.8,-3.5,-31.6,96,4.231,4.236,4.234,4.228,0,0,1.842,98.51,1692.9252546329,0,10,Assisted_Takeoff,
44000,2025-09-03 15:20:04,48.1487424757199,11.5721752633369,0,,,1692.9252546329,0.328084,0,0.56590881076,0.71437338244,7,3,16.825,1692.9252546329,0,0,0.56590881076,0,0,0,258, -0.7, -3.6,0,0,1024,1024,1024,1024,0,0,0,0,318.6,-3.6,-31.5,96,4.231,4.236,4.234,4.228,0,0,1.842,98.51,1692.9252546329,0,10,Assisted_Takeoff,
44100,2025-09-03 15:20:04,48.1487425095558,11.5721752778612,0,,,1692.9252546329,0.328084,0,0.57801182952,0.7272145902,7,3,16.825,1692.9252546329,0,0,0.57801182952,0,0,0,258, -0.7, -3.6,0,0,1024,1024,1024,1024,0,0,0,0,318.6,-3.6,-31.5,96,4.231,4.236,4.234,4.228,0,0,1.842,98.51,1692.9252546329,0,10,Assisted_Takeoff,
44200,2025-09-03 15:20:04,48.1487425333506,11.5721752898787,0,,,1692.9252546329,0.328084,0,0.58651904764,0.73637797632,7,3,16.825,1692.9252546329,0,0,0.58651904764,0,0,0,258, -0.7, -3.6,0,0,1024,1024,1024,1024,0,0,0,0,318.6,-3.6,-31.7,96,4.231,4.236,4.234,4.228,0,0,1.842,98.51,1692.9252546329,0,10,Assisted_Takeoff,
44300,2025-09-03 15:20:04,48.1487425044327,11.5721752466844,0,,,1692.9252546329,0.328084,0,0.57663715756,0.75127298992,7,3,16.825,1692.9252546329,0,0,0.58651904764,0,0,0,258, -0.7, -3.6,0,0,1024,1024,1024,1024,0,0,0,0,318.5,-3.7,-31.6,96,4.231,4.236,4.234,4.228,0,0,1.842,98.51,1692.9252546329,0,10,Assisted_Takeoff,
44400,2025-09-03 15:20:05,48.1487422201747,11.5721751559146,0,,,1692.9252546329,0.328084,0,0.47567914908,0.85730973872,7,3,16.825,1692.9252546329,0,0,0.58651904764,0,0,0,258, -0.7, -3.6,0,0,1024,1024,1024,1024,0,0,0,0,318.4,-3.7,-31.8,96,4.231,4.236,4.234,4.228,0,0,1.842,98.51,1692.9252546329,0,10,Assisted_Takeoff,
44500,2025-09-03 15:20:05,48.1487422764701,11.5721751374839,0,,,1692.9252546329,0.328084,0,0.49663387416,0.87833336144,7,3,16.825,1692.9252546329,0,0,0.58651904764,0,0,0,258, -0.7, -3.6,0,0,1024,1024,1024,1024,0,0,0,0,318.4,-3.7,-31.8,96,4.231,4.236,4.234,4.228,0,0,1.842,98.51,1692.9252546329,0,10,Assisted_Takeoff,
44600,2025-09-03 15:20:05,48.1487423432591,11.5721751213932,0,,,1692.9252546329,0.328084,0,0.5213090718,0.90301512076,7,3,16.825,1692.9252546329,0,0,0.58651904764,0,0,0,258, -0.8, -3.6,0,0,1024,1024,1024,1024,0,0,0,0,318.3,-3.7,-31.8,96,4.231,4.236,4.234,4.228,0,0,1.842,98.51,1692.9252546329,0,10,Assisted_Takeoff,
44700,2025-09-03 15:20:05,48.148742443011,11.5721751202794,0,,,1692.9252546329,0.328084,0,0.557414716,0.93940947888,7,3,16.825,1692.9252546329,0,0,0.58651904764,0,0,0,258, -0.8, -3.6,0,0,1024,1024,1024,1024,0,0,0,0,318.1,-3.8,-31.8,96,4.231,4.236,4.234,4.228,0,0,1.842,98.51,1692.9252546329,0,10,Assisted_Takeoff,
44800,2025-09-03 15:20:05,48.148742551765,11.5721751200322,0,,,1692.9252546329,0.328084,0,0.59679135768,0.97909123868,7,3,16.825,1692.9252546329,0,0,0.59679135768,0,0,0,258, -0.7, -3.6,0,0,1024,1024,1024,1024,0,0,0,0,318,-3.8,-31.7,96,4.231,4.236,4.234,4.228,0,0,1.842,98.51,1692.9252546329,0,10,Assisted_Takeoff,
44900,2025-09-03 15:20:05,48.1487427543956,11.5721750959941,0,,,1692.9252546329,0.328084,0,0.67089569076,1.05325134604,7,3,17.007,1692.9252546329,0,0,0.67089569076,0,0,0,258, -0.7, -3.6,0,0,1024,1024,1024,1024,0,0,0,0,318,-3.8,-31.9,96,4.231,4.236,4.234,4.228,0,0,3.978,98.51,1692.9252546329,0,10,Assisted_Takeoff,
45000,2025-09-03 15:20:05,48.1487428211487,11.5721750511949,0,,,1692.9252546329,0.328084,0,0.69639766008,1.07993441776,7,3,17.007,1692.9252546329,0,0,0.69639766008,0,0,0,258, -0.7, -3.5,0,0,1024,1024,1024,1024,0,0,0,0,317.9,-3.9,-31.9,96,4.231,4.236,4.234,4.228,0,0,3.978,98.51,1692.9252546329,0,10,Assisted_Takeoff,
45100,2025-09-03 15:20:05,48.1487429160056,11.5721750384296,0,,,1692.9252546329,0.328084,0,0.73112207064,1.1146817942,7,3,17.007,1692.9252546329,0,0,0.73112207064,0,0,0,258, -0.7, -3.5,0,0,1024,1024,1024,1024,0,0,0,0,317.8,-3.9,-32,96,4.231,4.236,4.234,4.228,0,0,3.978,98.51,1692.9252546329,0,10,Assisted_Takeoff,
45200,2025-09-03 15:20:05,48.1487430172395,11.5721750291789,0,,,1692.9252546329,0.328084,0,0.76805120568,1.15168638856,7,3,17.007,1692.9252546329,0,0,0.76805120568,0,0,0,257.9, -0.7, -3.6,0,0,1024,1024,1024,1024,0,0,0,0,317.8,-3.9,-32.1,96,4.231,4.236,4.234,4.228,0,0,3.978,98.51,1692.9252546329,0,10,Assisted_Takeoff,
45300,2025-09-03 15:20:05,48.1487432286278,11.5721748938314,0,,,1692.9252546329,0.328084,0,0.84894687756,1.23555450148,7,3,17.007,1692.9252546329,0,0,0.84894687756,0,0,0,257.9, -0.7, -3.6,0,0,1024,1024,1024,1024,0,0,0,0,317.7,-4,-32.1,96,4.231,4.236,4.234,4.228,0,0,3.978,98.51,1692.9252546329,0,10,Assisted_Takeoff,
45400,2025-09-03 15:20:06,48.1487433393294,11.5721748481656,0,,,1692.9252546329,0.328084,0,0.89056105212,1.2774442666,7,3,17.007,1692.9252546329,0,0,0.89056105212,0,0,0,257.9, -0.7, -3.6,0,0,1024,1024,1024,1024,0,0,0,0,317.6,-4,-32.2,96,4.231,4.236,4.234,4.228,0,0,3.978,98.51,1692.9252546329,0,10,Assisted_Takeoff,
45500,2025-09-03 15:20:06,48.1487434448591,11.5721748863782,0,,,1692.9252546329,0.328084,0,0.92727693256,1.31705712876,7,3,17.007,1692.9252546329,0,0,0.92727693256,0,0,0,257.9, -0.7, -3.6,0,0,1024,1024,1024,1024,0,0,0,0,317.6,-4,-32.2,96,4.231,4.236,4.234,4.228,0,0,3.978,98.51,1692.9252546329,0,10,Assisted_Takeoff,
45600,2025-09-03 15:20:06,48.1487435544045,11.5721749321853,0,,,1692.9252546329,0.328084,0,0.96544950596,1.35854991224,7,3,17.007,1692.9252546329,0,0,0.96544950596,0,0,0,257.9, -0.7, -3.6,0,0,1024,1024,1024,1024,0,0,0,0,317.5,-4,-32.1,96,4.231,4.236,4.234,4.228,0,0,3.978,98.51,1692.9252546329,0,10,Assisted_Takeoff,
45700,2025-09-03 15:20:06,48.1487435842018,11.5721750999646,0,,,1692.9252546329,0.328084,0,0.97216538544,1.40081369312,7,3,17.007,1692.9252546329,0,0,0.97216538544,0,0,0,257.9, -0.7, -3.6,0,0,1024,1024,1024,1024,0,0,0,0,317.5,-4,-32.2,96,4.231,4.236,4.234,4.228,0,0,3.978,98.51,1692.9252546329,0,10,Assisted_Takeoff,
45800,2025-09-03 15:20:06,48.1487436411647,11.5721751254215,0,,,1692.9252546329,0.328084,0,0.99242457244,1.42250004552,7,3,17.007,1692.9252546329,0,0,0.99242457244,0,0,0,257.9, -0.8, -3.6,0,0,1024,1024,1024,1024,0,0,0,0,317.4,-4.1,-32.3,96,4.231,4.236,4.234,4.228,0,0,3.978,98.51,1692.9252546329,0,10,Assisted_Takeoff,
45900,2025-09-03 15:20:06,48.1487437729547,11.5721751366108,0,,,1692.9252546329,0.328084,0,1.04021000704,1.47066277672,7,3,16.958,1692.9252546329,0,0,1.04021000704,0,0,0,257.9, -0.8, -3.6,0,0,1024,1024,1024,1024,0,0,0,0,317.3,-4.1,-32.4,96,4.231,4.236,4.234,4.228,0,0,2.038,98.51,1692.9252546329,0,10,Assisted_Takeoff,
46000,2025-09-03 15:20:06,48.148743912076,11.5721751467057,0,,,1692.9252546329,0.328084,0,1.090715258,1.52147970748,7,3,16.958,1692.9252546329,0,0,1.090715258,0,0,0,257.9, -0.7, -3.6,0,0,1024,1024,1024,1024,0,0,0,0,317.2,-4.2,-32.3,96,4.231,4.236,4.234,4.228,0,0,2.038,98.51,1692.9252546329,0,10,Assisted_Takeoff,
46100,2025-09-03 15:20:06,48.1487440029887,11.5721751316517,0,,,1692.9252546329,0.328084,0,1.12404531156,1.55484913112,7,3,16.958,1692.9252546329,0,0,1.12404531156,0,0,0,257.9, -0.7, -3.6,0,0,1024,1024,1024,1024,0,0,0,0,317.2,-4.2,-32.4,96,4.231,4.236,4.234,4.228,0,0,2.038,98.51,1692.9252546329,0,10,Assisted_Takeoff,
46200,2025-09-03 15:20:06,48.1487440676086,11.5721751327302,0,,,1692.9252546329,0.328084,0,1.14756237268,1.5784285282,7,3,16.958,1692.9252546329,0,0,1.14756237268,0,0,0,257.9, -0.7, -3.6,0,0,1024,1024,1024,1024,0,0,0,0,317,-4.2,-32.4,96,4.231,4.236,4.234,4.228,0,0,2.038,98.51,1692.9252546329,0,10,Assisted_Takeoff,
46300,2025-09-03 15:20:06,48.1487441501479,11.5721751809542,0,,,1692.9252546329,0.328084,0,1.17699478832,1.61075136388,7,3,16.958,1692.9252546329,0,0,1.17699478832,0,0,0,257.9, -0.7, -3.6,0,0,1024,1024,1024,1024,0,0,0,0,317,-4.2,-32.5,96,4.231,4.236,4.234,4.228,0,0,2.038,98.51,1692.9252546329,0,10,Assisted_Takeoff,
46400,2025-09-03 15:20:07,48.1487442371459,11.5721752316883,0,,,1692.9252546329,0.328084,0,1.20817917252,1.64480976392,7,3,16.958,1692.9252546329,0,0,1.20817917252,0,0,0,257.9, -0.7, -3.6,0,0,1024,1024,1024,1024,0,0,0,0,316.9,-4.3,-32.5,96,4.231,4.236,4.234,4.228,0,0,2.038,98.51,1692.9252546329,0,10,Assisted_Takeoff,
46500,2025-09-03 15:20:07,48.148744281495,11.5721752473713,0,,,1692.9252546329,0.328084,0,1.22421591844,1.6614337802,7,3,16.958,1692.9252546329,0,0,1.22421591844,0,0,0,257.9, -0.7, -3.6,0,0,1024,1024,1024,1024,0,0,0,0,316.8,-4.3,-32.4,96,4.231,4.236,4.234,4.228,0,0,2.038,98.51,1692.9252546329,0,10,Assisted_Takeoff,
46600,2025-09-03 15:20:07,48.1487442803714,11.5721753189177,0,,,1692.9252546329,0.328084,0,1.22334649584,1.6788550406,7,3,16.958,1692.9252546329,0,0,1.22421591844,0,0,0,257.9, -0.7, -3.5,0,0,1024,1024,1024,1024,0,0,0,0,316.7,-4.4,-32.5,96,4.231,4.236,4.234,4.228,0,0,2.038,98.51,1692.9252546329,0,10,Assisted_Takeoff,
46700,2025-09-03 15:20:07,48.1487443599013,11.5721753172422,0,,,1692.9252546329,0.328084,0,1.25236552564,1.7078740704,7,3,16.958,1692.9252546329,0,0,1.25236552564,0,0,0,257.9, -0.7, -3.6,0,0,1024,1024,1024,1024,0,0,0,0,316.6,-4.4,-32.5,96,4.231,4.236,4.234,4.228,0,0,2.038,98.51,1692.9252546329,0,10,Assisted_Takeoff,
46800,2025-09-03 15:20:07,48.1487444463847,11.5721753144336,0,,,1692.9252546329,0.328084,0,1.28392720644,1.7394357512,7,3,16.958,1692.9252546329,0,0,1.28392720644,0,0,0,257.9, -0.7, -3.6,0,0,1024,1024,1024,1024,0,0,0,0,316.5,-4.4,-32.7,96,4.231,4.236,4.234,4.228,0,0,2.038,98.51,1692.9252546329,0,10,Assisted_Takeoff,
46900,2025-09-03 15:20:07,48.1487445455537,11.5721753069099,0,,,1692.9252546329,0.328084,0,1.32013783752,1.77566278648,7,3,16.983,1692.9252546329,0,0,1.32013783752,0,0,0,257.9, -0.7, -3.6,0,0,1024,1024,1024,1024,0,0,0,0,316.5,-4.4,-32.7,96,4.245,4.251,4.253,4.253,0,0,2.038,98.51,1692.9252546329,0,10,Assisted_Takeoff,
47000,2025-09-03 15:20:07,48.1487447146481,11.572175245301,0,,,1692.9252546329,0.328084,0,1.38218836444,1.83915360216,7,3,16.983,1692.9252546329,0,0,1.38218836444,0,0,0,257.9, -0.7, -3.6,0,0,1024,1024,1024,1024,0,0,0,0,316.5,-4.5,-32.7,96,4.245,4.251,4.253,4.253,0,0,2.038,98.51,1692.9252546329,0,10,Assisted_Takeoff,
47100,2025-09-03 15:20:07,48.1487447716013,11.5721751935783,0,,,1692.9252546329,0.328084,0,1.40338587168,1.8634515032,7,3,16.983,1692.9252546329,0,0,1.40338587168,0,0,0,257.9, -0.7, -3.6,0,0,1024,1024,1024,1024,0,0,0,0,316.3,-4.5,-32.7,96,4.245,4.251,4.253,4.253,0,0,2.038,98.51,1692.9252546329,0,10,Assisted_Takeoff,
47200,2025-09-03 15:20:07,48.1487448280268,11.5721751370024,0,,,1692.9252546329,0.328084,0,1.42454728968,1.88821856436,7,3,16.983,1692.9252546329,0,0,1.42454728968,0,0,0,257.9, -0.7, -3.6,0,0,1024,1024,1024,1024,0,0,0,0,316.3,-4.5,-32.7,96,4.245,4.251,4.253,4.253,0,0,2.038,98.51,1692.9252546329,0,10,Assisted_Takeoff,
47300,2025-09-03 15:20:07,48.1487449119503,11.5721751155,0,,,1692.9252546329,0.328084,0,1.45538718568,1.91928155748,7,3,16.983,1692.9252546329,0,0,1.45538718568,0,0,0,257.9, -0.7, -3.6,0,0,1024,1024,1024,1024,0,0,0,0,316.2,-4.6,-32.8,96,4.245,4.251,4.253,4.253,0,0,2.038,98.51,1692.9252546329,0,10,Assisted_Takeoff,
47400,2025-09-03 15:20:08,48.1487449955546,11.5721750081387,0,,,1692.9252546329,0.328084,0,1.48736553316,1.95945216244,7,3,16.983,1692.9252546329,0,0,1.48736553316,0,0,0,257.9, -0.8, -3.6,0,0,1024,1024,1024,1024,0,0,0,0,316.1,-4.6,-32.8,96,4.245,4.251,4.253,4.253,0,0,2.038,98.51,1692.9252546329,0,10,Assisted_Takeoff,
47500,2025-09-03 15:20:08,48.1487450973845,11.5721750106006,0,,,1692.9252546329,0.328084,0,1.52439965508,1.99660767544,7,3,16.983,1692.9252546329,0,0,1.52439965508,0,0,0,257.9, -0.8, -3.5,0,0,1024,1024,1024,1024,0,0,0,0,316,-4.6,-32.9,96,4.245,4.251,4.253,4.253,0,0,2.038,98.51,1692.9252546329,0,10,Assisted_Takeoff,
47600,2025-09-03 15:20:08,48.1487452040378,11.5721750131909,0,,,1692.9252546329,0.328084,0,1.56319230724,2.03552499952,7,3,16.983,1692.9252546329,0,0,1.56319230724,0,0,0,257.8, -0.7, -3.5,0,0,1024,1024,1024,1024,0,0,0,0,316,-4.6,-33,96,4.245,4.251,4.253,4.253,0,0,2.038,98.51,1692.9252546329,0,10,Assisted_Takeoff,
47700,2025-09-03 15:20:08,48.1487452627888,11.5721749278328,0,,,1692.9252546329,0.328084,0,1.5860072686,2.06537736268,7,3,16.983,1692.9252546329,0,0,1.5860072686,0,0,0,257.8, -0.7, -3.5,0,0,1024,1024,1024,1024,0,0,0,0,315.9,-4.7,-33,96,4.245,4.251,4.253,4.253,0,0,2.038,98.51,1692.9252546329,0,10,Assisted_Takeoff,
47800,2025-09-03 15:20:08,48.1487453098997,11.5721747046234,0,,,1692.9252546329,0.328084,0,1.60808404096,2.12236883432,7,3,16.983,1692.9252546329,0,0,1.60808404096,0,0,0,257.9, -0.7, -3.6,0,0,1024,1024,1024,1024,0,0,0,0,315.8,-4.7,-33,96,4.245,4.251,4.253,4.253,0,0,2.038,98.51,1692.9252546329,0,10,Assisted_Takeoff,
47900,2025-09-03 15:20:08,48.148745393872,11.5721746724869,0,,,1692.9252546329,0.328084,0,1.63939309708,2.15398957024,7,3,16.982,1692.9252546329,0,0,1.63939309708,0,0,0,257.8, -0.7, -3.6,0,0,1024,1024,1024,1024,0,0,0,0,315.7,-4.7,-33,96,4.245,4.252,4.254,4.254,0,0,2.054,98.51,1692.9252546329,0,10,Assisted_Takeoff,
48000,2025-09-03 15:20:08,48.148745484166,11.5721746465935,0,,,1692.9252546329,0.328084,0,1.67283141836,2.18752959756,7,3,16.982,1692.9252546329,0,0,1.67283141836,0,0,0,257.8, -0.7, -3.6,0,0,1024,1024,1024,1024,0,0,0,0,315.6,-4.7,-33.1,96,4.245,4.252,4.254,4.254,0,0,2.054,98.51,1692.9252546329,0,10,Assisted_Takeoff,
48100,2025-09-03 15:20:08,48.1487455370839,11.5721746071419,0,,,1692.9252546329,0.328084,0,1.69310700956,2.20909455888,7,3,16.982,1692.9252546329,0,0,1.69310700956,0,0,0,257.8, -0.7, -3.5,0,0,1024,1024,1024,1024,0,0,0,0,315.6,-4.7,-33.2,96,4.245,4.252,4.254,4.254,0,0,2.054,98.51,1692.9252546329,0,10,Assisted_Takeoff,
48200,2025-09-03 15:20:08,48.1487455893765,11.5721745646827,0,,,1692.9252546329,0.328084,0,1.71327761388,2.2307907538,7,3,16.982,1692.9252546329,0,0,1.71327761388,0,0,0,257.8, -0.7, -3.5,0,0,1024,1024,1040,1024,0,0,2,0,315.4,-4.9,-33,96,4.245,4.252,4.254,4.254,0,0,2.054,98.51,1692.9252546329,0,10,Assisted_Takeoff,
48300,2025-09-03 15:20:08,48.1487455943074,11.5721745892601,0,,,1692.9252546329,0.328084,0,1.71435044856,2.237040754,7,3,16.982,1692.9252546329,0,0,1.71435044856,0,0,0,257.9, -0.7, -3.5,0,0,1024,1024,1024,1024,0,0,0,0,315.4,-4.9,-33,96,4.245,4.252,4.254,4.254,0,0,2.054,98.51,1692.9252546329,0,10,Assisted_Takeoff,
48400,2025-09-03 15:20:09,48.148745597268,11.5721746195927,0,,,1692.9252546329,0.328084,0,1.71457354568,2.24450138416,7,3,16.982,1692.9252546329,0,0,1.71457354568,0,0,0,257.8, -0.7, -3.6,0,0,1024,1024,1024,1024,0,0,0,0,315.4,-4.8,-33.1,96,4.245,4.252,4.254,4.254,0,0,2.054,98.51,1692.9252546329,0,10,Assisted_Takeoff,
48500,2025-09-03 15:20:09,48.1487456783677,11.572174590329,0,,,1692.9252546329,0.328084,0,1.7447835204,2.27493773684,7,3,16.982,1692.9252546329,0,0,1.7447835204,0,0,0,257.8, -0.7, -3.6,0,0,1024,1024,1024,1024,0,0,0,0,315.2,-4.9,-33.1,96,4.245,4.252,4.254,4.254,0,0,2.054,98.51,1692.9252546329,0,10,Assisted_Takeoff,
48600,2025-09-03 15:20:09,48.1487457687464,11.5721745541706,0,,,1692.9252546329,0.328084,0,1.7785597682,2.30906503452,7,3,16.982,1692.9252546329,0,0,1.7785597682,0,0,0,257.8, -0.7, -3.6,0,0,1024,1024,1024,1024,0,0,0,0,315.2,-4.9,-33.3,96,4.245,4.252,4.254,4.254,0,0,2.054,98.51,1692.9252546329,0,10,Assisted_Takeoff,
48700,2025-09-03 15:20:09,48.148745727208,11.572174577615,0,,,1692.9252546329,0.328084,0,1.76284126376,2.32525926076,7,3,16.982,1692.9252546329,0,0,1.7785597682,0,0,0,257.8, -0.7, -3.6,0,0,1024,1024,1024,1024,0,0,0,0,315.1,-5,-33.3,96,4.245,4.252,4.254,4.254,0,0,2.054,98.51,1692.9252546329,0,10,Assisted_Takeoff,
48800,2025-09-03 15:20:09,48.1487457297744,11.5721745775026,0,,,1692.9252546329,0.328084,0,1.76377302232,2.326197581,7,3,16.982,1692.9252546329,0,0,1.7785597682,0,0,0,257.8, -0.7, -3.5,0,0,1024,1024,1024,1024,0,0,0,0,315.1,-5,-33.4,96,4.245,4.252,4.254,4.254,0,0,2.054,98.51,1692.9252546329,0,10,Assisted_Takeoff,
48900,2025-09-03 15:20:09,48.1487457520744,11.5721745868431,0,,,1692.9252546329,0.328084,0,1.77159454488,2.334645744,7,3,16.958,1692.9252546329,0,0,1.7785597682,0,0,0,257.8, -0.7, -3.5,0,0,1024,1024,1024,1024,0,0,0,0,315,-5,-33.5,96,4.245,4.252,4.255,4.254,0,0,2.054,98.51,1692.9252546329,0,10,Assisted_Takeoff,
49000,2025-09-03 15:20:09,48.1487457788818,11.5721745970792,0,,,1692.9252546329,0.328084,0,1.78103352156,2.34473760784,7,3,16.958,1692.9252546329,0,0,1.78103352156,0,0,0,257.8, -0.7, -3.5,0,0,1024,1024,1024,1024,0,0,0,0,314.9,-5,-33.4,96,4.245,4.252,4.255,4.254,0,0,2.054,98.51,1692.9252546329,0,10,Assisted_Takeoff,
49100,2025-09-03 15:20:09,48.1487458163751,11.5721746749296,0,,,1692.9252546329,0.328084,0,1.79262144844,2.368110312,7,3,16.958,1692.9252546329,0,0,1.79262144844,0,0,0,257.8, -0.7, -3.5,0,0,1024,1024,1024,1024,0,0,0,0,314.8,-5.1,-33.5,96,4.245,4.252,4.255,4.254,0,0,2.054,98.51,1692.9252546329,0,10,Assisted_Takeoff,
49200,2025-09-03 15:20:09,48.1487458624959,11.5721746872167,0,,,1692.9252546329,0.328084,0,1.80906829936,2.38520020756,7,3,16.958,1692.9252546329,0,0,1.80906829936,0,0,0,257.8, -0.7, -3.5,0,0,1024,1024,1024,1024,0,0,0,0,314.7,-5.1,-33.5,96,4.245,4.252,4.255,4.254,0,0,2.054,98.51,1692.9252546329,0,10,Assisted_Takeoff,
49300,2025-09-03 15:20:09,48.1487459132643,11.5721747429003,0,,,1692.9252546329,0.328084,0,1.82623693508,2.4081529642,7,3,16.958,1692.9252546329,0,0,1.82623693508,0,0,0,257.8, -0.7, -3.5,0,0,1024,1024,1024,1024,0,0,0,0,314.6,-5.1,-33.5,96,4.245,4.252,4.255,4.254,0,0,2.054,98.51,1692.9252546329,0,10,Assisted_Takeoff,
49400,2025-09-03 15:20:10,48.1487459660258,11.5721748033376,0,,,1692.9252546329,0.328084,0,1.84416344484,2.4323819676,7,3,16.958,1692.9252546329,0,0,1.84416344484,0,0,0,257.8, -0.7, -3.6,0,0,1024,1024,1024,1024,0,0,0,0,314.5,-5.2,-33.5,96,4.245,4.252,4.255,4.254,0,0,2.054,98.51,1692.9252546329,0,10,Assisted_Takeoff,
49500,2025-09-03 15:20:10,48.1487460367394,11.5721747810006,0,,,1692.9252546329,0.328084,0,1.87032158216,2.45874679784,7,3,16.958,1692.9252546329,0,0,1.87032158216,0,0,0,257.8, -0.7, -3.6,0,0,1024,1024,1024,1024,0,0,0,0,314.4,-5.2,-33.5,96,4.245,4.252,4.255,4.254,0,0,2.054,98.51,1692.9252546329,0,10,Assisted_Takeoff,
49600,2025-09-03 15:20:10,48.148746087143,11.5721747508959,0,,,1692.9252546329,0.328084,0,1.88926187148,2.4785433864,7,3,16.958,1692.9252546329,0,0,1.88926187148,0,0,0,257.8, -0.7, -3.5,0,0,1024,1024,1024,1024,0,0,0,0,314.4,-5.3,-33.6,96,4.245,4.252,4.255,4.254,0,0,2.054,98.51,1692.9252546329,0,10,Assisted_Takeoff,
49700,2025-09-03 15:20:10,48.1487460886965,11.5721747825413,0,,,1692.9252546329,0.328084,0,1.88918313132,2.4862697646,7,3,16.958,1692.9252546329,0,0,1.88926187148,0,0,0,257.8, -0.7, -3.5,0,0,1024,1024,1024,1024,0,0,0,0,314.4,-5.3,-33.6,96,4.245,4.252,4.255,4.254,0,0,2.054,98.51,1692.9252546329,0,10,Assisted_Takeoff,
49800,2025-09-03 15:20:10,48.1487460871919,11.5721748211006,0,,,1692.9252546329,0.328084,0,1.8878937612,2.4956693712,7,3,16.958,1692.9252546329,0,0,1.88926187148,0,0,0,257.8, -0.8, -3.5,0,0,1024,1024,1024,1024,0,0,0,0,314.3,-5.3,-33.6,96,4.245,4.252,4.255,4.254,0,0,2.054,98.51,1692.9252546329,0,10,Assisted_Takeoff,
49900,2025-09-03 15:20:10,48.1487460693343,11.572174836636,0,,,1692.9252546329,0.328084,0,1.88110898408,2.50320546068,7,3,16.979,1692.9252546329,0,0,1.88926187148,0,0,0,257.8, -0.8, -3.6,0,0,1024,1024,1024,1024,0,0,0,0,314.2,-5.4,-33.7,96,4.245,4.252,4.255,4.254,0,0,2.056,98.51,1692.9252546329,0,10,Assisted_Takeoff,
50000,2025-09-03 15:20:10,48.1487459230838,11.5721748755227,0,,,1692.9252546329,0.328084,0,1.8271982212,2.55739509496,7,3,16.979,1692.9252546329,0,0,1.88926187148,0,0,0,257.8, -0.7, -3.6,0,0,1024,1024,1024,1024,0,0,0,0,314.1,-5.4,-33.7,96,4.245,4.252,4.255,4.254,0,0,2.056,98.51,1692.9252546329,0,10,Assisted_Takeoff,
50100,2025-09-03 15:20:10,48.1487459047377,11.5721748741617,0,,,1692.9252546329,0.328084,0,1.82054795852,2.56409785108,7,3,16.979,1692.9252546329,0,0,1.88926187148,0,0,0,257.8, -0.7, -3.5,0,0,1024,1024,1024,1024,0,0,0,0,314,-5.4,-33.7,96,4.245,4.252,4.255,4.254,0,0,2.056,98.51,1692.9252546329,0,10,Assisted_Takeoff,
50200,2025-09-03 15:20:10,48.148745886447,11.5721748727109,0,,,1692.9252546329,0.328084,0,1.81391738088,2.57078092216,7,3,16.979,1692.9252546329,0,0,1.88926187148,0,0,0,257.8, -0.7, -3.6,0,0,1024,1024,1024,1024,0,0,0,0,313.9,-5.5,-33.8,96,4.245,4.252,4.255,4.254,0,0,2.056,98.51,1692.9252546329,0,10,Assisted_Takeoff,
50300,2025-09-03 15:20:10,48.148745920094,11.5721748672767,0,,,1692.9252546329,0.328084,0,1.82625662012,2.58312672308,7,3,16.979,1692.9252546329,0,0,1.88926187148,0,0,0,257.8, -0.7, -3.6,0,0,1024,1024,1024,1024,0,0,0,0,313.8,-5.5,-33.8,96,4.245,4.252,4.255,4.254,0,0,2.056,98.51,1692.9252546329,0,10,Assisted_Takeoff,
50400,2025-09-03 15:20:11,48.1487459822256,11.5721748344822,0,,,1692.9252546329,0.328084,0,1.8494587206,2.60716215692,7,3,16.979,1692.9252546329,0,0,1.88926187148,0,0,0,257.8, -0.8, -3.6,0,0,1024,1024,1024,1024,0,0,0,0,313.8,-5.5,-33.8,96,4.245,4.252,4.255,4.254,0,0,2.056,98.51,1692.9252546329,0,10,Assisted_Takeoff,
50500,2025-09-03 15:20:11,48.1487459940481,11.5721748283355,0,,,1692.9252546329,0.328084,0,1.85387473124,2.61172580536,7,3,16.979,1692.9252546329,0,0,1.88926187148,0,0,0,257.8, -0.8, -3.6,0,0,1024,1024,1024,1024,0,0,0,0,313.7,-5.5,-34,96,4.245,4.252,4.255,4.254,0,0,2.056,98.51,1692.9252546329,0,10,Assisted_Takeoff,
50600,2025-09-03 15:20:11,48.1487460024379,11.5721748222368,0,,,1692.9252546329,0.328084,0,1.85704074184,2.61512803644,7,3,16.979,1692.9252546329,0,0,1.88926187148,0,0,0,257.7, -0.8, -3.6,0,0,1024,1024,1024,1024,0,0,0,0,313.6,-5.6,-33.9,96,4.245,4.252,4.255,4.254,0,0,2.056,98.51,1692.9252546329,0,10,Assisted_Takeoff,
50700,2025-09-03 15:20:11,48.1487460444452,11.5721747699332,0,,,1692.9252546329,0.328084,0,1.87334651664,2.63505257776,7,3,16.979,1692.9252546329,0,0,1.88926187148,0,0,0,257.8, -0.8, -3.6,0,0,1024,1024,1024,1024,0,0,0,0,313.6,-5.6,-34,96,4.245,4.252,4.255,4.254,0,0,2.056,98.51,1692.9252546329,0,10,Assisted_Takeoff,
50800,2025-09-03 15:20:11,48.1487461189172,11.5721745911475,0,,,1692.9252546329,0.328084,0,1.90451777748,2.68636163452,7,3,16.979,1692.9252546329,0,0,1.90451777748,0,0,0,257.7, -0.7, -3.5,0,0,1024,1024,1024,1024,0,0,0,0,313.4,-5.7,-34,96,4.245,4.252,4.255,4.254,0,0,2.056,98.51,1692.9252546329,0,10,Assisted_Takeoff,
50900,2025-09-03 15:20:11,48.1487460789454,11.5721744687707,0,,,1692.9252546329,0.328084,0,1.89340885324,2.71952764608,7,3,16.986,1692.9252546329,0,0,1.90451777748,0,0,0,257.7, -0.7, -3.5,0,0,1024,1024,1024,1024,0,0,0,0,313.4,-5.7,-34.1,96,4.245,4.252,4.255,4.254,0,0,2.056,98.51,1692.9252546329,0,10,Assisted_Takeoff,
51000,2025-09-03 15:20:11,48.1487460304829,11.5721743388413,0,,,1692.9252546329,0.328084,0,1.88000990268,2.75576452388,7,3,16.986,1692.9252546329,0,0,1.90451777748,0,0,0,257.7, -0.7, -3.6,0,0,1024,1024,1033,1024,0,0,1,0,313.2,-5.8,-34,96,4.245,4.252,4.255,4.254,0,0,2.056,98.51,1692.9252546329,0,10,Assisted_Takeoff,
51100,2025-09-03 15:20:11,48.1487461400642,11.5721743406292,0,,,1692.9252546329,0.328084,0,1.91954730552,2.79574812096,7,3,16.986,1692.9252546329,0,0,1.91954730552,0,0,0,257.7, -0.7, -3.6,0,0,1024,1024,1084,1024,0,0,9,0,313.2,-5.8,-34,96,4.245,4.252,4.255,4.254,0,0,2.056,98.51,1692.9252546329,0,10,Assisted_Takeoff,
51200,2025-09-03 15:20:11,48.1487463921506,11.5721743756096,0,,,1692.9252546329,0.328084,0,2.0096129252,2.88811360948,7,3,16.986,1692.9252546329,0,0,2.0096129252,0,0,0,257.7, -0.7, -3.5,0,0,1024,1024,1123,1024,0,0,15,0,313.2,-5.8,-34.1,96,4.245,4.252,4.255,4.254,0,0,2.056,98.51,1692.9252546329,0,10,Assisted_Takeoff,
51300,2025-09-03 15:20:11,48.1487464358906,11.5721744457693,0,,,1692.9252546329,0.328084,0,2.02337932984,2.91148959448,7,3,16.986,1692.9252546329,0,0,2.02337932984,0,0,0,257.7, -0.7, -3.5,0,0,1024,1024,1164,1024,0,0,21,0,313.1,-5.8,-34.2,96,4.245,4.252,4.255,4.254,0,0,2.056,98.51,1692.9252546329,0,10,Assisted_Takeoff,
51400,2025-09-03 15:20:12,48.1487464715991,11.5721745262197,0,,,1692.9252546329,0.328084,0,2.03414376588,2.93500993644,7,3,16.986,1692.9252546329,0,0,2.03414376588,0,0,0,257.7, -0.8, -3.6,0,0,1024,1024,1151,1024,0,0,19,0,313,-5.8,-34.3,96,4.245,4.252,4.255,4.254,0,0,2.056,98.51,1692.9252546329,0,10,Assisted_Takeoff,
51500,2025-09-03 15:20:12,48.1487465998325,11.5721745229938,0,,,1692.9252546329,0.328084,0,2.08075137892,2.98180127652,7,3,16.986,1692.9252546329,0,0,2.08075137892,0,0,0,257.7, -0.8, -3.6,0,0,1024,1024,1147,1024,0,0,19,0,312.9,-6,-34.2,96,4.245,4.252,4.255,4.254,0,0,2.056,98.51,1692.9252546329,0,10,Assisted_Takeoff,
51600,2025-09-03 15:20:12,48.1487467451874,11.5721745036131,0,,,1692.9252546329,0.328084,0,2.13398628876,3.03504274804,8,3,16.986,1692.9252546329,0,0,2.13398628876,0,0,0,257.7, -0.7, -3.6,0,0,1024,1024,1151,1024,0,0,19,0,312.8,-6,-34.4,96,4.245,4.252,4.255,4.254,0,0,2.056,98.51,1692.9252546329,0,10,Assisted_Takeoff,
51700,2025-09-03 15:20:12,48.1487469140636,11.5721744571352,0,,,1692.9252546329,0.328084,0,2.19645020152,3.097687107,8,3,16.986,1692.9252546329,0,0,2.19645020152,0,0,0,257.7, -0.7, -3.6,0,0,1024,1024,1165,1024,0,0,21,0,312.6,-6.1,-34.2,96,4.245,4.252,4.255,4.254,0,0,2.056,98.51,1692.9252546329,0,10,Assisted_Takeoff,
51800,2025-09-03 15:20:12,48.1487470840145,11.5721744095114,0,,,1692.9252546329,0.328084,0,2.25934062348,3.16077109852,8,3,16.986,1692.9252546329,0,0,2.25934062348,0,0,0,257.7, -0.8, -3.7,0,0,1024,1024,1176,1024,0,0,23,0,312.5,-6.1,-34.2,96,4.245,4.252,4.255,4.254,0,0,2.056,98.51,1692.9252546329,0,10,Assisted_Takeoff,
51900,2025-09-03 15:20:12,48.1487471848804,11.5721744344484,0,,,1692.9252546329,0.328084,0,2.29528878736,3.19806768764,8,3,16.893,1692.9252546329,0,0,2.29528878736,0,0,0,257.7, -0.9, -3.7,0,0,1024,1024,1184,1024,0,0,24,0,312.4,-6.2,-34.3,96,4.245,4.251,4.255,4.255,0,0,2.068,98.51,1692.9252546329,0,10,Assisted_Takeoff,
52000,2025-09-03 15:20:12,48.1487472789034,11.5721744663473,0,,,1692.9252546329,0.328084,0,2.3286254026,3.23324157328,8,3,16.893,1692.9252546329,0,0,2.3286254026,0,0,0,257.7, -1, -4,0,0,1024,1024,1185,1024,0,0,24,0,312.5,-6.4,-34.2,96,4.245,4.251,4.255,4.255,0,0,2.068,98.51,1692.9252546329,0,10,Assisted_Takeoff,
52100,2025-09-03 15:20:12,48.1487474339704,11.5721745666471,0,,,1692.9252546329,0.328084,0,2.38268708412,3.2948491868,8,3,16.893,1692.9252546329,0,0,2.38268708412,0,0,0,257.7, -1.3, -4.1,0,0,1024,1024,1181,1024,0,0,24,0,313,-6.7,-34.6,96,4.245,4.251,4.255,4.255,0,0,2.068,98.51,1692.9252546329,0,10,Assisted_Takeoff,
52200,2025-09-03 15:20:12,48.1487475289347,11.5721745617457,0,,,1692.9252546329,0.328084,0,2.41730978864,3.3295276656,8,3,16.893,1692.9252546329,0,0,2.41730978864,0,0,0,257.8, -2.1, -4.2,0,0,1024,1024,1176,1024,0,0,23,0,312.9,-8.2,-34.1,96,4.245,4.251,4.255,4.255,0,0,2.068,98.51,1692.9252546329,0,10,Assisted_Takeoff,
52300,2025-09-03 15:20:12,48.148747613806,11.5721745160992,0,,,1692.9252546329,0.328084,0,2.4491306558,3.3624344908,8,3,16.893,1692.9252546329,0,0,2.4491306558,0,0,0,258.1, -4, -4.4,0,0,1024,1024,1176,1024,0,0,23,0,313.5,-10.5,-34.1,96,4.245,4.251,4.255,4.255,0,0,2.068,98.51,1692.9252546329,0,10,Assisted_Takeoff,
52400,2025-09-03 15:20:13,48.1487476753775,11.5721744107023,0,,,1692.9252546329,0.328084,0.223694,2.47391084032,3.3965224184,8,3,16.893,1692.9252546329,0,0.223694,2.47391084032,0,-0.223694,0,258.4, -6.4, -4.3,0,0,1024,1024,1166,1024,0,0,22,0,314.3,-11.6,-33.4,96,4.245,4.251,4.255,4.255,0,0,2.068,98.51,1692.9252546329,0,10,Assisted_Takeoff,
52500,2025-09-03 15:20:13,48.1487476077938,11.5721743476843,0,,,1692.9252546329,0.328084,0.3131716,2.45095480284,3.4255578524,8,3,16.893,1692.9252546329,0,0.3131716,2.47391084032,-0.223694,-0.223694,-0.447388,258.6, -6.9, -3.8,0,0,1024,1024,1172,1024,0,0,22,0,315.2,-7.8,-30.4,96,4.245,4.251,4.255,4.255,0,0,2.068,98.51,1692.9252546329,0,6,P-GPS,
52600,2025-09-03 15:20:13,48.148747495493,11.5721740692023,0,,,1692.9252546329,0.656168,0.6263432,2.41846792516,3.5047901384,7,3,16.893,1692.9252546329,0,0.6263432,2.47391084032,-0.447388,-0.447388,-0.671082,258.3, -3.5, -1.5,0,0,1024,1024,1168,1024,0,0,22,0,315.2,-7.8,-30.4,96,4.245,4.251,4.255,4.255,0,0,2.068,98.51,1692.9252546329,0,6,P-GPS,
52700,2025-09-03 15:20:13,48.1487473335475,11.5721736542557,0.328084,,,1693.2533386329,0.656168,0.6263432,2.37607619152,3.6217848928,7,3,16.893,1693.2533386329,0.328084,0.6263432,2.47391084032,-0.447388,-0.671082,-0.894776,258.3, 1.9, 1.4,0,0,1024,1024,1161,1024,0,0,21,0,313.1,-2.6,-28.6,96,4.245,4.251,4.255,4.255,0,0,2.068,98.51,1693.2533386329,0.328084,6,P-GPS,
52800,2025-09-03 15:20:13,48.1487471715271,11.5721732211128,0.328084,,,1693.2533386329,0.984252,0.6263432,2.33975729272,3.7426838468,8,3,16.893,1693.2533386329,0.328084,0.6263432,2.47391084032,-0.447388,-0.447388,-1.11847,258.1, 5.2, 2.1,0,0,1024,1024,1161,1024,0,0,21,0,311.2,-0.3,-28,96,4.245,4.251,4.255,4.255,0,0,2.068,98.51,1693.2533386329,0.328084,6,P-GPS,
52900,2025-09-03 15:20:13,48.1487470151444,11.5721726190542,0.328084,,,1693.2533386329,1.312336,0.3131716,2.32289377512,3.899934508,8,3,16.783,1693.2533386329,0.328084,0.6263432,2.47391084032,-0.223694,-0.223694,-1.11847,258.2, 6, 2.3,0,0,1024,1024,1162,1024,0,0,21,0,312.5,0.4,-27.4,96,4.215,4.221,4.221,4.213,0,0,4.492,98.51,1693.2533386329,0.328084,6,P-GPS,
53000,2025-09-03 15:20:13,48.1487469689389,11.5721723627294,0.656168,,,1693.5814226329,1.312336,0.223694,2.32595807968,3.9645998644,8,3,16.783,1693.5814226329,0.656168,0.6263432,2.47391084032,0,-0.223694,-1.11847,258.1, 4.6, 2.5,0,0,1024,1024,1156,1024,0,0,20,0,313.4,-1.6,-28.6,96,4.215,4.221,4.221,4.213,0,0,4.492,98.51,1693.5814226329,0.656168,6,P-GPS,
53100,2025-09-03 15:20:13,48.1487468994662,11.5721720934386,0.984252,,,1693.9095066329,1.64042,0,2.32394364392,4.0348754572,8,3,16.783,1693.9095066329,0.984252,0.6263432,2.47391084032,0,0,-1.11847,257.9, 1.4, 1.7,0,0,1024,1024,1153,1024,0,0,20,0,312.3,-5.2,-28.8,96,4.215,4.221,4.221,4.213,0,0,4.492,98.51,1693.9095066329,0.984252,6,P-GPS,
53200,2025-09-03 15:20:13,48.1487468861456,11.5721718616046,0.984252,,,1693.9095066329,1.64042,0,2.3396654292,4.0915027556,8,3,16.783,1693.9095066329,0.984252,0.6263432,2.47391084032,0,0,-1.11847,258, 0, 0.7,0,0,1024,1024,1156,1024,0,0,20,0,312.1,-5.2,-29.4,96,4.215,4.221,4.221,4.213,0,0,4.492,98.51,1693.9095066329,0.984252,6,P-GPS,
53300,2025-09-03 15:20:13,48.1487469982476,11.5721718450292,1.312336,,,1694.2375906329,1.968504,0.223694,2.37918642784,4.1326116808,8,3,16.783,1694.2375906329,1.312336,0.6263432,2.47391084032,0.223694,0,-1.11847,258.3, 0, -1.1,0,0,1024,1024,1159,1024,0,0,20,0,312.5,-5.8,-31.6,96,4.215,4.221,4.221,4.213,0,0,4.492,98.51,1694.2375906329,1.312336,6,P-GPS,
53400,2025-09-03 15:20:14,48.148747083539,11.5721717602857,1.64042,,,1694.5656746329,1.968504,0.223694,2.41570217704,4.16994764,9,3,16.783,1694.5656746329,1.64042,0.6263432,2.47391084032,0.223694,0,-1.11847,258.3, -0.2, -1.9,0,0,1024,1024,1160,1024,0,0,21,0,313.4,-5.4,-32.8,96,4.215,4.221,4.221,4.213,0,0,4.492,98.51,1694.5656746329,1.64042,6,P-GPS,
53500,2025-09-03 15:20:14,48.148747306333,11.5721719085928,1.64042,,,1694.5656746329,1.968504,0.223694,2.4787894494,4.2588912124,9,3,16.783,1694.5656746329,1.64042,0.6263432,2.4787894494,0.223694,0,-0.894776,258.4, -0.5, -2,0,0,1024,1024,1167,1024,0,0,22,0,313.4,-5.6,-31.1,96,4.215,4.221,4.221,4.213,0,0,4.492,98.51,1694.5656746329,1.64042,6,P-GPS,
53600,2025-09-03 15:20:14,48.1487475412295,11.5721720841158,1.968504,,,1694.8937586329,2.296588,0,2.54548564576,4.354658932,9,3,16.783,1694.8937586329,1.968504,0.6263432,2.54548564576,0,0,-0.894776,258.3, -1, -0.8,0,0,1024,1024,1168,1024,0,0,22,0,311.7,-7.4,-30.3,96,4.215,4.221,4.221,4.213,0,0,4.492,98.51,1694.8937586329,1.968504,6,P-GPS,
53700,2025-09-03 15:20:14,48.1487476455867,11.5721722843831,1.968504,,,1694.8937586329,2.296588,0.223694,2.56670611888,4.416502766,9,3,16.783,1694.8937586329,1.968504,0.6263432,2.56670611888,0.223694,0,-0.894776,258.1, -1.4, -0.4,0,0,1024,1024,1171,1024,0,0,22,0,312.1,-7.2,-31.6,96,4.215,4.221,4.221,4.213,0,0,4.492,98.51,1694.8937586329,1.968504,6,P-GPS,
53800,2025-09-03 15:20:14,48.1487477990903,11.5721728417275,1.968504,,,1694.8937586329,2.624672,0.223694,2.58403551576,4.5632875476,8,3,16.783,1694.8937586329,1.968504,0.6263432,2.58403551576,0.223694,0,-0.894776,258.2, -1.3, -1.5,0,0,1024,1024,1170,1024,0,0,22,0,312.7,-6.8,-32.5,96,4.215,4.221,4.221,4.213,0,0,4.492,98.51,1694.8937586329,1.968504,6,P-GPS,
53900,2025-09-03 15:20:14,48.1487478545584,11.5721729711145,2.296588,,,1695.2218426329,2.952756,0.223694,2.59627304896,4.600721932,8,3,16.443,1695.2218426329,2.296588,0.6263432,2.59627304896,0.223694,0,-0.671082,258.3, -1.4, -2.3,0,0,1024,1024,1168,1024,0,0,22,0,312.4,-6.9,-32.2,96,4.079,4.098,4.095,4.067,0,0,17.002,98.51,1695.2218426329,2.296588,6,P-GPS,
54000,2025-09-03 15:20:14,48.1487478943576,11.5721731032361,2.296588,,,1695.2218426329,2.952756,0,2.603264519,4.6360237704,9,3,16.443,1695.2218426329,2.296588,0.6263432,2.603264519,0,0,-0.671082,258.3, -1.4, -2.5,0,0,1024,1024,1179,1024,0,0,23,0,312.4,-6.9,-32.2,96,4.079,4.098,4.095,4.067,0,0,17.002,98.51,1695.2218426329,2.296588,6,P-GPS,
54100,2025-09-03 15:20:14,48.1487479404751,11.5721731682217,2.624672,,,1695.5499266329,2.952756,0,2.61634194724,4.6590880756,9,3,16.443,1695.5499266329,2.624672,0.6263432,2.61634194724,0,0,-0.671082,258.3, -1.3, -2,0,0,1024,1024,1175,1024,0,0,23,0,312,-7.1,-31.9,96,4.079,4.098,4.095,4.067,0,0,17.002,98.51,1695.5499266329,2.624672,6,P-GPS,
54200,2025-09-03 15:20:14,48.1487477519176,11.572173209458,2.624672,,,1695.5499266329,2.952756,0,2.54697514712,4.7286418836,9,3,16.443,1695.5499266329,2.624672,0.6263432,2.61634194724,0,0,-0.894776,258.2, -1.4, -1.3,0,0,1024,1024,1175,1024,0,0,23,0,312.4,-6.9,-31.3,96,4.079,4.098,4.095,4.067,0,0,17.002,98.51,1695.5499266329,2.624672,6,P-GPS,
54300,2025-09-03 15:20:14,48.1487476017555,11.5721733730357,2.624672,,,1695.5499266329,3.28084,0,2.48517396404,4.7963584212,9,3,16.443,1695.5499266329,2.624672,0.6263432,2.61634194724,0,0,-0.894776,258.2, -1.5, -0.7,0,0,1024,1024,1180,1024,0,0,24,0,312.1,-7.3,-30.7,96,4.079,4.098,4.095,4.067,0,0,17.002,98.51,1695.5499266329,2.624672,6,P-GPS,
54400,2025-09-03 15:20:15,48.1487474232846,11.5721735489069,2.952756,,,1695.8780106329,3.28084,0,2.41298236068,4.8742783712,9,3,16.443,1695.8780106329,2.952756,0.6263432,2.61634194724,0,0,-0.894776,258.1, -1.5, -0.5,0,0,1024,1024,1179,1024,0,0,23,0,311.7,-7.3,-30.6,96,4.079,4.098,4.095,4.067,0,0,17.002,98.51,1695.8780106329,2.952756,6,P-GPS,
54500,2025-09-03 15:20:15,48.1487472116324,11.5721735689168,2.952756,,,1695.8780106329,3.608924,0,2.33624679392,4.9516733868,9,3,16.443,1695.8780106329,2.952756,0.6263432,2.61634194724,0,0,-0.894776,258.1, -1.5, -0.6,0,0,1024,1024,1176,1024,0,0,23,0,311.6,-7.3,-30.8,96,4.079,4.098,4.095,4.067,0,0,17.002,98.51,1695.8780106329,2.952756,6,P-GPS,
54600,2025-09-03 15:20:15,48.1487463932709,11.5721734895931,3.28084,,,1696.2060946329,3.608924,0,2.04838917316,5.2508531864,9,3,16.443,1696.2060946329,3.28084,0.6263432,2.61634194724,0,0,-1.11847,258.1, -1.2, -0.6,0,0,1024,1024,1181,1024,0,0,24,0,311.8,-7,-30.8,96,4.079,4.098,4.095,4.067,0,0,17.002,98.51,1696.2060946329,3.28084,6,P-GPS,
54700,2025-09-03 15:20:15,48.1487460456112,11.5721735087812,3.28084,,,1696.2060946329,3.937008,0,1.9239994054,5.377788886,9,3,16.443,1696.2060946329,3.28084,0.6263432,2.61634194724,0,0,-1.11847,258.1, -1.4, -0.5,0,0,1024,1024,1183,1024,0,0,24,0,311.6,-7.2,-31.3,96,4.079,4.098,4.095,4.067,0,0,17.002,98.51,1696.2060946329,3.28084,6,P-GPS,
54800,2025-09-03 15:20:15,48.1487456747917,11.5721735281235,3.608924,,,1696.5341786329,3.937008,0,1.79178483424,5.5131563444,8,3,16.443,1696.5341786329,3.608924,0.6263432,2.61634194724,0,0,-1.11847,258.1, -1.3, -1,0,0,1024,1024,1182,1024,0,0,24,0,311.7,-7.1,-31.9,96,4.079,4.098,4.095,4.067,0,0,17.002,98.51,1696.5341786329,3.608924,6,P-GPS,
54900,2025-09-03 15:20:15,48.148745440185,11.5721734451984,3.608924,,,1696.5341786329,4.265092,0,1.71472774516,5.6011156648,8,3,16.142,1696.5341786329,3.608924,0.6263432,2.61634194724,0,0,-1.11847,258.2, -1.2, -1.4,0,0,1024,1024,1179,1024,0,0,23,0,312,-7.1,-32,96,4.079,4.098,4.095,4.067,0,0,17.42,98.51,1696.5341786329,3.608924,6,P-GPS,
55000,2025-09-03 15:20:15,48.1487452083565,11.5721733346914,3.937008,,,1696.8622626329,4.265092,0,1.64179467196,5.6898623868,8,3,16.142,1696.8622626329,3.937008,0.6263432,2.61634194724,0,0,-1.11847,258.2, -1.4, -1.2,0,0,1024,1024,1179,1024,0,0,23,0,311.4,-7.3,-31.3,96,4.079,4.098,4.095,4.067,0,0,17.42,98.51,1696.8622626329,3.937008,6,P-GPS,
55100,2025-09-03 15:20:15,48.1487453455626,11.5721733329164,3.937008,,,1696.8622626329,4.593176,0,1.68960963412,5.7399280052,8,3,16.142,1696.8622626329,3.937008,0.6263432,2.61634194724,0,0,-1.11847,258.2, -1.4, -0.8,0,0,1024,1024,1185,1024,0,0,24,0,310.7,-7.7,-31.6,96,4.079,4.098,4.095,4.067,0,0,17.42,98.51,1696.8622626329,3.937008,6,P-GPS,
55200,2025-09-03 15:20:15,48.1487455139112,11.5721733404498,4.265092,,,1697.1903466329,4.593176,0,1.7477690848,5.8013781384,10,3,16.142,1697.1903466329,4.265092,0.6263432,2.61634194724,0,0,-1.11847,258.2, -1.3, -1,0,0,1024,1024,1188,1024,0,0,25,0,311.6,-7.4,-31.9,96,4.079,4.098,4.095,4.067,0,0,17.42,98.51,1697.1903466329,4.265092,6,P-GPS,
55300,2025-09-03 15:20:15,48.1487458604441,11.5721734232498,4.593176,,,1697.5184306329,4.92126,0,1.86381567644,5.9293965152,10,3,16.142,1697.5184306329,4.593176,0.6263432,2.61634194724,0,0,-1.11847,258.2, -1.4, -1.4,0,0,1024,1024,1192,1024,0,0,25,0,311.6,-7.3,-32,96,4.079,4.098,4.095,4.067,0,0,17.42,98.51,1697.5184306329,4.593176,6,P-GPS,
55400,2025-09-03 15:20:15,48.1487462159627,11.5721735013602,4.593176,,,1697.5184306329,4.92126,0,1.98479665144,6.0604988816,9,3,16.142,1697.5184306329,4.593176,0.6263432,2.61634194724,0,0,-1.11847,258.2, -1.5, -1.6,0,0,1024,1024,1197,1024,0,0,26,0,311.6,-7.3,-32,96,4.079,4.098,4.095,4.067,0,0,17.42,98.51,1697.5184306329,4.593176,6,P-GPS,
55500,2025-09-03 15:20:16,48.1487469195547,11.5721743610499,4.92126,,,1697.8465146329,5.249344,0,2.20104665836,6.3916996796,9,3,16.142,1697.8465146329,4.92126,0.6263432,2.61634194724,0,0,-1.342164,258.2, -1.5, -1.4,0,0,1024,1024,1202,1024,0,0,27,0,311.1,-7.6,-32.4,96,4.079,4.098,4.095,4.067,0,0,17.42,98.51,1697.8465146329,4.92126,6,P-GPS,
55600,2025-09-03 15:20:16,48.1487469602365,11.5721746278387,4.92126,,,1697.8465146329,5.249344,0,2.20920610744,6.45833354,9,3,16.142,1697.8465146329,4.92126,0.6263432,2.61634194724,0,0,-1.342164,258.3, -1.4, -1,0,0,1024,1024,1198,1024,0,0,26,0,310.9,-7.6,-32.3,96,4.079,4.098,4.095,4.067,0,0,17.42,98.51,1697.8465146329,4.92126,6,P-GPS,
55700,2025-09-03 15:20:16,48.148746929726,11.5721748449141,5.249344,,,1698.1745986329,5.577428,0,2.19413720932,6.5123361664,9,3,16.142,1698.1745986329,5.249344,0.6263432,2.61634194724,0,0,-1.342164,258.3, -1.2, -0.7,0,0,1024,1024,1196,1024,0,0,26,0,311.5,-7.1,-32.2,96,4.079,4.098,4.095,4.067,0,0,17.42,98.51,1698.1745986329,5.249344,6,P-GPS,
55800,2025-09-03 15:20:16,48.1487468899626,11.5721750494584,5.577428,,,1698.5026826329,5.577428,0,2.17705387544,6.5641734384,8,3,16.142,1698.5026826329,5.577428,0.6263432,2.61634194724,0,0,-1.342164,258.3, -1.1, -0.7,0,0,1024,1024,1196,1024,0,0,26,0,311.1,-7.3,-32.3,96,4.079,4.098,4.095,4.067,0,0,17.42,98.51,1698.5026826329,5.577428,6,P-GPS,
55900,2025-09-03 15:20:16,48.1487471663519,11.5721755981573,5.577428,,,1698.5026826329,5.905512,0,2.27650269752,6.7315290868,8,3,16.137,1698.5026826329,5.577428,0.6263432,2.61634194724,0,0,-1.342164,258.3, -1, -0.9,0,0,1024,1024,1197,1024,0,0,26,0,310.8,-7.3,-32.3,96,4.054,4.071,4.069,4.038,0,0,17.42,98.51,1698.5026826329,5.577428,6,P-GPS,"Setting new Return-To-Home altitude to 100m (328 ft). Data Recorder File Index is 244. Setting new Maximum Flight Altitude to 500m (1640 ft)"
56000,2025-09-03 15:20:16,48.148747326822,11.5721757842581,5.905512,,,1698.8307666329,6.233596,0,2.33634193828,6.8055776456,9,3,16.137,1698.8307666329,5.905512,0.6263432,2.61634194724,0,0,-1.342164,258.3, -1.1, -1,0,0,1024,1024,1197,1024,0,0,26,0,311,-7.2,-32.7,96,4.054,4.071,4.069,4.038,0,0,17.42,98.51,1698.8307666329,5.905512,6,P-GPS,
56100,2025-09-03 15:20:16,48.1487476028498,11.5721759669759,6.233596,,,1699.1588506329,6.233596,0,2.43902238776,6.9156498276,9,3,16.137,1699.1588506329,6.233596,0.6263432,2.61634194724,0,0,-1.342164,258.3, -1.1, -1.2,0,0,1024,1024,1198,1024,0,0,26,0,311.1,-7.1,-32.4,96,4.054,4.071,4.069,4.038,0,0,17.42,98.51,1699.1588506329,6.233596,6,P-GPS,
56200,2025-09-03 15:20:16,48.1487478882965,11.5721761562994,6.233596,,,1699.1588506329,6.56168,0,2.54586294236,7.0295605924,10,3,16.137,1699.1588506329,6.233596,0.6263432,2.61634194724,0,0,-1.342164,258.3, -1, -1.2,0,0,1024,1024,1199,1024,0,0,27,0,310.8,-7.2,-31.9,96,4.054,4.071,4.069,4.038,0,0,17.42,98.51,1699.1588506329,6.233596,6,P-GPS,
56300,2025-09-03 15:20:16,48.1487488002642,11.5721759901506,6.56168,,,1699.4869346329,6.889764,0,2.87560376656,7.3647312068,10,3,16.137,1699.4869346329,6.56168,0.6263432,2.87560376656,0,0,-1.342164,258.3, -1, -1.2,0,0,1024,1024,1197,1024,0,0,26,0,310.4,-7.6,-32,96,4.054,4.071,4.069,4.038,0,0,17.42,98.51,1699.4869346329,6.56168,6,P-GPS,
56400,2025-09-03 15:20:17,48.1487490985659,11.5721759873741,6.889764,,,1699.8150186329,6.889764,0,2.9842848724,7.4735566696,9,3,16.137,1699.8150186329,6.889764,0.6263432,2.9842848724,0,0,-1.342164,258.3, -1.2, -1.1,0,0,1024,1024,1196,1024,0,0,26,0,310.5,-7.6,-32.1,96,4.054,4.071,4.069,4.038,0,0,17.42,98.51,1699.8150186329,6.889764,6,P-GPS,
56500,2025-09-03 15:20:17,48.1487492643415,11.5721761153327,7.217848,,,1700.1431026329,7.217848,0,3.04628618672,7.5416012912,9,3,16.137,1700.1431026329,7.217848,0.6263432,3.04628618672,0,0,-1.342164,258.4, -1.2, -0.9,0,0,1024,1024,1196,1024,0,0,26,0,310.7,-7.3,-32.3,96,4.054,4.071,4.069,4.038,0,0,17.42,98.51,1700.1431026329,7.217848,6,P-GPS,
56600,2025-09-03 15:20:17,48.1487494179558,11.5721762617027,7.217848,,,1700.1431026329,7.545932,0,3.10440626732,7.6080054928,9,3,16.137,1700.1431026329,7.217848,0.6263432,3.10440626732,0,0,-1.342164,258.3, -1, -0.8,0,0,1024,1024,1198,1024,0,0,26,0,310.4,-7.3,-32.4,96,4.054,4.071,4.069,4.038,0,0,17.42,98.51,1700.1431026329,7.217848,6,P-GPS,
56700,2025-09-03 15:20:17,48.1487495175091,11.5721763725434,7.545932,,,1700.4711866329,7.545932,0,3.14253290896,7.6532482764,9,3,16.137,1700.4711866329,7.545932,0.6263432,3.14253290896,0,0,-1.342164,258.3, -0.9, -0.7,0,0,1024,1024,1199,1024,0,0,27,0,310.2,-7.4,-32.1,96,4.054,4.071,4.069,4.038,0,0,17.42,98.51,1700.4711866329,7.545932,6,P-GPS,
56800,2025-09-03 15:20:17,48.1487495399914,11.5721765971683,7.874016,,,1700.7992706329,7.874016,0,3.15522647892,7.7085632388,10,3,16.137,1700.7992706329,7.874016,0.6263432,3.15522647892,0,0,-1.342164,258.3, -0.7, -0.1,0,0,1024,1024,1199,1024,0,0,27,0,310.2,-7.4,-32.1,96,4.054,4.071,4.069,4.038,0,0,17.42,98.51,1700.7992706329,7.874016,6,P-GPS,
56900,2025-09-03 15:20:17,48.1487495021855,11.5721767316909,7.874016,,,1700.7992706329,8.2021,0,3.14465889328,7.744094736,10,3,16.111,1700.7992706329,7.874016,0.6263432,3.15522647892,0,0,-1.342164,258.3, -0.8, -0.4,0,0,1024,1024,1198,1024,0,0,26,0,309.6,-7.8,-32.3,96,4.047,4.064,4.062,4.03,0,0,17.266,98.51,1700.7992706329,7.874016,6,P-GPS,
57000,2025-09-03 15:20:17,48.1487494496844,11.5721768753999,8.2021,,,1701.1273546329,8.530184,0.223694,3.12938330224,7.783956942,9,3,16.111,1701.1273546329,8.2021,0.6263432,3.15522647892,0.223694,0,-1.342164,258.3, -0.9, -1.1,0,0,1024,1024,1196,1024,0,0,26,0,309.7,-7.8,-33.2,96,4.047,4.064,4.062,4.03,0,0,17.266,98.51,1701.1273546329,8.2021,6,P-GPS,
57100,2025-09-03 15:20:17,48.1487499327526,11.5721772838563,8.530184,,,1701.4554386329,8.530184,0,3.3167323896,7.9863191532,9,3,16.111,1701.4554386329,8.530184,0.6263432,3.3167323896,0,0,-1.342164,258.3, -1.1, -1.6,0,0,1024,1024,1194,1024,0,0,26,0,310.4,-7.6,-33.4,96,4.047,4.064,4.062,4.03,0,0,17.266,98.51,1701.4554386329,8.530184,6,P-GPS,
57200,2025-09-03 15:20:17,48.1487511706892,11.5721783218407,8.530184,,,1701.4554386329,8.858268,0.223694,3.8034121952,8.5038716632,9,3,16.111,1701.4554386329,8.530184,0.6263432,3.8034121952,0.223694,0,-1.342164,258.3, -1.7, -2.6,0,0,1024,1024,1194,1024,0,0,26,0,309.9,-8.4,-34.3,96,4.047,4.064,4.062,4.03,0,0,17.266,98.51,1701.4554386329,8.530184,6,P-GPS,
57300,2025-09-03 15:20:17,48.1487518728124,11.5721787664105,8.858268,,,1701.7835226329,8.858268,0,4.0756891068,8.7819556616,9,3,16.111,1701.7835226329,8.858268,0.6263432,4.0756891068,0,0,-1.342164,258.4, -1.9, -3.2,0,0,1024,1024,1193,1024,0,0,26,0,309.8,-8.4,-34.4,96,4.047,4.064,4.062,4.03,0,0,17.266,98.51,1701.7835226329,8.858268,6,P-GPS,
57400,2025-09-03 15:20:18,48.1487525759387,11.572179213577,9.186352,,,1702.1116066329,9.186352,0,4.3491471208,9.0606302112,9,3,16.111,1702.1116066329,9.186352,0.6263432,4.3491471208,0,0,-1.342164,258.4, -1.5, -2.5,0,0,1024,1024,1192,1024,0,0,25,0,310.1,-7.9,-33.7,96,4.047,4.064,4.062,4.03,0,0,17.266,98.51,1702.1116066329,9.186352,6,P-GPS,
57500,2025-09-03 15:20:18,48.148752785451,11.5721793022027,9.186352,,,1702.1116066329,9.186352,0,4.4284450236,9.1400593476,9,3,16.111,1702.1116066329,9.186352,0.6263432,4.4284450236,-0.223694,0,-1.342164,258.3, -1.2, -1.7,0,0,1024,1024,1191,1024,0,0,25,0,309.7,-7.8,-33.2,96,4.047,4.064,4.062,4.03,0,0,17.266,98.51,1702.1116066329,9.186352,6,P-GPS,
57600,2025-09-03 15:20:18,48.1487532297426,11.5721792792431,9.514436,,,1702.4396906329,9.514436,0.223694,4.5857613016,9.3022640772,8,3,16.111,1702.4396906329,9.514436,0.6263432,4.5857613016,-0.223694,0,-1.342164,258.2, -1.1, -1.2,0,0,1024,1024,1190,1024,0,0,25,0,309.2,-7.8,-32.2,96,4.047,4.064,4.062,4.03,0,0,17.266,98.51,1702.4396906329,9.514436,6,P-GPS,
57700,2025-09-03 15:20:18,48.1487531888817,11.5721792692413,9.84252,,,1702.7677746329,9.84252,0.223694,4.570702246,9.3173559412,8,3,16.111,1702.7677746329,9.84252,0.6263432,4.5857613016,-0.223694,0,-1.342164,258.2, -0.9, 0,0,0,1024,1024,1188,1024,0,0,25,0,309,-7.7,-31.3,96,4.047,4.064,4.062,4.03,0,0,17.266,98.51,1702.7677746329,9.84252,6,P-GPS,
57800,2025-09-03 15:20:18,48.1487531425362,11.5721792577502,9.84252,,,1702.7677746329,9.84252,0.447388,4.5535762612,9.334481926,8,4,16.111,1702.7677746329,9.84252,0.6263432,4.5857613016,-0.447388,0,-1.342164,258.1, -0.8, 0.8,0,0,1024,1024,1185,1024,0,0,24,0,308.3,-7.9,-30.7,96,4.047,4.064,4.062,4.03,0,0,17.266,98.51,1702.7677746329,9.84252,6,P-GPS,
57900,2025-09-03 15:20:18,48.1487530984966,11.5721791701003,10.170604,,,1703.0958586329,10.170604,0.447388,4.5334975204,9.3611879636,8,4,16.114,1703.0958586329,10.170604,0.6263432,4.5857613016,-0.447388,0,-1.342164,258.1, -0.6, 1.1,0,0,1024,1024,1180,1024,0,0,24,0,308.9,-7.3,-30.8,96,4.047,4.064,4.062,4.03,0,0,17.266,98.51,1703.0958586329,10.170604,6,P-GPS,
58000,2025-09-03 15:20:18,48.1487523572972,11.572178361074,10.498688,,,1703.4239426329,10.498688,0.447388,4.2311681144,9.6957352184,8,4,16.114,1703.4239426329,10.498688,0.6263432,4.5857613016,-0.223694,-0.223694,-1.342164,258.1, -0.3, 1.1,0,0,1024,1024,1179,1024,0,0,23,0,309,-6.7,-31.4,96,4.047,4.064,4.062,4.03,0,0,17.266,98.51,1703.4239426329,10.498688,6,P-GPS,
58100,2025-09-03 15:20:18,48.1487525694346,11.5721782983578,10.498688,,,1703.4239426329,10.498688,0.223694,4.304954206,9.7746394204,8,4,16.114,1703.4239426329,10.498688,0.6263432,4.5857613016,-0.223694,0,-1.342164,258.1, 0.2, 1,0,0,1024,1024,1182,1024,0,0,24,0,309,-6.7,-31.4,96,4.047,4.064,4.062,4.03,0,0,17.266,98.51,1703.4239426329,10.498688,6,P-GPS,
58200,2025-09-03 15:20:19,48.1487528522465,11.5721782530162,10.826772,,,1703.7520266329,10.826772,0,4.4050526344,9.8784123896,8,4,16.114,1703.7520266329,10.826772,0.6263432,4.5857613016,0,0,-1.11847,258.2, 0.3, 0.9,0,0,1024,1024,1183,1024,0,0,24,0,308,-6.9,-31.3,96,4.047,4.064,4.062,4.03,0,0,17.266,98.51,1703.7520266329,10.826772,6,P-GPS,
58300,2025-09-03 15:20:19,48.1487530736302,11.5721781868783,11.154856,,,1704.0801106329,11.154856,0,4.4823820332,9.9607614736,8,4,16.114,1704.0801106329,11.154856,0.6263432,4.5857613016,0,0,-1.11847,258.2, 0.3, 0.5,0,0,1024,1024,1182,1024,0,0,24,0,308.1,-6.9,-31.4,96,4.047,4.064,4.062,4.03,0,0,17.266,98.51,1704.0801106329,11.154856,6,P-GPS,
58400,2025-09-03 15:20:19,48.1487533128258,11.5721781250544,11.154856,,,1704.0801106329,11.154856,0,4.5665027708,10.0493113452,7,3,16.114,1704.0801106329,11.154856,0.6263432,4.5857613016,0,0,-1.11847,258.2, 0.4, 0,0,0,1024,1024,1185,1024,0,0,24,0,308.8,-6.6,-32,96,4.047,4.064,4.062,4.03,0,0,17.266,98.51,1704.0801106329,11.154856,6,P-GPS,
58500,2025-09-03 15:20:19,48.1487537091761,11.5721777575936,11.48294,,,1704.4081946329,11.48294,0,4.6979332212,10.2193572824,7,3,16.114,1704.4081946329,11.48294,0.6263432,4.6979332212,0,0,-1.11847,258.2, 0.4, -0.3,0,0,1024,1024,1184,1024,0,0,24,0,308.8,-6.7,-32.5,96,4.047,4.064,4.062,4.03,0,0,17.266,98.51,1704.4081946329,11.48294,6,P-GPS,
58600,2025-09-03 15:20:19,48.1487539023519,11.5721775947445,11.48294,,,1704.4081946329,11.48294,0,4.7633203624,10.3002299884,8,3,16.114,1704.4081946329,11.48294,0.6263432,4.7633203624,0,0,-1.11847,258.2, 0.2, -0.6,0,0,1024,1024,1189,1024,0,0,25,0,307.7,-7.6,-32.2,96,4.047,4.064,4.062,4.03,0,0,17.266,98.51,1704.4081946329,11.48294,6,P-GPS,
58700,2025-09-03 15:20:19,48.1487539642165,11.5721775913999,11.811024,,,1704.7362786329,11.48294,0,4.7856628828,10.3228021676,8,3,16.114,1704.7362786329,11.811024,0.6263432,4.7856628828,0,0,-1.11847,258.2, 0, -0.5,0,0,1024,1024,1189,1024,0,0,25,0,307.8,-7.7,-31.8,96,4.047,4.064,4.062,4.03,0,0,17.266,98.51,1704.7362786329,11.811024,6,P-GPS,
58800,2025-09-03 15:20:19,48.1487540269344,11.5721776182723,12.139108,,,1705.0643626329,11.811024,0,4.8091208888,10.346621066,9,3,16.114,1705.0643626329,12.139108,0.6263432,4.8091208888,0,0,-1.11847,258.2, -0.2, -0.5,0,0,1024,1024,1190,1024,0,0,25,0,308.3,-7.5,-31.7,96,4.047,4.064,4.062,4.03,0,0,17.266,98.51,1705.0643626329,12.139108,6,P-GPS,
58900,2025-09-03 15:20:19,48.1487533883922,11.572177566877,12.139108,,,1705.0643626329,12.139108,0,4.5762468656,10.5799215984,9,3,16.048,1705.0643626329,12.139108,0.6263432,4.8091208888,0,0,-1.11847,258.2, -0.2, -0.4,0,0,1024,1024,1192,1024,0,0,25,0,308.7,-7.3,-31.8,96,4.042,4.06,4.056,4.024,0,0,17.048,98.51,1705.0643626329,12.139108,6,P-GPS,
59000,2025-09-03 15:20:19,48.1487533948213,11.5721776535576,12.467192,,,1705.3924466329,12.139108,0,4.581036892,10.6011486332,9,3,16.048,1705.3924466329,12.467192,0.6263432,4.8091208888,0,0,-1.342164,258.2, -0.1, -0.1,0,0,1024,1024,1194,1024,0,0,26,0,307.8,-7.6,-31.6,96,4.042,4.06,4.056,4.024,0,0,17.048,98.51,1705.3924466329,12.467192,6,P-GPS,
59100,2025-09-03 15:20:19,48.1487533383143,11.5721776272726,12.467192,,,1705.3924466329,12.467192,0,4.5598098572,10.6227365604,9,3,16.048,1705.3924466329,12.467192,0.6263432,4.8091208888,0,0,-1.342164,258.3, -0.1, 0.2,0,0,1024,1024,1194,1024,0,0,26,0,307.7,-7.7,-31.3,96,4.042,4.06,4.056,4.024,0,0,17.048,98.51,1705.3924466329,12.467192,6,P-GPS,
59200,2025-09-03 15:20:19,48.1487532921544,11.5721775871565,12.795276,,,1705.7205306329,12.467192,0,4.5419292792,10.6421919416,9,3,16.048,1705.7205306329,12.795276,0.6263432,4.8091208888,0,0,-1.342164,258.2, -0.4, 0.5,0,0,1024,1024,1194,1024,0,0,26,0,308.4,-7.4,-31,96,4.042,4.06,4.056,4.024,0,0,17.048,98.51,1705.7205306329,12.795276,6,P-GPS,
59300,2025-09-03 15:20:19,48.1487524816843,11.5721775601011,13.12336,,,1706.0486146329,12.795276,0,4.2475723144,10.9379596676,9,3,16.048,1706.0486146329,13.12336,0.6263432,4.8091208888,0,0,-1.342164,258.3, -0.4, 0.5,0,0,1024,1024,1193,1024,0,0,26,0,307.8,-7.7,-30.8,96,4.042,4.06,4.056,4.024,0,0,17.048,98.51,1706.0486146329,13.12336,6,P-GPS,
59400,2025-09-03 15:20:20,48.1487522931138,11.5721775807209,13.12336,,,1706.0486146329,12.795276,0,4.1799213936,11.0069557328,10,3,16.048,1706.0486146329,13.12336,0.6263432,4.8091208888,0,0,-1.342164,258.3, -0.3, 0.6,0,0,1024,1024,1195,1024,0,0,26,0,306.9,-8.1,-31.7,96,4.042,4.06,4.056,4.024,0,0,17.048,98.51,1706.0486146329,13.12336,6,P-GPS,
59500,2025-09-03 15:20:20,48.1487523690123,11.5721775188584,13.451444,,,1706.3766986329,13.12336,0,4.205544754,11.0384846052,10,3,16.048,1706.3766986329,13.451444,0.6263432,4.8091208888,0,0,-1.342164,258.3, -0.1, 0.7,0,0,1024,1024,1194,1024,0,0,26,0,306.9,-8.1,-31.7,96,4.042,4.06,4.056,4.024,0,0,17.048,98.51,1706.3766986329,13.451444,6,P-GPS,
59600,2025-09-03 15:20:20,48.1487524838892,11.5721774439514,13.451444,,,1706.3766986329,13.451444,0,4.2449804508,11.0841867064,10,3,16.048,1706.3766986329,13.451444,0.6263432,4.8091208888,0,0,-1.342164,258.3, -0.2, 0.6,0,0,1024,1024,1192,1024,0,0,25,0,308.2,-7.3,-31.4,96,4.042,4.06,4.056,4.024,0,0,17.048,98.51,1706.3766986329,13.451444,6,P-GPS,
59700,2025-09-03 15:20:20,48.1487527834187,11.5721772562874,13.779528,,,1706.7047826329,13.779528,0,4.348589378,11.2026250304,10,3,16.048,1706.7047826329,13.779528,0.6263432,4.8091208888,0,0,-1.342164,258.3, -0.1, 0.4,0,0,1024,1024,1194,1024,0,0,26,0,308,-7.3,-31.7,96,4.042,4.06,4.056,4.024,0,0,17.048,98.51,1706.7047826329,13.779528,6,P-GPS,
59800,2025-09-03 15:20:20,48.1487528804153,11.5721771956671,14.107612,,,1707.0328666329,13.779528,0,4.3823164132,11.24097805,10,3,16.048,1707.0328666329,14.107612,0.6263432,4.8091208888,0,0,-1.342164,258.2, 0.2, 0.1,0,0,1024,1024,1193,1024,0,0,26,0,306.8,-7.7,-32.2,96,4.042,4.06,4.056,4.024,0,0,17.048,98.51,1707.0328666329,14.107612,6,P-GPS,
