time(millisecond),datetime(utc),latitude,longitude,height_above_takeoff(feet),height_above_ground_at_drone_location(feet),ground_elevation_at_drone_location(feet),altitude_above_seaLevel(feet),height_sonar(feet),speed(mph),distance(feet),mileage(feet),satellites,gpslevel,voltage(v),max_altitude(feet),max_ascent(feet),max_speed(mph),max_distance(feet), xSpeed(mph), ySpeed(mph), zSpeed(mph), compass_heading(degrees), pitch(degrees), roll(degrees),isPhoto,isVideo,rc_elevator,rc_aileron,rc_throttle,rc_rudder,rc_elevator(percent),rc_aileron(percent),rc_throttle(percent),rc_rudder(percent),gimbal_heading(degrees),gimbal_pitch(degrees),gimbal_roll(degrees),battery_percent,voltageCell1,voltageCell2,voltageCell3,voltageCell4,voltageCell5,voltageCell6,current(A),battery_temperature(f),altitude(feet),ascent(feet),flycStateRaw,flycState,message
528100,2025-09-03 07:46:09,48.1491099881948,11.572511437464,0,Available with any HD 360 subscription,Available with any HD 360 subscription,1692.9360679535,0.328084,0,0,0,8,2,0,1692.9360679535,0,0,0,0,0,0,119.7, -1.3, -0.7,0,0,1024,1024,1024,1024,0,0,0,0,195.7,-58.7,4.8,49,3.849,3.856,3.856,3.848,0,0,0,121.91,1692.9360679535,0,41,Motors_Started,
528200,2025-09-03 07:46:09,48.1491106345437,11.5725121457791,0,,,1692.9360679535,0.328084,0,0.29213091486,0.29213091486,8,2,0,1692.9360679535,0,0,0.29213091486,0,0,0,119.3, -1.3, -0.7,0,0,1024,1024,1024,1024,0,0,0,0,195.7,-58.8,4.8,49,3.849,3.856,3.856,3.848,0,0,0,121.91,1692.9360679535,0,41,Motors_Started,
528300,2025-09-03 07:46:09,48.1491112877713,11.5725128501397,0,,,1692.9360679535,0.328084,0,0.58572508436,0.5857283652,8,2,0,1692.9360679535,0,0,0.58572508436,0,0,0,119.6, -1.3, -0.7,0,0,365,364,364,1684,-100,-100,-100,100,195.6,-58.6,4.8,49,3.849,3.856,3.856,3.848,0,0,0,121.91,1692.9360679535,0,41,Motors_Started,
528400,2025-09-03 07:46:09,48.1491119376116,11.5725135587629,0,,,1692.9360679535,0.328084,0,0.87892719348,0.87893375516,8,2,0,1692.9360679535,0,0,0.87892719348,0,0,0,119.5, -1.3, -0.7,0,0,377,364,364,1684,-98,-100,-100,100,195.6,-58.6,4.9,49,3.849,3.856,3.856,3.848,0,0,0,121.91,1692.9360679535,0,41,Motors_Started,
528500,2025-09-03 07:46:09,48.1491125876864,11.572514266359,0,,,1692.9360679535,0.328084,0,1.17205384328,1.17205712412,9,2,0,1692.9360679535,0,0,1.17205384328,0,0,0,119.6, -1.3, -0.6,0,0,653,528,382,1682,-56,-75,-97,100,195.6,-58.6,4.9,49,3.849,3.856,3.856,3.848,0,0,0,121.91,1692.9360679535,0,41,Motors_Started,
528600,2025-09-03 07:46:09,48.1491132378655,11.572514974289,0,,,1692.9360679535,0.328084,0,1.46525923324,1.46526251408,9,2,0,1692.9360679535,0,0,1.46525923324,0,0,0,119.5, -1.3, -0.6,0,0,950,707,442,1659,-11,-48,-88,96,195.5,-58.6,4.9,49,3.849,3.856,3.856,3.848,0,0,0,121.91,1692.9360679535,0,41,Motors_Started,
528700,2025-09-03 07:46:09,48.1491138888262,11.5725156816283,0,,,1692.9360679535,0.328084,0,1.75860898016,1.75861554184,9,2,0,1692.9360679535,0,0,1.75860898016,0,0,0,119.6, -1.3, -0.7,0,0,1024,924,750,1460,0,-15,-42,66,195.5,-58.6,5.2,49,3.849,3.856,3.856,3.848,0,0,0,121.91,1692.9360679535,0,41,Motors_Started,
528800,2025-09-03 07:46:09,48.1491145325176,11.5725163926396,0,,,1692.9360679535,0.328084,0,2.05034127296,2.05035111548,9,2,0,1692.9360679535,0,0,2.05034127296,0,0,0,119.5, -1.3, -0.7,0,0,1024,1024,1024,1107,0,0,0,13,195.4,-58.6,5.1,49,3.849,3.856,3.856,3.848,0,0,0,121.91,1692.9360679535,0,41,Motors_Started,
528900,2025-09-03 07:46:09,48.1491151850155,11.5725171034455,0,,,1692.9360679535,0.328084,0,2.34464246348,2.344652306,9,2,0,1692.9360679535,0,0,2.34464246348,0,0,0,119.5, -1.3, -0.7,0,0,1024,1024,1024,1024,0,0,0,0,195.3,-58.6,5.2,49,3.849,3.856,3.856,3.848,0,0,0,121.91,1692.9360679535,0,41,Motors_Started,
529000,2025-09-03 07:46:10,48.1491158381388,11.5725178147907,0,,,1692.9360679535,0.328084,0,2.6392061212,2.63921596372,9,2,15.386,1692.9360679535,0,0,2.6392061212,0,0,0,119.5, -1.3, -0.7,0,0,1024,1024,1024,1024,0,0,0,0,195.2,-58.6,5.3,49,3.849,3.856,3.856,3.848,0,0,1.738,121.91,1692.9360679535,0,41,Motors_Started,
529100,2025-09-03 07:46:10,48.1491164920177,11.5725185275995,0,,,1692.9360679535,0.328084,0,2.93419956896,2.93420941148,9,2,15.386,1692.9360679535,0,0,2.93419956896,0,0,0,119.5, -1.4, -0.7,0,0,1024,1024,1024,1024,0,0,0,0,195.2,-58.6,5.3,49,3.849,3.856,3.856,3.848,0,0,1.738,121.91,1692.9360679535,0,41,Motors_Started,
529200,2025-09-03 07:46:10,48.1491171386793,11.5725192233322,0,,,1692.9360679535,0.328084,0,3.22461952576,3.22463592996,9,2,15.386,1692.9360679535,0,0,3.22461952576,0,0,0,119.5, -1.3, -0.7,0,0,1024,1024,1024,1024,0,0,0,0,195.3,-58.6,5.4,49,3.849,3.856,3.856,3.848,0,0,1.738,121.91,1692.9360679535,0,41,Motors_Started,
529300,2025-09-03 07:46:10,48.1491177920632,11.5725199297984,0,,,1692.9360679535,0.328084,0,3.5185696664,3.5185696664,9,2,15.386,1692.9360679535,0,0,3.5185696664,0,0,0,119.5, -1.3, -0.6,0,0,1024,1024,1024,1024,0,0,0,0,195.1,-58.5,5.5,49,3.849,3.856,3.856,3.848,0,0,1.738,121.91,1692.9360679535,0,41,Motors_Started,
529400,2025-09-03 07:46:10,48.1491184451083,11.5725206373175,0,,,1692.9360679535,0.328084,0,3.8125657388,3.8125657388,9,2,15.386,1692.9360679535,0,0,3.8125657388,0,0,0,119.5, -1.3, -0.6,0,0,1024,1024,1024,1024,0,0,0,0,195,-58.4,5.4,49,3.849,3.856,3.856,3.848,0,0,1.738,121.91,1692.9360679535,0,41,Motors_Started,
529500,2025-09-03 07:46:10,48.1491190982577,11.5725213449906,0,,,1692.9360679535,0.328084,0,4.1065946196,4.106627428,9,2,15.386,1692.9360679535,0,0,4.1065946196,0,0,0,119.5, -1.3, -0.6,0,0,1024,1024,1024,1024,0,0,0,0,194.8,-58.4,5.4,49,3.849,3.856,3.856,3.848,0,0,1.738,121.91,1692.9360679535,0,41,Motors_Started,
529600,2025-09-03 07:46:10,48.1491197506253,11.5725220418788,0,,,1692.9360679535,0.328084,0,4.3988846552,4.3989174636,9,2,15.386,1692.9360679535,0,0,4.3988846552,0,0,0,119.5, -1.3, -0.6,0,0,1024,1024,1024,1024,0,0,0,0,194.9,-58.4,5.5,49,3.849,3.856,3.856,3.848,0,0,1.738,121.91,1692.9360679535,0,10,Assisted_Takeoff,
529700,2025-09-03 07:46:10,48.1491204047648,11.5725227451352,0,,,1692.9360679535,0.328084,0,4.692585452,4.6926182604,9,2,15.386,1692.9360679535,0,0,4.692585452,0,0,0,119.5, -1.4, -0.6,0,0,1024,1024,1024,1024,0,0,0,0,194.9,-58.4,5.5,49,3.849,3.856,3.856,3.848,0,0,1.738,121.91,1692.9360679535,0,10,Assisted_Takeoff,
529800,2025-09-03 07:46:10,48.1491210581226,11.5725234488539,0,,,1692.9360679535,0.328084,0,4.9861222068,4.9861550152,9,2,15.386,1692.9360679535,0,0,4.9861222068,0,0,0,119.5, -1.3, -0.6,0,0,1024,1024,1024,1024,0,0,0,0,194.8,-58.3,5.6,49,3.849,3.856,3.856,3.848,0,0,1.738,121.91,1692.9360679535,0,10,Assisted_Takeoff,
529900,2025-09-03 07:46:10,48.1491217118191,11.572524152136,0,,,1692.9360679535,0.328084,0,5.27969177,5.2797245784,9,2,15.386,1692.9360679535,0,0,5.27969177,0,0,0,119.5, -1.4, -0.6,0,0,1024,1024,1024,1024,0,0,0,0,194.8,-58.3,5.6,49,3.849,3.856,3.856,3.848,0,0,1.738,121.91,1692.9360679535,0,10,Assisted_Takeoff,
530000,2025-09-03 07:46:11,48.1491223588715,11.5725248802235,0,,,1692.9360679535,0.328084,0,5.5748689448,5.5749345616,9,2,15.292,1692.9360679535,0,0,5.5748689448,0,0,0,119.5, -1.4, -0.6,0,0,1024,1024,1024,1024,0,0,0,0,194.7,-58.3,5.6,49,3.838,3.846,3.845,3.83,0,0,3.676,121.91,1692.9360679535,0,10,Assisted_Takeoff,
530100,2025-09-03 07:46:11,48.1491230109526,11.5725255900537,0,,,1692.9360679535,0.328084,0,5.8688978256,5.8689962508,9,2,15.292,1692.9360679535,0,0,5.8688978256,0,0,0,119.5, -1.3, -0.7,0,0,1024,1024,1024,1024,0,0,0,0,194.6,-58.3,5.7,49,3.838,3.846,3.845,3.83,0,0,3.676,121.91,1692.9360679535,0,10,Assisted_Takeoff,
530200,2025-09-03 07:46:11,48.1491236635027,11.5725262999095,0,,,1692.9360679535,0.328084,0,6.1630907484,6.1631563652,9,2,15.292,1692.9360679535,0,0,6.1630907484,0,0,0,119.5, -1.3, -0.7,0,0,1024,1024,1024,1024,0,0,0,0,194.5,-58.3,5.6,49,3.838,3.846,3.845,3.83,0,0,3.676,121.91,1692.9360679535,0,10,Assisted_Takeoff,
530300,2025-09-03 07:46:11,48.149124316652,11.5725270097396,0,,,1692.9360679535,0.328084,0,6.4574477132,6.45751333,9,2,15.292,1692.9360679535,0,0,6.4574477132,0,0,0,119.5, -1.3, -0.7,0,0,1024,1024,1024,1024,0,0,0,0,194.5,-58.3,5.6,49,3.838,3.846,3.845,3.83,0,0,3.676,121.91,1692.9360679535,0,10,Assisted_Takeoff,
530400,2025-09-03 07:46:11,48.1491249700359,11.5725277192873,0,,,1692.9360679535,0.328084,0,6.751804678,6.7519031032,9,2,15.292,1692.9360679535,0,0,6.751804678,0,0,0,119.5, -1.3, -0.7,0,0,1024,1024,1024,1024,0,0,0,0,194.4,-58.3,5.6,49,3.838,3.846,3.845,3.83,0,0,3.676,121.91,1692.9360679535,0,10,Assisted_Takeoff,
530500,2025-09-03 07:46:11,48.1491256374374,11.572528410937,0,,,1692.9360679535,0.328084,0,7.0478020628,7.0479332964,8,2,15.292,1692.9360679535,0,0,7.0478020628,0,0,0,119.5, -1.3, -0.6,0,0,1024,1024,1024,1024,0,0,0,0,194.4,-58.3,5.7,49,3.838,3.846,3.845,3.83,0,0,3.676,121.91,1692.9360679535,0,10,Assisted_Takeoff,
530600,2025-09-03 07:46:11,48.1491262939739,11.5725291173263,0,,,1692.9360679535,0.328084,0,7.3426511536,7.3428151956,8,2,15.292,1692.9360679535,0,0,7.3426511536,0,0,0,119.5, -1.3, -0.6,0,0,1024,1024,1024,1024,0,0,0,0,194.2,-58.2,5.7,49,3.838,3.846,3.845,3.83,0,0,3.676,121.91,1692.9360679535,0,10,Assisted_Takeoff,
530700,2025-09-03 07:46:11,48.1491269506146,11.5725298243318,0,,,1692.9360679535,0.328084,0,7.637631478,7.63779552,9,2,15.292,1692.9360679535,0,0,7.637631478,0,0,0,119.5, -1.3, -0.6,0,0,1024,1024,1024,1024,0,0,0,0,194.2,-58.2,5.8,49,3.838,3.846,3.845,3.83,0,0,3.676,121.91,1692.9360679535,0,10,Assisted_Takeoff,
530800,2025-09-03 07:46:11,48.1491276074117,11.5725305317995,0,,,1692.9360679535,0.328084,0,7.932743036,7.9328742696,9,2,15.292,1692.9360679535,0,0,7.932743036,0,0,0,119.5, -1.3, -0.6,0,0,1024,1024,1024,1024,0,0,0,0,194.1,-58.2,5.8,49,3.838,3.846,3.845,3.83,0,0,3.676,121.91,1692.9360679535,0,10,Assisted_Takeoff,
530900,2025-09-03 07:46:12,48.1491282503214,11.5725312485628,0,,,1692.9360679535,0.328084,0,8.2250330716,8.225229922,9,2,15.292,1692.9360679535,0,0,8.2250330716,0,0,0,119.5, -1.3, -0.7,0,0,1024,1024,1024,1024,0,0,0,0,194,-58.2,5.8,49,3.838,3.846,3.845,3.83,0,0,3.676,121.91,1692.9360679535,0,10,Assisted_Takeoff,
531000,2025-09-03 07:46:12,48.1491289038094,11.5725319579821,0,,,1692.9360679535,0.328084,0,8.5194228448,8.5196196952,9,2,15.374,1692.9360679535,0,0,8.5194228448,0,0,0,119.5, -1.3, -0.7,0,0,1024,1024,1024,1024,0,0,0,0,194,-58.1,5.9,49,3.84,3.847,3.849,3.844,0,0,3.246,121.91,1692.9360679535,0,10,Assisted_Takeoff,
531100,2025-09-03 07:46:12,48.149129557558,11.5725326668621,0,,,1692.9360679535,0.328084,0,8.8138454264,8.8140094684,8,2,15.374,1692.9360679535,0,0,8.8138454264,0,0,0,119.5, -1.3, -0.7,0,0,1024,1024,1024,1024,0,0,0,0,193.9,-58.1,5.8,49,3.84,3.847,3.849,3.844,0,0,3.246,121.91,1692.9360679535,0,10,Assisted_Takeoff,
531200,2025-09-03 07:46:12,48.1491302120883,11.5725333761787,0,,,1692.9360679535,0.328084,0,9.1085304752,9.1086945172,8,2,15.374,1692.9360679535,0,0,9.1085304752,0,0,0,119.5, -1.3, -0.7,0,0,1024,1024,1024,1024,0,0,0,0,193.9,-58.1,6,49,3.84,3.847,3.849,3.844,0,0,3.246,121.91,1692.9360679535,0,10,Assisted_Takeoff,
531300,2025-09-03 07:46:12,48.1491308775617,11.5725340903741,0,,,1692.9360679535,0.328084,0,9.407152532,9.407316574,8,2,15.374,1692.9360679535,0,0,9.407152532,0,0,0,119.5, -1.3, -0.7,0,0,1024,1024,1026,1024,0,0,0,0,193.7,-58,5.9,49,3.84,3.847,3.849,3.844,0,0,3.246,121.91,1692.9360679535,0,10,Assisted_Takeoff,
531400,2025-09-03 07:46:12,48.149131534489,11.5725348010773,0,,,1692.9360679535,0.328084,0,9.7027234076,9.702920258,8,2,15.374,1692.9360679535,0,0,9.7027234076,0,0,0,119.5, -1.3, -0.6,0,0,1024,1024,1053,1024,0,0,4,0,193.7,-58,5.9,49,3.84,3.847,3.849,3.844,0,0,3.246,121.91,1692.9360679535,0,10,Assisted_Takeoff,
531500,2025-09-03 07:46:12,48.1491321913382,11.5725355119089,0,,,1692.9360679535,0.656168,0,9.9983270916,9.998523942,8,2,15.374,1692.9360679535,0,0,9.9983270916,0,0,0,119.5, -1.3, -0.7,0,0,1024,1024,1066,1024,0,0,6,0,193.7,-58.1,6,49,3.84,3.847,3.849,3.844,0,0,3.246,121.91,1692.9360679535,0,10,Assisted_Takeoff,
531600,2025-09-03 07:46:12,48.1491328480832,11.5725362224067,0,,,1692.9360679535,0.656168,0,10.2938323504,10.2940292008,8,2,15.374,1692.9360679535,0,0,10.2938323504,0,0,0,119.5, -1.3, -0.7,0,0,1024,1024,1076,1024,0,0,8,0,193.6,-58,6,49,3.84,3.847,3.849,3.844,0,0,3.246,121.91,1692.9360679535,0,10,Assisted_Takeoff,
531700,2025-09-03 07:46:12,48.1491335084758,11.5725369187299,0,,,1692.9360679535,0.328084,0,10.588418974,10.5886158244,8,2,15.374,1692.9360679535,0,0,10.588418974,0,0,0,119.5, -1.3, -0.6,0,0,1024,1024,1071,1024,0,0,7,0,193.5,-58,6,49,3.84,3.847,3.849,3.844,0,0,3.246,121.91,1692.9360679535,0,10,Assisted_Takeoff,
531800,2025-09-03 07:46:12,48.1491341664454,11.5725376260693,0,,,1692.9360679535,0.328084,0,10.8838258076,10.8840554664,8,2,15.374,1692.9360679535,0,0,10.8838258076,0,0,0,119.5, -1.3, -0.6,0,0,1024,1024,1074,1024,0,0,8,0,193.3,-58,6,49,3.84,3.847,3.849,3.844,0,0,3.246,121.91,1692.9360679535,0,10,Assisted_Takeoff,
531900,2025-09-03 07:46:13,48.1491348240762,11.572538333691,0,,,1692.9360679535,0.328084,0,11.1791998328,11.1793966832,8,2,15.374,1692.9360679535,0,0,11.1791998328,0,0,0,119.5, -1.4, -0.7,0,0,1024,1024,1087,1024,0,0,10,0,193.4,-58,6,49,3.84,3.847,3.849,3.844,0,0,3.246,121.91,1692.9360679535,0,10,Assisted_Takeoff,
532000,2025-09-03 07:46:13,48.1491354816289,11.5725390419805,0,,,1692.9360679535,0.328084,0,11.4746394748,11.4748363252,8,2,15.349,1692.9360679535,0,0,11.4746394748,0,0,0,119.5, -1.4, -0.7,0,0,1024,1024,1089,1024,0,0,10,0,193.4,-58,6.3,49,3.845,3.852,3.853,3.844,0,0,2.212,121.91,1692.9360679535,0,10,Assisted_Takeoff,
532100,2025-09-03 07:46:13,48.1491361395984,11.5725397521701,0,,,1692.9360679535,0.328084,0,11.7704728176,11.770669668,8,2,15.349,1692.9360679535,0,0,11.7704728176,0,0,0,119.5, -1.4, -0.7,0,0,1024,1024,1098,1024,0,0,11,0,193.2,-58,6.2,49,3.845,3.852,3.853,3.844,0,0,2.212,121.91,1692.9360679535,0,10,Assisted_Takeoff,
532200,2025-09-03 07:46:13,48.1491367938942,11.5725404729649,0,,,1692.9360679535,0.328084,0,12.0666998612,12.06692952,8,2,15.349,1692.9360679535,0,0,12.0666998612,0,0,0,119.5, -1.5, -0.7,0,0,1024,1024,1100,1024,0,0,12,0,193.1,-58.1,6.2,49,3.845,3.852,3.853,3.844,0,0,2.212,121.91,1692.9360679535,0,10,Assisted_Takeoff,
532300,2025-09-03 07:46:13,48.1491374513687,11.5725411859022,0,,,1692.9360679535,0.328084,0,12.3627956712,12.36302533,8,2,15.349,1692.9360679535,0,0,12.3627956712,0,0,0,119.5, -1.6, -0.7,0,0,1024,1024,1103,1024,0,0,12,0,193.2,-58.2,6.3,49,3.845,3.852,3.853,3.844,0,0,2.212,121.91,1692.9360679535,0,10,Assisted_Takeoff,
532400,2025-09-03 07:46:13,48.1491381075925,11.5725419016897,0,,,1692.9360679535,0.328084,0,12.6588914812,12.65912114,8,2,15.349,1692.9360679535,0,0,12.6588914812,0,0,0,119.5, -1.7, -0.6,0,0,1024,1024,1105,1024,0,0,12,0,193.2,-58.2,6.4,49,3.845,3.852,3.853,3.844,0,0,2.212,121.91,1692.9360679535,0,10,Assisted_Takeoff,
532500,2025-09-03 07:46:13,48.1491387648325,11.572542618453,0,,,1692.9360679535,0.328084,0,12.9554466088,12.9556762676,8,2,15.349,1692.9360679535,0,0,12.9554466088,0,0,0,119.5, -1.9, -0.6,0,0,1024,1024,1107,1024,0,0,13,0,193,-58.6,6.6,49,3.845,3.852,3.853,3.844,0,0,2.212,121.91,1692.9360679535,0,10,Assisted_Takeoff,
532600,2025-09-03 07:46:13,48.1491394205352,11.5725433569917,0,,,1692.9360679535,0.328084,0,13.2546592168,13.254921684,8,2,15.349,1692.9360679535,0,0,13.2546592168,0,0,0,119.5, -2.4, -0.6,0,0,1024,1024,1110,1024,0,0,13,0,193.1,-59.1,6.4,49,3.845,3.852,3.853,3.844,0,0,2.212,121.91,1692.9360679535,0,10,Assisted_Takeoff,
532700,2025-09-03 07:46:13,48.1491400701932,11.5725440926544,0,,,1692.9360679535,0.328084,0,13.551673662,13.552001746,8,2,15.349,1692.9360679535,0,0,13.551673662,0,0,0,119.5, -3.2, -0.5,0,0,1024,1024,1114,1024,0,0,14,0,193.1,-59.1,6.4,49,3.845,3.852,3.853,3.844,0,0,2.212,121.91,1692.9360679535,0,10,Assisted_Takeoff,
532800,2025-09-03 07:46:13,48.1491407115135,11.5725448555876,0,,,1692.9360679535,0.328084,0,13.8500988684,13.850722228,8,2,15.349,1692.9360679535,0,0,13.8500988684,0,0,0,119.6, -4.8, -0.4,0,0,1024,1024,1115,1024,0,0,14,0,193.7,-60.9,6.5,49,3.845,3.852,3.853,3.844,0,0,2.212,121.91,1692.9360679535,0,10,Assisted_Takeoff,
532900,2025-09-03 07:46:13,48.1491413294885,11.5725456651016,0,,,1692.9360679535,0.328084,0.223694,14.1483600328,14.1501644948,8,2,15.349,1692.9360679535,0,0.223694,14.1483600328,0,0.223694,0,120, -6.8, 0,0,0,1024,1024,1115,1024,0,0,14,0,194.4,-63.1,6,49,3.845,3.852,3.853,3.844,0,0,2.212,121.91,1692.9360679535,0,10,Assisted_Takeoff,
533000,2025-09-03 07:46:14,48.1491418982975,11.5725465515996,0,,,1692.9360679535,0.328084,0.3131716,14.4432747404,14.4495739532,8,2,15.269,1692.9360679535,0,0.3131716,14.4432747404,-0.223694,0.223694,-0.223694,120.5, -8.1, 0.6,0,0,1024,1024,1117,1024,0,0,14,0,195.5,-64.5,6.6,49,3.845,3.852,3.853,3.844,0,0,2.212,121.91,1692.9360679535,0,10,Assisted_Takeoff,
533100,2025-09-03 07:46:14,48.1491424018124,11.5725475578364,0,,,1692.9360679535,0.328084,0.6263432,14.7365818364,14.755741942,8,2,15.269,1692.9360679535,0,0.6263432,14.7365818364,-0.447388,0.447388,-0.447388,120.8, -7.1, 0.7,0,0,1024,1024,1121,1024,0,0,15,0,195.4,-64,6.1,49,3.845,3.852,3.853,3.844,0,0,2.212,121.91,1692.9360679535,0,6,P-GPS,
533200,2025-09-03 07:46:14,48.1491428425084,11.5725486673007,0,,,1692.9360679535,0.656168,0.8052984,15.027231452,15.0700792224,8,2,15.269,1692.9360679535,0,0.8052984,15.027231452,-0.447388,0.671082,-0.671082,121.1, -0.3, 0.4,0,0,1024,1024,1121,1024,0,0,15,0,194.9,-55.3,5.8,49,3.845,3.852,3.853,3.844,0,0,2.212,121.91,1692.9360679535,0,6,P-GPS,
533300,2025-09-03 07:46:14,48.1491432586084,11.5725498121499,0.328084,,,1693.2641519535,0.656168,0.8052984,15.3169624324,15.3874020672,8,2,15.269,1693.2641519535,0.328084,0.8052984,15.3169624324,-0.447388,0.671082,-0.894776,121, 4.1, -0.5,0,0,1024,1024,1118,1024,0,0,14,0,193.3,-52.3,5.8,49,3.845,3.852,3.853,3.844,0,0,2.212,121.91,1693.2641519535,0.328084,6,P-GPS,
533400,2025-09-03 07:46:14,48.1491437079808,11.5725509842696,0.328084,,,1693.2641519535,0.984252,0.8052984,15.621391576,15.7165031276,8,2,15.269,1693.2641519535,0.328084,0.8052984,15.621391576,-0.447388,0.671082,-0.894776,120.8, 4.4, -0.7,0,0,1024,1024,1117,1024,0,0,14,0,194.4,-52.8,5.6,49,3.845,3.852,3.853,3.844,0,0,2.212,121.91,1693.2641519535,0.328084,6,P-GPS,
533500,2025-09-03 07:46:14,48.149144178067,11.572552033184,0.328084,,,1693.2641519535,0.984252,0.7158208,15.9141081208,16.0240818776,9,2,15.269,1693.2641519535,0.328084,0.8052984,15.9141081208,-0.223694,0.671082,-0.894776,120.8, 4.3, -0.8,0,0,1024,1024,1115,1024,0,0,14,0,195.2,-53.2,4.7,49,3.845,3.852,3.853,3.844,0,0,2.212,121.91,1693.2641519535,0.328084,6,P-GPS,
533600,2025-09-03 07:46:14,48.1491446928637,11.5725530161818,0.656168,,,1693.5922359535,1.312336,0.4921268,16.2100726972,16.3282813624,9,2,15.269,1693.5922359535,0.656168,0.8052984,16.2100726972,-0.223694,0.447388,-0.671082,121, 4.3, -0.7,0,0,1024,1024,1102,1024,0,0,12,0,193.9,-53.6,6.3,49,3.845,3.852,3.853,3.844,0,0,2.212,121.91,1693.5922359535,0.656168,6,P-GPS,
533700,2025-09-03 07:46:14,48.1491452512767,11.5725539392973,0.656168,,,1693.5922359535,1.312336,0.223694,16.5096133892,16.6315950204,9,2,15.269,1693.5922359535,0.656168,0.8052984,16.5096133892,0,0.223694,-0.671082,121.1, 3.2, 0,0,0,1024,1024,1129,1024,0,0,16,0,195.2,-54.1,6.9,49,3.845,3.852,3.853,3.844,0,0,2.212,121.91,1693.5922359535,0.656168,6,P-GPS,
533800,2025-09-03 07:46:14,48.1491458374123,11.5725548081286,0.984252,,,1693.9203199535,1.312336,0.223694,16.8088259972,16.9323496232,9,2,15.269,1693.9203199535,0.984252,0.8052984,16.8088259972,0,0.223694,-0.447388,121.2, 2.7, 0.3,0,0,1024,1024,1133,1024,0,0,17,0,194.9,-54.4,6.4,49,3.845,3.852,3.853,3.844,0,0,2.212,121.91,1693.9203199535,0.984252,6,P-GPS,
533900,2025-09-03 07:46:15,48.1491464794101,11.572555587419,0.984252,,,1693.9203199535,1.64042,0.223694,17.110236768,17.2337932024,9,2,15.269,1693.9203199535,0.984252,0.8052984,17.110236768,0,0.223694,-0.447388,121.3, 2.4, 0,0,0,1024,1024,1129,1024,0,0,16,0,194.8,-55,5.6,49,3.845,3.852,3.853,3.844,0,0,2.212,121.91,1693.9203199535,0.984252,6,P-GPS,
534000,2025-09-03 07:46:15,48.1491471151285,11.5725563569002,0.984252,,,1693.9203199535,1.64042,0,17.4083666988,17.5319231332,9,2,15.161,1693.9203199535,0.984252,0.8052984,17.4083666988,0,0,-0.447388,121.4, 1.7, 0.3,0,0,1024,1024,1132,1024,0,0,16,0,196.4,-55.7,6.8,49,3.803,3.817,3.816,3.795,0,0,9.94,121.91,1693.9203199535,0.984252,6,P-GPS,
534100,2025-09-03 07:46:15,48.1491477643957,11.5725570899951,1.312336,,,1694.2484039535,1.64042,0,17.7047905928,17.8284782608,9,2,15.161,1694.2484039535,1.312336,0.8052984,17.7047905928,0,0,-0.447388,121.1, 1, 0.9,0,0,1024,1024,1130,1024,0,0,16,0,195.1,-57.4,7.1,49,3.803,3.817,3.816,3.795,0,0,9.94,121.91,1694.2484039535,1.312336,6,P-GPS,
534200,2025-09-03 07:46:15,48.1491484143142,11.5725577960505,1.312336,,,1694.2484039535,1.64042,0,17.9972446704,18.1213588476,9,2,15.161,1694.2484039535,1.312336,0.8052984,17.9972446704,0,0,-0.223694,120.8, 0, 1,0,0,1024,1024,1128,1024,0,0,16,0,195.1,-57.4,7.1,49,3.803,3.817,3.816,3.795,0,0,9.94,121.91,1694.2484039535,1.312336,6,P-GPS,
534300,2025-09-03 07:46:15,48.1491490598033,11.5725585248056,1.312336,,,1694.2484039535,1.64042,0,18.2919625276,18.4162079384,8,2,15.161,1694.2484039535,1.312336,0.8052984,18.2919625276,0,0,-0.223694,120.6, 0.5, 0.3,0,0,1024,1024,1128,1024,0,0,16,0,193.7,-56.7,6.7,49,3.803,3.817,3.816,3.795,0,0,9.94,121.91,1694.2484039535,1.312336,6,P-GPS,
534400,2025-09-03 07:46:15,48.1491497035207,11.5725592197936,1.312336,,,1694.2484039535,1.64042,0,18.5810045316,18.7056436432,8,2,15.161,1694.2484039535,1.312336,0.8052984,18.5810045316,0,0,-0.223694,120.6, 1.1, 0.4,0,0,1024,1024,1128,1024,0,0,16,0,194,-56.3,6.4,49,3.803,3.817,3.816,3.795,0,0,9.94,121.91,1694.2484039535,1.312336,6,P-GPS,
534500,2025-09-03 07:46:15,48.1491503507556,11.5725598974743,1.312336,,,1694.2484039535,1.968504,0,18.868438924,18.9937013952,8,2,15.161,1694.2484039535,1.312336,0.8052984,18.868438924,0,0,-0.223694,120.7, 1.4, 1.1,0,0,1024,1024,1136,1024,0,0,17,0,194.5,-55.9,7.4,49,3.803,3.817,3.816,3.795,0,0,9.94,121.91,1694.2484039535,1.312336,6,P-GPS,
534600,2025-09-03 07:46:15,48.1491509948117,11.5725605401038,1.312336,,,1694.2484039535,1.968504,0,19.1496397204,19.2759848688,8,2,15.161,1694.2484039535,1.312336,0.8052984,19.1496397204,0,0,-0.223694,120.6, 1.4, 1.2,0,0,1024,1024,1140,1024,0,0,18,0,193.8,-55.8,6.9,49,3.803,3.817,3.816,3.795,0,0,9.94,121.91,1694.2484039535,1.312336,6,P-GPS,
534700,2025-09-03 07:46:15,48.1491516354025,11.5725610776057,1.312336,,,1694.2484039535,1.968504,0,19.4139769992,19.5438326464,8,2,15.161,1694.2484039535,1.312336,0.8052984,19.4139769992,0,0,-0.447388,120.5, 0.8, 0,0,0,1024,1024,1154,1024,0,0,20,0,193,-56.5,6,49,3.803,3.817,3.816,3.795,0,0,9.94,121.91,1694.2484039535,1.312336,6,P-GPS,
534800,2025-09-03 07:46:15,48.149152281074,11.5725616709069,1.64042,,,1694.5764879535,1.968504,0,19.6882552232,19.8201777996,8,2,15.161,1694.5764879535,1.64042,0.8052984,19.6882552232,0,0,-0.447388,120.6, 0.5, -0.2,0,0,1024,1024,1160,1024,0,0,21,0,193.8,-56.1,6.3,49,3.803,3.817,3.816,3.795,0,0,9.94,121.91,1694.5764879535,1.64042,6,P-GPS,
534900,2025-09-03 07:46:16,48.1491529329988,11.5725622614862,1.64042,,,1694.5764879535,1.968504,0,19.9640098252,20.098097756,9,2,15.161,1694.5764879535,1.64042,0.8052984,19.9640098252,0,0,-0.671082,120.7, 0.6, -0.3,0,0,1024,1024,1151,1024,0,0,19,0,193.6,-56.3,6.5,49,3.803,3.817,3.816,3.795,0,0,9.94,121.91,1694.5764879535,1.64042,6,P-GPS,
535000,2025-09-03 07:46:16,48.1491535963357,11.5725628569187,1.64042,,,1694.5764879535,2.296588,0,20.2437998604,20.3801843792,9,2,14.941,1694.5764879535,1.64042,0.8052984,20.2437998604,0,0,-0.671082,120.8, 0.1, -0.3,0,0,1024,1024,1155,1024,0,0,20,0,193.3,-57.1,5.9,49,3.748,3.772,3.77,3.739,0,0,18.5,121.91,1694.5764879535,1.64042,6,P-GPS,
535100,2025-09-03 07:46:16,48.1491542909647,11.5725634913055,1.968504,,,1694.9045719535,2.296588,0,20.5384849092,20.6769691656,9,2,14.941,1694.9045719535,1.968504,0.8052984,20.5384849092,0,0,-0.894776,120.9, -0.4, 0.2,0,0,1024,1024,1164,1024,0,0,21,0,194.9,-56.9,7.1,49,3.748,3.772,3.77,3.739,0,0,18.5,121.91,1694.9045719535,1.968504,6,P-GPS,
535200,2025-09-03 07:46:16,48.1491549735303,11.5725641192213,1.968504,,,1694.9045719535,2.296588,0,20.8288064408,20.969160776,9,2,14.941,1694.9045719535,1.968504,0.8052984,20.8288064408,0,0,-0.894776,120.9, -0.1, 0.8,0,0,1024,1024,1165,1024,0,0,21,0,195.1,-56.9,7.7,49,3.748,3.772,3.77,3.739,0,0,18.5,121.91,1694.9045719535,1.968504,6,P-GPS,
535300,2025-09-03 07:46:16,48.1491556559656,11.5725647569462,1.968504,,,1694.9045719535,2.624672,0,21.1206043504,21.2625991056,9,2,14.941,1694.9045719535,1.968504,0.8052984,21.1206043504,0,0,-0.894776,120.7, 0, 0.8,0,0,1024,1024,1166,1024,0,0,22,0,193.9,-57.2,7.9,49,3.748,3.772,3.77,3.739,0,0,18.5,121.91,1694.9045719535,1.968504,6,P-GPS,
535400,2025-09-03 07:46:16,48.1491563311054,11.5725653998583,2.296588,,,1695.2326559535,2.624672,0,21.4111227324,21.5544298236,9,2,14.941,1695.2326559535,2.296588,0.8052984,21.4111227324,0,0,-0.894776,120.5, -0.1, 0.8,0,0,1024,1024,1177,1024,0,0,23,0,193.5,-57.4,8.3,49,3.748,3.772,3.77,3.739,0,0,18.5,121.91,1695.2326559535,2.296588,6,P-GPS,
535500,2025-09-03 07:46:16,48.1491570000702,11.5725660491642,2.296588,,,1695.2326559535,2.952756,0,21.7008537128,21.8452106728,9,2,14.941,1695.2326559535,2.296588,0.8052984,21.7008537128,0,0,-0.894776,120.3, 0, 0.8,0,0,1024,1024,1179,1024,0,0,23,0,193.5,-56.9,8.7,49,3.748,3.772,3.77,3.739,0,0,18.5,121.91,1695.2326559535,2.296588,6,P-GPS,
535600,2025-09-03 07:46:16,48.1491576210936,11.5725667009867,2.624672,,,1695.5607399535,2.952756,0,21.9771332492,22.1218182932,9,2,14.941,1695.5607399535,2.624672,0.8052984,21.9771332492,0,0,-0.894776,120.2, 0.3, 0.8,0,0,1024,1024,1187,1024,0,0,25,0,193.5,-56.9,8.7,49,3.748,3.772,3.77,3.739,0,0,18.5,121.91,1695.5607399535,2.624672,6,P-GPS,
535700,2025-09-03 07:46:16,48.1491582689798,11.5725673492655,2.624672,,,1695.5607399535,2.952756,0,22.260663442,22.4060374624,9,2,14.941,1695.5607399535,2.624672,0.8052984,22.260663442,0,0,-0.894776,120.2, 0.5, 0.4,0,0,1024,1024,1197,1024,0,0,26,0,192.9,-56.7,8.4,49,3.748,3.772,3.77,3.739,0,0,18.5,121.91,1695.5607399535,2.624672,6,P-GPS,
535800,2025-09-03 07:46:16,48.1491589175956,11.5725679948224,2.952756,,,1695.8888239535,3.28084,0,22.5440295928,22.6900925896,9,2,14.941,1695.8888239535,2.952756,0.8052984,22.5440295928,0,0,-1.11847,120.2, 0.6, 0.4,0,0,1024,1024,1201,1024,0,0,27,0,193.3,-56.5,7.8,49,3.748,3.772,3.77,3.739,0,0,18.5,121.91,1695.8888239535,2.952756,6,P-GPS,
535900,2025-09-03 07:46:16,48.1491595638664,11.5725686395062,2.952756,,,1695.8888239535,3.28084,0,22.8265755336,22.9733275068,9,2,14.941,1695.8888239535,2.952756,0.8052984,22.8265755336,0,0,-1.11847,120.4, 0.1, 0.1,0,0,1024,1024,1206,1024,0,0,28,0,194.3,-56.9,6.9,49,3.748,3.772,3.77,3.739,0,0,18.5,121.91,1695.8888239535,2.952756,6,P-GPS,
536000,2025-09-03 07:46:17,48.1491602380683,11.5725693175978,3.28084,,,1696.2169079535,3.608924,0,23.122212026,23.2695873588,9,2,14.898,1696.2169079535,3.28084,0.8052984,23.122212026,0,0,-1.342164,120.5, 0.3, -0.4,0,0,1024,1024,1218,1024,0,0,29,0,192.9,-56.4,6.6,49,3.732,3.759,3.759,3.728,0,0,19.884,121.91,1696.2169079535,3.28084,6,P-GPS,
536100,2025-09-03 07:46:17,48.1491609043233,11.5725699901427,3.28084,,,1696.2169079535,3.608924,0,23.414698912,23.5626319876,8,2,14.898,1696.2169079535,3.28084,0.8052984,23.414698912,0,0,-1.342164,120.5, 0.9, -0.1,0,0,1024,1024,1226,1024,0,0,31,0,191.7,-55.6,7.4,49,3.732,3.759,3.759,3.728,0,0,19.884,121.91,1696.2169079535,3.28084,6,P-GPS,
536200,2025-09-03 07:46:17,48.1491615868628,11.572570662585,3.608924,,,1696.5449919535,3.937008,0,23.711943016,23.8606634932,8,2,14.898,1696.5449919535,3.608924,0.8052984,23.711943016,0,0,-1.565858,120.4, 1.3, 0,0,0,1024,1024,1227,1024,0,0,31,0,192.7,-55.5,7.5,49,3.732,3.759,3.759,3.728,0,0,19.884,121.91,1696.5449919535,3.608924,6,P-GPS,
536300,2025-09-03 07:46:17,48.1491622842798,11.5725713280427,3.937008,,,1696.8730759535,4.265092,0,24.0124351516,24.1623039228,8,2,14.898,1696.8730759535,3.937008,0.8052984,24.0124351516,0,0,-1.565858,120.3, 0.7, 0.2,0,0,1024,1024,1229,1024,0,0,31,0,193.1,-56,6.6,49,3.732,3.759,3.759,3.728,0,0,19.884,121.91,1696.8730759535,3.937008,6,P-GPS,
536400,2025-09-03 07:46:17,48.1491629343807,11.5725719296894,4.265092,,,1697.2011599535,4.593176,0,24.289862982,24.4410440892,8,2,14.898,1697.2011599535,4.265092,0.8052984,24.289862982,0,0,-1.789552,120.3, 0.3, -0.2,0,0,1024,1024,1231,1024,0,0,31,0,192.4,-56.3,6.7,49,3.732,3.759,3.759,3.728,0,0,19.884,121.91,1697.2011599535,4.265092,6,P-GPS,
536500,2025-09-03 07:46:17,48.1491636473004,11.572572592682,4.593176,,,1697.5292439535,4.92126,0,24.5945874012,24.7471464612,8,2,14.898,1697.5292439535,4.593176,0.8052984,24.5945874012,0,0,-1.789552,120.2, 0.3, -0.3,0,0,1024,1024,1232,1024,0,0,32,0,192.4,-55.9,6.3,49,3.732,3.759,3.759,3.728,0,0,19.884,121.91,1697.5292439535,4.593176,6,P-GPS,
536600,2025-09-03 07:46:17,48.1491643781982,11.5725732730846,4.593176,,,1697.5292439535,5.249344,0,24.9071202196,25.0610900408,8,2,14.898,1697.5292439535,4.593176,0.8052984,24.9071202196,0,0,-2.013246,120.2, 0.5, -0.1,0,0,1024,1024,1233,1024,0,0,32,0,192.6,-56.1,6.6,49,3.732,3.759,3.759,3.728,0,0,19.884,121.91,1697.5292439535,4.593176,6,P-GPS,
536700,2025-09-03 07:46:17,48.1491651257452,11.5725739702553,4.92126,,,1697.8573279535,5.249344,0,25.2270021196,25.3823170852,9,2,14.898,1697.8573279535,4.92126,0.8052984,25.2270021196,0,0,-2.013246,120.3, 0.4, 0.2,0,0,1024,1024,1237,1024,0,0,32,0,192.1,-56.3,7,49,3.732,3.759,3.759,3.728,0,0,19.884,121.91,1697.8573279535,4.92126,6,P-GPS,
536800,2025-09-03 07:46:17,48.1491658535945,11.5725746261863,5.249344,,,1698.1854119535,5.577428,0,25.535105804,25.6921596148,9,2,14.898,1698.1854119535,5.249344,0.8052984,25.535105804,0,0,-2.013246,120.4, 0, 0.1,0,0,1024,1024,1247,1024,0,0,34,0,191.9,-56.6,6,49,3.732,3.759,3.759,3.728,0,0,19.884,121.91,1698.1854119535,5.249344,6,P-GPS,
536900,2025-09-03 07:46:18,48.1491666091404,11.572575335888,5.577428,,,1698.5134959535,5.905512,0,25.859252796,26.0174877092,9,2,14.898,1698.5134959535,5.577428,0.8052984,25.859252796,0,0,-2.013246,120.4, -0.1, -0.4,0,0,1024,1024,1249,1024,0,0,34,0,191.7,-56.6,5.5,49,3.732,3.759,3.759,3.728,0,0,19.884,121.91,1698.5134959535,5.577428,6,P-GPS,
537000,2025-09-03 07:46:18,48.1491673748739,11.5725760713709,5.905512,,,1698.8415799535,6.233596,0,26.19012551,26.3493118668,9,2,14.883,1698.8415799535,5.905512,0.8052984,26.19012551,0,0,-2.013246,120.4, -0.1, -0.9,0,0,1024,1024,1256,1024,0,0,35,0,191.7,-56.6,5.5,49,3.732,3.759,3.759,3.728,0,0,19.884,121.91,1698.8415799535,5.905512,6,P-GPS,
537100,2025-09-03 07:46:18,48.1491681548074,11.5725768387722,6.233596,,,1699.1696639535,6.56168,0,26.529856492,26.6896990168,9,2,14.883,1699.1696639535,6.233596,0.8052984,26.529856492,0,0,-2.013246,120.4, 0, -1,0,0,1024,1024,1262,1024,0,0,36,0,191.5,-56.4,6,49,3.732,3.759,3.759,3.728,0,0,19.884,121.91,1699.1696639535,6.233596,6,P-GPS,
537200,2025-09-03 07:46:18,48.1491689491233,11.5725776373472,6.56168,,,1699.4977479535,6.889764,0,26.8783145084,27.0386819676,9,2,14.883,1699.4977479535,6.56168,0.8052984,26.8783145084,0,0,-2.23694,120.3, -0.1, -0.4,0,0,1024,1024,1267,1024,0,0,37,0,192,-56.5,6.8,49,3.732,3.759,3.759,3.728,0,0,19.884,121.91,1699.4977479535,6.56168,6,P-GPS,
537300,2025-09-03 07:46:18,48.1491697645699,11.572578461806,6.889764,,,1699.8258319535,7.217848,0,27.2367790868,27.3975402468,8,2,14.883,1699.8258319535,6.889764,0.8052984,27.2367790868,0,0,-2.23694,120.3, -0.2, -0.1,0,0,1024,1024,1269,1024,0,0,37,0,192,-56.7,7.1,49,3.732,3.759,3.759,3.728,0,0,19.884,121.91,1699.8258319535,6.889764,6,P-GPS,
537400,2025-09-03 07:46:18,48.149170568448,11.5725793081172,7.217848,,,1700.1539159535,7.545932,0,27.5950468148,27.7559720168,8,2,14.883,1700.1539159535,7.217848,0.8052984,27.5950468148,0,0,-2.23694,120.3, -0.2, -0.4,0,0,1024,1024,1271,1024,0,0,37,0,191.4,-56.4,6.7,49,3.732,3.759,3.759,3.728,0,0,19.884,121.91,1700.1539159535,7.217848,6,P-GPS,
537500,2025-09-03 07:46:18,48.1491713750619,11.5725801754335,7.545932,,,1700.4819999535,7.874016,0,27.9571531256,28.1181767528,8,2,14.883,1700.4819999535,7.545932,0.8052984,27.9571531256,0,0,-2.460634,120.3, 0, -0.5,0,0,1024,1024,1274,1024,0,0,38,0,191.4,-56,6.5,49,3.732,3.759,3.759,3.728,0,0,19.884,121.91,1700.4819999535,7.545932,6,P-GPS,
537600,2025-09-03 07:46:18,48.1491721875903,11.5725810605962,7.874016,,,1700.8100839535,8.2021,0,28.3236229536,28.4846465808,8,2,14.883,1700.8100839535,7.874016,0.8052984,28.3236229536,0,0,-2.460634,120.3, 0.2, -0.6,0,0,1024,1024,1276,1024,0,0,38,0,191.5,-55.9,6.7,49,3.732,3.759,3.759,3.728,0,0,19.884,121.91,1700.8100839535,7.874016,6,P-GPS,
537700,2025-09-03 07:46:18,48.1491729495197,11.5725819294018,8.530184,,,1701.4662519535,8.530184,0,28.67290118,28.8339248072,7,2,14.883,1701.4662519535,8.530184,0.8052984,28.67290118,0,0,-2.460634,120.4, 0.4, -0.7,0,0,1024,1024,1276,1024,0,0,38,0,191.4,-55.7,6.5,49,3.732,3.759,3.759,3.728,0,0,19.884,121.91,1701.4662519535,8.530184,6,P-GPS,
537800,2025-09-03 07:46:18,48.1491737677803,11.5725828315124,8.858268,,,1701.7943359535,9.186352,0,29.043472058,29.204561302,7,2,14.883,1701.7943359535,8.858268,0.8052984,29.043472058,0,0,-2.460634,120.4, 0.5, -0.8,0,0,1024,1024,1277,1024,0,0,38,0,191.5,-55.6,6.6,49,3.732,3.759,3.759,3.728,0,0,19.884,121.91,1701.7943359535,8.858268,6,P-GPS,
537900,2025-09-03 07:46:19,48.1491745983909,11.5725837433551,9.186352,,,1702.1224199535,9.514436,0,29.4190954296,29.5801846736,8,2,14.883,1702.1224199535,9.186352,0.8052984,29.4190954296,0,0,-2.684328,120.4, 0.4, -1,0,0,1024,1024,1275,1024,0,0,38,0,191.2,-55.7,6.5,49,3.732,3.759,3.759,3.728,0,0,19.884,121.91,1702.1224199535,9.186352,6,P-GPS,
538000,2025-09-03 07:46:19,48.1491754417946,11.5725846655462,9.514436,,,1702.4505039535,9.84252,0.223694,29.7999681452,29.9610901976,8,2,14.832,1702.4505039535,9.514436,0.8052984,29.7999681452,0.223694,0,-2.684328,120.4, 0.3, -0.7,0,0,1024,1024,1274,1024,0,0,38,0,191.4,-55.9,7.2,49,3.732,3.759,3.759,3.728,0,0,20.254,121.91,1702.4505039535,9.514436,6,P-GPS,
538100,2025-09-03 07:46:19,48.1491763607321,11.5725856103087,10.170604,,,1703.1066719535,10.170604,0.3131716,30.2062345624,30.3676518904,8,2,14.832,1703.1066719535,10.170604,0.8052984,30.2062345624,0.223694,0.223694,-2.684328,120.5, 0.2, 0,0,0,1024,1024,1267,1024,0,0,37,0,191.7,-55.9,8.2,49,3.732,3.759,3.759,3.728,0,0,20.254,121.91,1703.1066719535,10.170604,6,P-GPS,
538200,2025-09-03 07:46:19,48.1491772259439,11.5725865515533,10.498688,,,1703.4347559535,10.498688,0.3131716,30.5962608216,30.757710958,8,2,14.832,1703.4347559535,10.498688,0.8052984,30.5962608216,0.223694,0.223694,-2.684328,120.4, 0.2, 0.5,0,0,1024,1024,1263,1024,0,0,36,0,191.5,-55.7,7.9,49,3.732,3.759,3.759,3.728,0,0,20.254,121.91,1703.4347559535,10.498688,6,P-GPS,
538300,2025-09-03 07:46:19,48.1491780837822,11.5725874895624,10.826772,,,1703.7628399535,11.154856,0.3131716,30.9836624088,31.1451453536,8,2,14.832,1703.7628399535,10.826772,0.8052984,30.9836624088,0,0.223694,-2.684328,120.4, 0.4, 0.3,0,0,1024,1024,1260,1024,0,0,36,0,191.6,-55.4,7.5,49,3.732,3.759,3.759,3.728,0,0,20.254,121.91,1703.7628399535,10.826772,6,P-GPS,
538400,2025-09-03 07:46:19,48.1491789350024,11.5725884188664,11.154856,,,1704.0909239535,11.48294,0.3131716,31.3678487728,31.529364526,8,2,14.832,1704.0909239535,11.154856,0.8052984,31.3678487728,0.223694,0.223694,-2.684328,120.4, 0.5, 0.2,0,0,1024,1024,1253,1024,0,0,35,0,191.5,-55.5,7.7,49,3.732,3.759,3.759,3.728,0,0,20.254,121.91,1704.0909239535,11.154856,6,P-GPS,
538500,2025-09-03 07:46:19,48.1491797758788,11.5725893236989,11.811024,,,1704.7470919535,11.811024,0.3131716,31.7454734568,31.9070220184,8,2,14.832,1704.7470919535,11.811024,0.8052984,31.7454734568,0.223694,0.223694,-2.460634,120.4, 0.3, 0.5,0,0,1024,1024,1253,1024,0,0,35,0,191.5,-55.5,7.7,49,3.732,3.759,3.759,3.728,0,0,20.254,121.91,1704.7470919535,11.811024,6,P-GPS,
538600,2025-09-03 07:46:19,48.1491806158953,11.5725902351565,12.139108,,,1705.0751759535,12.139108,0.3131716,32.1237871172,32.2854012956,8,2,14.832,1705.0751759535,12.139108,0.8052984,32.1237871172,0.223694,0.223694,-2.460634,120.4, 0.4, 0.7,0,0,1024,1024,1252,1024,0,0,35,0,191.6,-55.4,8.1,49,3.732,3.759,3.759,3.728,0,0,20.254,121.91,1705.0751759535,12.139108,6,P-GPS,
538700,2025-09-03 07:46:19,48.1491814456983,11.5725911370616,12.467192,,,1705.4032599535,12.467192,0.223694,32.4977372604,32.6593514388,8,2,14.832,1705.4032599535,12.467192,0.8052984,32.4977372604,0,0.223694,-2.460634,120.4, 0.6, 0.6,0,0,1024,1024,1252,1024,0,0,35,0,191.6,-55.3,7.5,49,3.732,3.759,3.759,3.728,0,0,20.254,121.91,1705.4032599535,12.467192,6,P-GPS,
538800,2025-09-03 07:46:19,48.149182265001,11.5725920244841,12.795276,,,1705.7313439535,12.795276,0.223694,32.866470868,33.02821628,8,2,14.832,1705.7313439535,12.795276,0.8052984,32.866470868,0,0.223694,-2.23694,120.4, 0.7, 0.7,0,0,1024,1024,1253,1024,0,0,35,0,191.8,-55.1,8,49,3.732,3.759,3.759,3.728,0,0,20.254,121.91,1705.7313439535,12.795276,6,P-GPS,
538900,2025-09-03 07:46:19,48.1491830756274,11.57259289406,13.12336,,,1706.0594279535,13.12336,0.3131716,33.230316024,33.391733352,8,2,14.832,1706.0594279535,13.12336,0.8052984,33.230316024,0.223694,0.223694,-2.23694,120.4, 0.8, 0.8,0,0,1024,1024,1258,1024,0,0,35,0,191.8,-55.1,7.9,49,3.732,3.759,3.759,3.728,0,0,20.254,121.91,1706.0594279535,13.12336,6,P-GPS,
539000,2025-09-03 07:46:20,48.1491838638464,11.5725937827407,13.451444,,,1706.3875119535,13.451444,0.3131716,33.589896088,33.7516415,8,2,14.772,1706.3875119535,13.451444,0.8052984,33.589896088,0.223694,0.223694,-2.23694,120.4, 0.9, 1,0,0,1024,1024,1259,1024,0,0,36,0,191.9,-55,8.2,49,3.722,3.75,3.75,3.717,0,0,20.254,121.91,1706.3875119535,13.451444,6,P-GPS,"Setting new Return-To-Home altitude to 100m (328 ft). Data Recorder File Index is 234. Setting new Maximum Flight Altitude to 150m (492 ft)"
539100,2025-09-03 07:46:20,48.1491846557913,11.5725946101526,13.779528,,,1706.7155959535,13.451444,0,165.272643084,34.104003716,9,2,14.772,1706.7155959535,13.779528,0.8052984,165.272643084,0,0,-2.23694,120.4, 0.8, 1.1,0,0,1024,1024,1258,1024,0,0,35,0,192,-55.2,8.6,49,3.722,3.75,3.75,3.717,0,0,20.254,121.91,1706.7155959535,13.779528,6,P-GPS,
539200,2025-09-03 07:46:20,48.1491854347347,11.572595414839,14.107612,,,1707.0436799535,14.107612,0,165.617787452,34.449148084,9,2,14.772,1707.0436799535,14.107612,0.8052984,165.617787452,0,0,-2.23694,120.4, 0.6, 1.2,0,0,1024,1024,1257,1024,0,0,35,0,191.8,-55.3,8.6,49,3.722,3.75,3.75,3.717,0,0,20.254,121.91,1707.0436799535,14.107612,6,P-GPS,
539300,2025-09-03 07:46:20,48.149186197107,11.572596197442,14.435696,,,1707.3717639535,14.435696,0,165.95472972,34.786090352,9,2,14.772,1707.3717639535,14.435696,0.8052984,165.95472972,0,0,-2.23694,120.4, 0.6, 1.6,0,0,1024,1024,1256,1024,0,0,35,0,191.8,-55.3,8.8,49,3.722,3.75,3.75,3.717,0,0,20.254,121.91,1707.3717639535,14.435696,6,P-GPS,
539400,2025-09-03 07:46:20,48.1491869532783,11.5725969878255,14.76378,,,1707.6998479535,14.76378,0,166.29101582,35.122704536,9,2,14.772,1707.6998479535,14.76378,0.8052984,166.29101582,0,0,-2.23694,120.5, 0.6, 1.5,0,0,1024,1024,1255,1024,0,0,35,0,191.5,-55.2,8.3,49,3.722,3.75,3.75,3.717,0,0,20.254,121.91,1707.6998479535,14.76378,6,P-GPS,
539500,2025-09-03 07:46:20,48.1491876767503,11.5725977263898,15.091864,,,1708.0279319535,15.091864,0,166.610241552,35.441930268,8,2,14.772,1708.0279319535,15.091864,0.8052984,166.610241552,0,0,-2.23694,120.5, 0.6, 1.1,0,0,1024,1024,1256,1024,0,0,35,0,191.5,-55.2,8.2,49,3.722,3.75,3.75,3.717,0,0,20.254,121.91,1708.0279319535,15.091864,6,P-GPS,
539600,2025-09-03 07:46:20,48.1491883856055,11.5725984460291,15.419948,,,1708.3560159535,15.091864,0,166.92257752,35.754266236,8,2,14.772,1708.3560159535,15.419948,0.8052984,166.92257752,0,0,-2.23694,120.5, 0.6, 0.8,0,0,1024,1024,1256,1024,0,0,35,0,191.2,-55.1,8.2,49,3.722,3.75,3.75,3.717,0,0,20.254,121.91,1708.3560159535,15.419948,6,P-GPS,
539700,2025-09-03 07:46:20,48.1491890846118,11.5725991521102,15.748032,,,1708.6840999535,15.419948,0,167.229992228,36.062009028,9,2,14.772,1708.6840999535,15.748032,0.8052984,167.229992228,0,0,-2.23694,120.5, 0.7, 0.9,0,0,1024,1024,1253,1024,0,0,35,0,191.2,-55,8.4,49,3.722,3.75,3.75,3.717,0,0,20.254,121.91,1708.6840999535,15.748032,6,P-GPS,
539800,2025-09-03 07:46:20,48.1491897722321,11.5725998723144,16.076116,,,1709.0121839535,15.748032,0,167.5360946,36.367783316,9,2,14.772,1709.0121839535,16.076116,0.8052984,167.5360946,0,0,-2.23694,120.5, 0.7, 0.9,0,0,1024,1024,1255,1024,0,0,35,0,191.2,-55,8.4,49,3.722,3.75,3.75,3.717,0,0,20.254,121.91,1709.0121839535,16.076116,6,P-GPS,
539900,2025-09-03 07:46:21,48.1491904541984,11.5726005499694,16.732284,,,1709.6683519535,16.076116,0,167.83465104,36.666339756,10,2,14.772,1709.6683519535,16.732284,0.8052984,167.83465104,0,0,-2.23694,120.5, 0.4, 0.6,0,0,1024,1024,1256,1024,0,0,35,0,191.6,-55.2,8.4,49,3.722,3.75,3.75,3.717,0,0,20.254,121.91,1709.6683519535,16.732284,6,P-GPS,
540000,2025-09-03 07:46:21,48.1491911275404,11.5726012156583,17.060368,,,1709.9964359535,16.4042,0,168.128614304,36.960631104,10,2,14.851,1709.9964359535,17.060368,0.8052984,168.128614304,0,0,-2.23694,120.5, 0.3, 0.5,0,0,1024,1024,1258,1024,0,0,35,0,190.9,-55.1,8,49,3.716,3.745,3.745,3.713,0,0,19.996,121.91,1709.9964359535,17.060368,6,P-GPS,
540100,2025-09-03 07:46:21,48.1491917942384,11.5726018722055,17.388452,,,1710.3245199535,16.732284,0,168.419624812,37.251969696,8,2,14.851,1710.3245199535,17.388452,0.8052984,168.419624812,0,0,-2.23694,120.5, 0.6, 0.6,0,0,1024,1024,1260,1024,0,0,36,0,191,-55.1,8.7,49,3.716,3.745,3.745,3.713,0,0,19.996,121.91,1710.3245199535,17.388452,6,P-GPS,
540200,2025-09-03 07:46:21,48.1491925087736,11.5726026154177,17.716536,,,1710.6526039535,17.060368,0,168.73688204,37.569226924,8,2,14.851,1710.6526039535,17.716536,0.8052984,168.73688204,0,0,-2.23694,120.5, 0.7, 0.6,0,0,1024,1024,1264,1024,0,0,36,0,190.7,-54.9,7.9,49,3.716,3.745,3.745,3.713,0,0,19.996,121.91,1710.6526039535,17.716536,6,P-GPS,
540300,2025-09-03 07:46:21,48.1491931774257,11.5726032673429,18.04462,,,1710.9806879535,17.388452,0,169.027564464,37.860237432,9,2,14.851,1710.9806879535,18.04462,0.8052984,169.027564464,0,0,-2.23694,120.5, 0.9, 1,0,0,1024,1024,1262,1024,0,0,36,0,190.9,-54.8,8.3,49,3.716,3.745,3.745,3.713,0,0,19.996,121.91,1710.9806879535,18.04462,6,P-GPS,
540400,2025-09-03 07:46:21,48.1491938403718,11.5726038992388,18.372704,,,1711.3087719535,17.716536,0,169.313981796,38.146982848,9,2,14.851,1711.3087719535,18.372704,0.8052984,169.313981796,0,0,-2.460634,120.5, 0.9, 1.2,0,0,1024,1024,1266,1024,0,0,37,0,190.7,-54.8,9.1,49,3.716,3.745,3.745,3.713,0,0,19.996,121.91,1711.3087719535,18.372704,6,P-GPS,
540500,2025-09-03 07:46:21,48.1491944938338,11.5726045079728,18.700788,,,1711.6368559535,18.372704,0,169.594165532,38.427494668,9,2,14.851,1711.6368559535,18.700788,0.8052984,169.594165532,0,0,-2.460634,120.5, 0.6, 1,0,0,1024,1024,1262,1024,0,0,36,0,190.6,-54.9,8.3,49,3.716,3.745,3.745,3.713,0,0,19.996,121.91,1711.6368559535,18.700788,6,P-GPS,
540600,2025-09-03 07:46:21,48.1491951371864,11.5726050969857,19.028872,,,1711.9649399535,18.700788,0,169.868443756,38.70242906,9,2,14.851,1711.9649399535,19.028872,0.8052984,169.868443756,0,0,-2.460634,120.5, 0.4, 0.8,0,0,1024,1024,1268,1024,0,0,37,0,190.4,-55.1,8,49,3.716,3.745,3.745,3.713,0,0,19.996,121.91,1711.9649399535,19.028872,6,P-GPS,
540700,2025-09-03 07:46:21,48.1491957367665,11.5726056374149,19.356956,,,1712.2930239535,19.028872,0,170.12303694,38.958006496,9,2,14.851,1712.2930239535,19.356956,0.8052984,170.12303694,0,0,-2.460634,120.5, 0.4, 0.7,0,0,1024,1024,1258,1024,0,0,35,0,190.4,-55.1,8.2,49,3.716,3.745,3.745,3.713,0,0,19.996,121.91,1712.2930239535,19.356956,6,P-GPS,
540800,2025-09-03 07:46:21,48.1491963581546,11.5726062002871,19.68504,,,1712.6211079535,19.356956,0,170.38714456,39.222770284,9,2,14.851,1712.6211079535,19.68504,0.8052984,170.38714456,0,0,-2.460634,120.5, 0.4, 0.6,0,0,1024,1024,1250,1024,0,0,34,0,190.3,-55,8.1,49,3.716,3.745,3.745,3.713,0,0,19.996,121.91,1712.6211079535,19.68504,6,P-GPS,
540900,2025-09-03 07:46:22,48.1491969731854,11.5726067541719,20.341208,,,1713.2772759535,19.68504,0,170.648299424,39.484581316,11,2,14.851,1713.2772759535,20.341208,0.8052984,170.648299424,0,0,-2.460634,120.4, 0.6, 0.4,0,0,1024,1024,1259,1024,0,0,36,0,189.8,-54.8,8.1,49,3.716,3.745,3.745,3.713,0,0,19.996,121.91,1713.2772759535,20.341208,6,P-GPS,
541000,2025-09-03 07:46:22,48.1491975863401,11.5726073023816,20.669292,,,1713.6053599535,20.341208,0,170.907813868,39.745080012,11,2,14.81,1713.6053599535,20.669292,0.8052984,170.907813868,0,0,-2.460634,120.5, 0.7, 0,0,0,1024,1024,1250,1024,0,0,34,0,189.6,-54.8,7.6,49,3.715,3.741,3.741,3.709,0,0,19.324,121.91,1713.6053599535,20.669292,6,P-GPS,
541100,2025-09-03 07:46:22,48.1491981919389,11.5726077758671,20.997376,,,1713.9334439535,20.669292,0.223694,171.15486112,39.994095768,10,2,14.81,1713.9334439535,20.997376,0.8052984,171.15486112,0,-0.223694,-2.23694,120.5, 0.4, 0,0,0,1024,1024,1256,1024,0,0,35,0,189.9,-55.2,7.4,49,3.715,3.741,3.741,3.709,0,0,19.324,121.91,1713.9334439535,20.997376,6,P-GPS,
541200,2025-09-03 07:46:22,48.1491988110342,11.5726083018136,21.32546,,,1714.2615279535,20.997376,0,171.413063228,40.253938296,10,2,14.81,1714.2615279535,21.32546,0.8052984,171.413063228,0,0,-2.23694,120.5, 0.1, 0,0,0,1024,1024,1258,1024,0,0,35,0,189.9,-55.2,7.4,49,3.715,3.741,3.741,3.709,0,0,19.324,121.91,1714.2615279535,21.32546,6,P-GPS,
541300,2025-09-03 07:46:22,48.1491994324485,11.5726088330756,21.653544,,,1714.5896119535,21.32546,0,171.672905756,40.514765076,11,2,14.81,1714.5896119535,21.653544,0.8052984,171.672905756,0,0,-2.23694,120.5, 0, -0.2,0,0,1024,1024,1256,1024,0,0,35,0,189.6,-55.3,7.4,49,3.715,3.741,3.741,3.709,0,0,19.324,121.91,1714.5896119535,21.653544,6,P-GPS,
541400,2025-09-03 07:46:22,48.1492000570154,11.5726093761497,21.981628,,,1714.9176959535,21.653544,0,171.935372956,40.778216528,11,2,14.81,1714.9176959535,21.981628,0.8052984,171.935372956,0,0,-2.23694,120.5, 0.2, -0.3,0,0,1024,1024,1254,1024,0,0,35,0,189,-54.9,7.2,49,3.715,3.741,3.741,3.709,0,0,19.324,121.91,1714.9176959535,21.981628,6,P-GPS,
541500,2025-09-03 07:46:22,48.1492006621452,11.5726100271505,22.309712,,,1715.2457799535,21.981628,0,172.207026508,41.050198164,10,2,14.81,1715.2457799535,22.309712,0.8052984,172.207026508,0,0,-2.23694,120.5, 0.6, -0.3,0,0,1024,1024,1250,1024,0,0,34,0,189,-54.6,7.3,49,3.715,3.741,3.741,3.709,0,0,19.324,121.91,1715.2457799535,22.309712,6,P-GPS,
541600,2025-09-03 07:46:22,48.1492012963003,11.5726105972127,22.637796,,,1715.5738639535,22.309712,0,172.476055388,41.319883212,10,2,14.81,1715.5738639535,22.637796,0.8052984,172.476055388,0,0,-2.23694,120.5, 0.8, 0,0,0,1024,1024,1252,1024,0,0,35,0,189.1,-54.4,7.4,49,3.715,3.741,3.741,3.709,0,0,19.324,121.91,1715.5738639535,22.637796,6,P-GPS,
541700,2025-09-03 07:46:22,48.1492019362658,11.5726111598024,22.96588,,,1715.9019479535,22.637796,0,172.745740436,41.590552512,12,2,14.81,1715.9019479535,22.96588,0.8052984,172.745740436,0,0,-2.23694,120.5, 0.8, 0.2,0,0,1024,1024,1251,1024,0,0,34,0,188.9,-54.5,7.6,49,3.715,3.741,3.741,3.709,0,0,19.324,121.91,1715.9019479535,22.96588,6,P-GPS,
541800,2025-09-03 07:46:22,48.1492025810254,11.5726117150738,23.293964,,,1716.2300319535,23.293964,0,173.015753568,41.86187798,12,2,14.81,1716.2300319535,23.293964,0.8052984,173.015753568,0,0,-2.23694,120.5, 0.8, 0,0,0,1024,1024,1250,1024,0,0,34,0,188.7,-54.5,7.2,49,3.715,3.741,3.741,3.709,0,0,19.324,121.91,1716.2300319535,23.293964,6,P-GPS,
541900,2025-09-03 07:46:22,48.1492032077809,11.5726121819855,23.622048,,,1716.5581159535,23.622048,0.223694,173.268378248,42.117127332,13,2,14.81,1716.5581159535,23.622048,0.8052984,173.268378248,0,-0.223694,-2.23694,120.5, 0.6, -0.4,0,0,1024,1024,1250,1024,0,0,34,0,188.4,-54.6,7,49,3.715,3.741,3.741,3.709,0,0,19.324,121.91,1716.5581159535,23.622048,6,P-GPS,
542000,2025-09-03 07:46:23,48.1492038554587,11.5726127146342,23.950132,,,1716.8861999535,23.950132,0.223694,173.536094792,42.38681238,13,2,14.803,1716.8861999535,23.950132,0.8052984,173.536094792,0,-0.223694,-2.23694,120.5, 0.3, -0.8,0,0,1024,1024,1249,1024,0,0,34,0,188.7,-54.8,6.9,49,3.709,3.74,3.741,3.711,0,0,19.406,121.91,1716.8861999535,23.950132,6,P-GPS,
542100,2025-09-03 07:46:23,48.1492045131156,11.572613254293,24.278216,,,1717.2142839535,24.278216,0,173.807748344,42.660434436,12,2,14.803,1717.2142839535,24.278216,0.8052984,173.807748344,0,0,-2.23694,120.5, 0.3, -0.7,0,0,1024,1024,1249,1024,0,0,34,0,188.8,-54.9,7.6,49,3.709,3.74,3.741,3.711,0,0,19.406,121.91,1717.2142839535,24.278216,6,P-GPS,
542200,2025-09-03 07:46:23,48.1492051813248,11.5726138032732,24.6063,,,1717.5423679535,24.6063,0,174.083995072,42.938321584,12,2,14.803,1717.5423679535,24.6063,0.8052984,174.083995072,0,0,-2.23694,120.5, 0.2, -0.8,0,0,1024,1024,1248,1024,0,0,34,0,188.6,-54.9,7.8,49,3.709,3.74,3.741,3.711,0,0,19.406,121.91,1717.5423679535,24.6063,6,P-GPS,
542300,2025-09-03 07:46:23,48.1492058600081,11.5726143619341,24.934384,,,1717.8704519535,24.934384,0.223694,174.364834976,43.220801908,12,2,14.803,1717.8704519535,24.934384,0.8052984,174.364834976,0,-0.223694,-2.23694,120.5, 0.1, -1,0,0,1024,1024,1247,1024,0,0,34,0,188.8,-55.1,7.2,49,3.709,3.74,3.741,3.711,0,0,19.406,121.91,1717.8704519535,24.934384,6,P-GPS,
542400,2025-09-03 07:46:23,48.1492065915833,11.5726150151689,25.262468,,,1718.1985359535,25.262468,0,174.674546272,43.531497456,12,2,14.803,1718.1985359535,25.262468,0.8052984,174.674546272,0,0,-2.23694,120.6, 0, -0.9,0,0,1024,1024,1245,1024,0,0,33,0,188.9,-55.1,7.2,49,3.709,3.74,3.741,3.711,0,0,19.406,121.91,1718.1985359535,25.262468,6,P-GPS,
542500,2025-09-03 07:46:23,48.1492072971555,11.5726156207187,25.590552,,,1718.5266199535,25.590552,0,174.969821872,43.828085392,12,2,14.803,1718.5266199535,25.590552,0.8052984,174.969821872,0,0,-2.23694,120.6, 0, -0.7,0,0,1024,1024,1248,1024,0,0,34,0,188.8,-54.9,8.2,49,3.709,3.74,3.741,3.711,0,0,19.406,121.91,1718.5266199535,25.590552,6,P-GPS,
542600,2025-09-03 07:46:23,48.149208009476,11.5726162408283,25.918636,,,1718.8547039535,25.918636,0,175.269362564,44.128610336,12,2,14.803,1718.8547039535,25.918636,0.8052984,175.269362564,0,0,-2.23694,120.6, 0.1, -0.3,0,0,1024,1024,1247,1024,0,0,34,0,188.8,-54.9,8.2,49,3.709,3.74,3.741,3.711,0,0,19.406,121.91,1718.8547039535,25.918636,6,P-GPS,
542700,2025-09-03 07:46:23,48.1492087250795,11.5726168688468,26.24672,,,1719.1827879535,26.24672,0,175.570543676,44.431431868,11,2,14.803,1719.1827879535,26.24672,0.8052984,175.570543676,0,0,-2.23694,120.6, 0.3, 0,0,0,1024,1024,1247,1024,0,0,34,0,189,-54.8,8.5,49,3.709,3.74,3.741,3.711,0,0,19.406,121.91,1719.1827879535,26.24672,6,P-GPS,
542800,2025-09-03 07:46:23,48.1492094519387,11.5726174671296,26.574804,,,1719.5108719535,26.902888,0,175.871396704,44.733925316,11,2,14.803,1719.5108719535,26.574804,0.8052984,175.871396704,0,0,-2.23694,120.6, 0.4, 0.4,0,0,1024,1024,1253,1024,0,0,35,0,189.4,-54.7,8.4,49,3.709,3.74,3.741,3.711,0,0,19.406,121.91,1719.5108719535,26.574804,6,P-GPS,
542900,2025-09-03 07:46:24,48.1492101633733,11.572618078149,26.902888,,,1719.8389559535,27.230972,0,176.169296976,45.033137924,10,2,14.803,1719.8389559535,26.902888,0.8052984,176.169296976,0,0,-2.23694,120.5, 0.4, 0.4,0,0,1024,1024,1249,1024,0,0,34,0,189.1,-54.7,8.5,49,3.709,3.74,3.741,3.711,0,0,19.406,121.91,1719.8389559535,26.902888,6,P-GPS,
543000,2025-09-03 07:46:24,48.1492108702743,11.5726186835704,27.230972,,,1720.1670399535,27.559056,0,176.46490066,45.330053944,10,2,14.775,1720.1670399535,27.230972,0.8052984,176.46490066,0,0,-2.23694,120.5, 0.3, 0.1,0,0,1024,1024,1252,1024,0,0,35,0,188.7,-54.8,8.5,49,3.709,3.74,3.741,3.711,0,0,19.406,121.91,1720.1670399535,27.230972,6,P-GPS,
543100,2025-09-03 07:46:24,48.1492115748043,11.5726192862442,27.559056,,,1720.4951239535,27.88714,0,176.759520092,45.625985712,12,2,14.775,1720.4951239535,27.559056,0.8052984,176.759520092,0,0,-2.23694,120.5, 0.2, -0.2,0,0,1024,1024,1249,1024,0,0,34,0,188.4,-54.8,8.1,49,3.709,3.74,3.741,3.711,0,0,19.406,121.91,1720.4951239535,27.559056,6,P-GPS,
543200,2025-09-03 07:46:24,48.1492122894437,11.5726199151615,27.88714,,,1720.8232079535,28.215224,0,177.061029288,45.92847916,12,2,14.775,1720.8232079535,27.88714,0.8052984,177.061029288,0,0,-2.23694,120.5, 0.1, -0.1,0,0,1024,1024,1249,1024,0,0,34,0,188.9,-54.8,8,49,3.709,3.74,3.741,3.711,0,0,19.406,121.91,1720.8232079535,27.88714,6,P-GPS,
543300,2025-09-03 07:46:24,48.1492129958497,11.5726205378132,28.215224,,,1721.1512919535,28.543308,0,177.35892956,46.227363684,10,2,14.775,1721.1512919535,28.215224,0.8052984,177.35892956,0,0,-2.23694,120.6, 0.1, 0,0,0,1024,1024,1249,1024,0,0,34,0,188.6,-54.8,8.3,49,3.709,3.74,3.741,3.711,0,0,19.406,121.91,1721.1512919535,28.215224,6,P-GPS,
543400,2025-09-03 07:46:24,48.1492137001192,11.5726211655749,28.543308,,,1721.4793759535,28.871392,0,177.656829832,46.526248208,10,2,14.775,1721.4793759535,28.543308,0.8052984,177.656829832,0,0,-2.23694,120.6, 0.2, -0.2,0,0,1024,1024,1250,1024,0,0,34,0,188.1,-54.7,8.6,49,3.709,3.74,3.741,3.711,0,0,19.406,121.91,1721.4793759535,28.543308,6,P-GPS,
543500,2025-09-03 07:46:24,48.1492144032943,11.5726217990116,28.871392,,,1721.8074599535,29.199476,0,177.955386272,46.8257889,12,2,14.775,1721.8074599535,28.871392,0.8052984,177.955386272,0,0,-2.23694,120.6, 0.2, -0.1,0,0,1024,1024,1250,1024,0,0,34,0,188.5,-54.6,8.1,49,3.709,3.74,3.741,3.711,0,0,19.406,121.91,1721.8074599535,28.871392,6,P-GPS,
543600,2025-09-03 07:46:24,48.1492151223891,11.5726224283397,29.199476,,,1722.1355439535,29.52756,0,178.258207804,47.129594684,12,2,14.775,1722.1355439535,29.199476,0.8052984,178.258207804,0,0,-2.23694,120.6, 0.3, 0,0,0,1024,1024,1252,1024,0,0,35,0,188.6,-54.5,8.2,49,3.709,3.74,3.741,3.711,0,0,19.406,121.91,1722.1355439535,29.199476,6,P-GPS,
543700,2025-09-03 07:46:24,48.1492158242094,11.572623061802,29.52756,,,1722.4636279535,29.855644,0,178.55643616,47.428479208,12,2,14.775,1722.4636279535,29.52756,0.8052984,178.55643616,0,0,-2.013246,120.6, 0.3, 0.1,0,0,1024,1024,1251,1024,0,0,34,0,188.2,-54.4,8.7,49,3.709,3.74,3.741,3.711,0,0,19.406,121.91,1722.4636279535,29.52756,6,P-GPS,
543800,2025-09-03 07:46:24,48.1492165221214,11.5726236906936,29.855644,,,1722.7917119535,30.183728,0,178.852696012,47.725395228,12,2,14.775,1722.7917119535,29.855644,0.8052984,178.852696012,0,0,-2.013246,120.6, 0.4, 0.2,0,0,1024,1024,1248,1024,0,0,34,0,188.3,-54.2,8.5,49,3.709,3.74,3.741,3.711,0,0,19.406,121.91,1722.7917119535,29.855644,6,P-GPS,
543900,2025-09-03 07:46:25,48.1492172156301,11.5726243114451,30.183728,,,1723.1197959535,30.511812,0,179.146659276,48.020342744,12,2,14.775,1723.1197959535,30.183728,0.8052984,179.146659276,0,0,-2.23694,120.6, 0.7, 0.1,0,0,1024,1024,1250,1024,0,0,34,0,188.3,-54.4,8.3,49,3.709,3.74,3.741,3.711,0,0,19.406,121.91,1723.1197959535,30.183728,6,P-GPS,
544000,2025-09-03 07:46:25,48.1492179070544,11.5726249198196,30.511812,,,1723.4478799535,30.839896,0,179.438325952,48.312665588,12,2,14.753,1723.4478799535,30.511812,0.8052984,179.438325952,0,0,-2.23694,120.6, 0.5, 0,0,0,1024,1024,1250,1024,0,0,34,0,188.1,-54.4,8.2,49,3.707,3.736,3.736,3.704,0,0,19.154,121.91,1723.4478799535,30.511812,6,P-GPS,
544100,2025-09-03 07:46:25,48.1492185828717,11.5726255198742,30.839896,,,1723.7759639535,31.16798,0,179.724087116,48.599411004,12,2,14.753,1723.7759639535,30.839896,0.8052984,179.724087116,0,0,-2.23694,120.6, 0.4, -0.1,0,0,1024,1024,1250,1024,0,0,34,0,188.1,-54.4,8.2,49,3.707,3.736,3.736,3.704,0,0,19.154,121.91,1723.7759639535,30.839896,6,P-GPS,
544200,2025-09-03 07:46:25,48.1492192721595,11.5726261146134,30.839896,,,1723.7759639535,31.496064,0,180.01312912,48.88943726,12,2,14.753,1723.7759639535,30.839896,0.8052984,180.01312912,0,0,-2.013246,120.6, 0.3, -0.2,0,0,1024,1024,1247,1024,0,0,34,0,188,-54.5,8.3,49,3.707,3.736,3.736,3.704,0,0,19.154,121.91,1723.7759639535,30.839896,6,P-GPS,
544300,2025-09-03 07:46:25,48.1492199619423,11.5726267115866,31.16798,,,1724.1040479535,31.824148,0,180.302499208,49.180119684,12,2,14.753,1724.1040479535,31.16798,0.8052984,180.302499208,0,0,-2.23694,120.6, 0, -0.4,0,0,1024,1024,1247,1024,0,0,34,0,187.7,-54.6,8.4,49,3.707,3.736,3.736,3.704,0,0,19.154,121.91,1724.1040479535,31.16798,6,P-GPS,
544400,2025-09-03 07:46:25,48.1492206527934,11.5726273140037,31.496064,,,1724.4321319535,32.152232,0,180.593181632,49.47178636,12,2,14.753,1724.4321319535,31.496064,0.8052984,180.593181632,0,0,-2.013246,120.6, 0, -0.4,0,0,1024,1024,1248,1024,0,0,34,0,187.7,-54.5,8.4,49,3.707,3.736,3.736,3.704,0,0,19.154,121.91,1724.4321319535,31.496064,6,P-GPS,
544500,2025-09-03 07:46:25,48.149221338694,11.5726279493149,31.824148,,,1724.7602159535,32.480316,0,180.886816812,49.765749624,12,2,14.753,1724.7602159535,31.824148,0.8052984,180.886816812,0,0,-2.23694,120.6, 0.2, -0.3,0,0,1024,1024,1246,1024,0,0,34,0,187.8,-54.3,8.5,49,3.707,3.736,3.736,3.704,0,0,19.154,121.91,1724.7602159535,31.824148,6,P-GPS,
544600,2025-09-03 07:46:25,48.1490797806107,11.5724765447539,32.152232,,,1725.0882999535,32.8084,0,117.44094864,113.214898636,12,2,14.753,1725.0882999535,32.152232,0.8052984,180.886816812,0,0,-2.013246,120.6, 0.4, -0.1,0,0,1024,1024,1242,1024,0,0,33,0,187.5,-54.2,8.8,49,3.707,3.736,3.736,3.704,0,0,19.154,121.91,1725.0882999535,32.152232,6,P-GPS,
544700,2025-09-03 07:46:25,48.1489224566036,11.572308280944,32.480316,,,1725.4163839535,33.136484,0,46.939634048,183.73032084,12,2,14.753,1725.4163839535,32.480316,0.8052984,180.886816812,0,0,-2.013246,120.6, 0.5, -0.1,0,0,1024,1024,1235,1024,0,0,32,0,187.4,-54.4,8.6,49,3.707,3.736,3.736,3.704,0,0,19.154,121.91,1725.4163839535,32.480316,6,P-GPS,
544800,2025-09-03 07:46:25,48.1489055175943,11.5722901057343,32.8084,,,1725.7444679535,33.464568,0,39.34383328,191.331042868,12,2,14.753,1725.7444679535,32.8084,0.8052984,180.886816812,0,0,-2.013246,120.6, 0.4, -0.2,0,0,1024,1024,1232,1024,0,0,32,0,187.4,-54.7,8.4,49,3.707,3.736,3.736,3.704,0,0,19.154,121.91,1725.7444679535,32.8084,6,P-GPS,
544900,2025-09-03 07:46:25,48.1488986280353,11.5722827389036,33.136484,,,1726.0725519535,33.464568,0,36.258531344,194.418641392,12,2,14.753,1726.0725519535,33.136484,0.8052984,180.886816812,0,0,-2.013246,120.6, 0.2, -0.4,0,0,1024,1024,1228,1024,0,0,31,0,186.9,-54.6,8.7,49,3.707,3.736,3.736,3.704,0,0,19.154,121.91,1726.0725519535,33.136484,6,P-GPS,
545000,2025-09-03 07:46:26,48.1488978938676,11.5722817825183,33.464568,,,1726.4006359535,33.464568,0,35.90715338,194.77362828,12,2,14.774,1726.4006359535,33.464568,0.8052984,180.886816812,0,0,-2.013246,120.6, 0.2, -0.5,0,0,1024,1024,1226,1024,0,0,31,0,187,-54.6,8.5,49,3.704,3.732,3.73,3.698,0,0,19.396,121.91,1726.4006359535,33.464568,6,P-GPS,
545100,2025-09-03 07:46:26,48.1488971965744,11.5722808488874,33.464568,,,1726.4006359535,33.464568,0,35.569883028,195.11483564,14,2,14.774,1726.4006359535,33.464568,0.8052984,180.886816812,0,0,-1.789552,120.6, 0.3, -0.6,0,0,1024,1024,1226,1024,0,0,31,0,187.3,-54.5,8.7,49,3.704,3.732,3.73,3.698,0,0,19.396,121.91,1726.4006359535,33.464568,6,P-GPS,
545200,2025-09-03 07:46:26,48.1488964553556,11.5722799892555,33.792652,,,1726.7287199535,33.464568,0,35.229003752,195.456699168,14,2,14.774,1726.7287199535,33.792652,0.8052984,180.886816812,0,0,-1.789552,120.6, 0.3, -0.5,0,0,1024,1024,1227,1024,0,0,31,0,186.6,-54.5,8.4,49,3.704,3.732,3.73,3.698,0,0,19.396,121.91,1726.7287199535,33.792652,6,P-GPS,
545300,2025-09-03 07:46:26,48.1488954036381,11.5722788319907,33.792652,,,1726.7287199535,33.464568,0,34.75393812,195.932749052,14,2,14.774,1726.7287199535,33.792652,0.8052984,180.886816812,0,0,-1.789552,120.6, 0.3, -0.1,0,0,1024,1024,1226,1024,0,0,31,0,186.9,-54.3,8.9,49,3.704,3.732,3.73,3.698,0,0,19.396,121.91,1726.7287199535,33.792652,6,P-GPS,
545400,2025-09-03 07:46:26,48.1488946259909,11.5722778821984,34.120736,,,1727.0568039535,33.464568,0,34.390092964,196.298890796,14,2,14.774,1727.0568039535,34.120736,0.8052984,180.886816812,0,0,-1.565858,120.6, 0.5, 0.2,0,0,1024,1024,1226,1024,0,0,31,0,187.1,-54.2,8.7,49,3.704,3.732,3.73,3.698,0,0,19.396,121.91,1727.0568039535,34.120736,6,P-GPS,
