time(millisecond),datetime(utc),latitude,longitude,height_above_takeoff(feet),height_above_ground_at_drone_location(feet),ground_elevation_at_drone_location(feet),altitude_above_seaLevel(feet),height_sonar(feet),speed(mph),distance(feet),mileage(feet),satellites,gpslevel,voltage(v),max_altitude(feet),max_ascent(feet),max_speed(mph),max_distance(feet), xSpeed(mph), ySpeed(mph), zSpeed(mph), compass_heading(degrees), pitch(degrees), roll(degrees),isPhoto,isVideo,rc_elevator,rc_aileron,rc_throttle,rc_rudder,rc_elevator(percent),rc_aileron(percent),rc_throttle(percent),rc_rudder(percent),gimbal_heading(degrees),gimbal_pitch(degrees),gimbal_roll(degrees),battery_percent,voltageCell1,voltageCell2,voltageCell3,voltageCell4,voltageCell5,voltageCell6,current(A),battery_temperature(f),altitude(feet),ascent(feet),flycStateRaw,flycState,message
361500,2025-09-03 15:28:16,48.1487795008271,11.5722206134504,0,Available with any HD 360 subscription,Available with any HD 360 subscription,1692.9252546329,0.328084,0,0,0,9,4,0,1692.9252546329,0,0,0,0,0,0,261.7, -1.2, -3.6,0,0,1024,1024,1024,1024,0,0,0,0,303.8,-35.2,-38.1,64,3.937,3.939,3.939,3.918,0,0,0,129.11,1692.9252546329,0,41,Motors_Started,
361600,2025-09-03 15:28:16,48.1487794798006,11.5722206475706,0,,,1692.9252546329,0.328084,0,0.0113065292332,0.0113065292332,9,4,0,1692.9252546329,0,0,0.0113065292332,0,0,0,261.9, -1.2, -3.6,0,0,395,364,364,1684,-95,-100,-100,100,303.7,-35.2,-38.1,64,3.937,3.939,3.939,3.918,0,0,0,129.11,1692.9252546329,0,41,Motors_Started,
361700,2025-09-03 15:28:16,48.1487794730328,11.5722206936889,0,,,1692.9252546329,0.328084,0,0.0220077762948,0.022801345874,9,4,0,1692.9252546329,0,0,0.0220077762948,0,0,0,261.7, -1.2, -3.6,0,0,893,805,694,1396,-20,-33,-50,56,303.5,-35.3,-38.1,64,3.937,3.939,3.939,3.918,0,0,0,129.11,1692.9252546329,0,41,Motors_Started,
361800,2025-09-03 15:28:16,48.1487795174633,11.5722207959788,0,,,1692.9252546329,0.328084,0,0.044845145792,0.05251312504,10,4,0,1692.9252546329,0,0,0.044845145792,0,0,0,261.7, -1.2, -3.6,0,0,1024,1024,1024,1024,0,0,0,0,303.4,-35.4,-38.1,64,3.937,3.939,3.939,3.918,0,0,0,129.11,1692.9252546329,0,41,Motors_Started,
361900,2025-09-03 15:28:16,48.1487795228307,11.5722208521887,0,,,1692.9252546329,0.328084,0,0.058667324712,0.066335632044,10,4,0,1692.9252546329,0,0,0.058667324712,0,0,0,261.7, -1.2, -3.5,0,0,1024,1024,1024,1024,0,0,0,0,303.4,-35.4,-38.2,64,3.937,3.939,3.939,3.918,0,0,0,129.11,1692.9252546329,0,41,Motors_Started,
362000,2025-09-03 15:28:16,48.1487795284064,11.5722209096248,0,,,1692.9252546329,0.328084,0,0.072795606004,0.08046424142,10,4,15.664,1692.9252546329,0,0,0.072795606004,0,0,0,261.7, -1.2, -3.5,0,0,1024,1024,1024,1024,0,0,0,0,303.3,-35.5,-38,64,3.937,3.939,3.939,3.918,0,0,1.62,129.11,1692.9252546329,0,41,Motors_Started,"Setting new Return-To-Home altitude to 100m (328 ft). Data Recorder File Index is 244. Setting new Maximum Flight Altitude to 500m (1640 ft)"
362100,2025-09-03 15:28:16,48.1487795338845,11.5722210071064,0,,,1692.9252546329,0.328084,0,16.2542328036,0.104277890476,10,4,15.664,1692.9252546329,0,0,16.2542328036,0,0,0,261.7, -1.2, -3.6,0,0,1024,1024,1024,1024,0,0,0,0,303.3,-35.5,-38.1,64,3.937,3.939,3.939,3.918,0,0,1.62,129.11,1692.9252546329,0,41,Motors_Started,
362200,2025-09-03 15:28:16,48.1487795877013,11.5722212618937,0,,,1692.9252546329,0.328084,0,16.30741522,0.16933399492,10,4,15.664,1692.9252546329,0,0,16.30741522,0,0,0,261.6, -1.2, -3.6,0,0,1024,1024,1024,1024,0,0,0,0,303,-35.7,-38,64,3.937,3.939,3.939,3.918,0,0,1.62,129.11,1692.9252546329,0,41,Motors_Started,
362300,2025-09-03 15:28:16,48.1487795478761,11.5722213811891,0,,,1692.9252546329,0.328084,0,16.3135503908,0.20180610882,10,4,15.664,1692.9252546329,0,0,16.3135503908,0,0,0,261.7, -1.2, -3.6,0,0,1024,1024,1024,1024,0,0,0,0,303,-35.7,-38,64,3.937,3.939,3.939,3.918,0,0,1.62,129.11,1692.9252546329,0,41,Motors_Started,
362400,2025-09-03 15:28:16,48.1487794959809,11.5722215057806,0,,,1692.9252546329,0.328084,0,16.3169952728,0.237559718888,10,4,15.664,1692.9252546329,0,0,16.3169952728,0,0,0,261.6, -1.3, -3.6,0,0,1024,1024,1024,1024,0,0,0,0,302.8,-35.7,-38.1,64,3.937,3.939,3.939,3.918,0,0,1.62,129.11,1692.9252546329,0,41,Motors_Started,
362500,2025-09-03 15:28:17,48.1487794305044,11.5722216225787,0,,,1692.9252546329,0.328084,0,16.315453278,0.274695546848,10,4,15.664,1692.9252546329,0,0,16.3169952728,0,0,0,261.6, -1.2, -3.6,0,0,1024,1024,1024,1024,0,0,0,0,303,-35.6,-38.1,64,3.937,3.939,3.939,3.918,0,0,1.62,129.11,1692.9252546329,0,41,Motors_Started,
362600,2025-09-03 15:28:17,48.1487793602012,11.57222174371,0,,,1692.9252546329,0.328084,0,16.3132551152,0.313777241012,10,4,15.664,1692.9252546329,0,0,16.3169952728,0,0,0,261.6, -1.2, -3.6,0,0,1024,1024,1024,1024,0,0,0,0,302.7,-35.7,-38.1,64,3.937,3.939,3.939,3.918,0,0,1.62,129.11,1692.9252546329,0,41,Motors_Started,
362700,2025-09-03 15:28:17,48.1487792074727,11.5722219882196,0,,,1692.9252546329,0.328084,0,16.3060044588,0.39531169244,10,4,15.664,1692.9252546329,0,0,16.3169952728,0,0,0,261.6, -1.1, -3.6,0,0,1024,1024,1024,1024,0,0,0,0,302.7,-35.7,-38.1,64,3.937,3.939,3.939,3.918,0,0,1.62,129.11,1692.9252546329,0,41,Motors_Started,
362800,2025-09-03 15:28:17,48.1487791916182,11.572222104671,0,,,1692.9252546329,0.328084,0,16.3189965852,0.42424213956,10,4,15.664,1692.9252546329,0,0,16.3189965852,0,0,0,261.6, -1.2, -3.6,0,0,1024,1024,1024,1024,0,0,0,0,302.6,-35.8,-38.2,64,3.937,3.939,3.939,3.918,0,0,1.62,129.11,1692.9252546329,0,41,Motors_Started,
362900,2025-09-03 15:28:17,48.1487791952203,11.5722222120708,0,,,1692.9252546329,0.656168,0,16.3362209952,0.45041996192,10,4,15.664,1692.9252546329,0,0,16.3362209952,0,0,0,261.6, -1.2, -3.6,0,0,1024,1024,1024,1024,0,0,0,0,302.4,-35.9,-38.2,64,3.937,3.939,3.939,3.918,0,0,1.62,129.11,1692.9252546329,0,41,Motors_Started,
363000,2025-09-03 15:28:17,48.1487792011934,11.5722223217753,0,,,1692.9252546329,0.328084,0,16.354495274,0.4772145822,10,4,15.551,1692.9252546329,0,0,16.354495274,0,0,0,261.6, -1.2, -3.6,0,0,1024,1024,1024,1024,0,0,0,0,302.5,-35.8,-38.2,64,3.937,3.939,3.938,3.917,0,0,1.62,129.11,1692.9252546329,0,10,Assisted_Takeoff,
363100,2025-09-03 15:28:17,48.148779219445,11.5722224263184,0,,,1692.9252546329,0.328084,0,16.3755254584,0.50351707648,10,4,15.551,1692.9252546329,0,0,16.3755254584,0,0,0,261.5, -1.1, -3.6,0,0,1024,1024,1024,1024,0,0,0,0,302.3,-35.9,-38,64,3.937,3.939,3.938,3.917,0,0,1.62,129.11,1692.9252546329,0,10,Assisted_Takeoff,
363200,2025-09-03 15:28:17,48.1487791780695,11.5722225282809,0,,,1692.9252546329,0.328084,0,16.3791671908,0.53256891468,10,4,15.551,1692.9252546329,0,0,16.3791671908,0,0,0,261.5, -1.1, -3.6,0,0,1024,1024,1024,1024,0,0,0,0,302.1,-35.9,-38.2,64,3.937,3.939,3.938,3.917,0,0,1.62,129.11,1692.9252546329,0,10,Assisted_Takeoff,
363300,2025-09-03 15:28:17,48.1487791626123,11.5722226642928,0,,,1692.9252546329,0.328084,0,16.3954073488,0.56615487376,10,4,15.551,1692.9252546329,0,0,16.3954073488,0,0,0,261.5, -1.2, -3.6,0,0,1024,1024,1024,1024,0,0,0,0,302,-36,-38.1,64,3.937,3.939,3.938,3.917,0,0,1.62,129.11,1692.9252546329,0,10,Assisted_Takeoff,
363400,2025-09-03 15:28:18,48.1487791527765,11.5722228163345,0,,,1692.9252546329,0.328084,0,16.4157485568,0.60333991432,10,4,15.551,1692.9252546329,0,0,16.4157485568,0,0,0,261.5, -1.2, -3.6,0,0,1024,1024,1024,1024,0,0,0,0,302,-36,-38,64,3.937,3.939,3.938,3.917,0,0,1.62,129.11,1692.9252546329,0,10,Assisted_Takeoff,
363500,2025-09-03 15:28:18,48.1487791051608,11.5722228717613,0,,,1692.9252546329,0.328084,0,16.4106632548,0.62533466568,10,4,15.551,1692.9252546329,0,0,16.4157485568,0,0,0,261.5, -1.2, -3.6,0,0,1024,1024,1024,1024,0,0,0,0,301.9,-36,-38,64,3.937,3.939,3.938,3.917,0,0,1.62,129.11,1692.9252546329,0,10,Assisted_Takeoff,
363600,2025-09-03 15:28:18,48.1487790589195,11.5722229337489,0,,,1692.9252546329,0.328084,0,16.406988714,0.64797246168,10,4,15.551,1692.9252546329,0,0,16.4157485568,0,0,0,261.5, -1.1, -3.5,0,0,1024,1024,1024,1024,0,0,0,0,301.9,-36,-38,64,3.937,3.939,3.938,3.917,0,0,1.62,129.11,1692.9252546329,0,10,Assisted_Takeoff,
363700,2025-09-03 15:28:18,48.1487790430976,11.5722229639916,0,,,1692.9252546329,0.328084,0,16.4071199476,0.65732613652,10,4,15.551,1692.9252546329,0,0,16.4157485568,0,0,0,261.5, -1.2, -3.6,0,0,1024,1024,1024,1024,0,0,0,0,301.6,-36.2,-38.1,64,3.937,3.939,3.938,3.917,0,0,1.62,129.11,1692.9252546329,0,10,Assisted_Takeoff,
363800,2025-09-03 15:28:18,48.1487790338089,11.572222988675,0,,,1692.9252546329,0.328084,0,16.4082682416,0.66422574304,10,4,15.551,1692.9252546329,0,0,16.4157485568,0,0,0,261.5, -1.2, -3.6,0,0,1024,1024,1024,1024,0,0,0,0,301.7,-36.1,-37.9,64,3.937,3.939,3.938,3.917,0,0,1.62,129.11,1692.9252546329,0,10,Assisted_Takeoff,
363900,2025-09-03 15:28:18,48.1487789935603,11.5722229693712,0,,,1692.9252546329,0.328084,0,16.3938981624,0.6796424102,10,4,15.551,1692.9252546329,0,0,16.4157485568,0,0,0,261.5, -1.1, -3.6,0,0,1024,1024,1024,1024,0,0,0,0,301.5,-36.2,-37.9,64,3.937,3.939,3.938,3.917,0,0,1.62,129.11,1692.9252546329,0,10,Assisted_Takeoff,
364000,2025-09-03 15:28:18,48.1487789465569,11.5722230525499,0,,,1692.9252546329,0.328084,0,16.3933404196,0.70617784412,10,4,15.696,1692.9252546329,0,0,16.4157485568,0,0,0,261.5, -1.1, -3.6,0,0,1024,1024,1024,1024,0,0,0,0,301.3,-36.3,-38,64,3.91,3.913,3.933,3.905,0,0,4.146,129.11,1692.9252546329,0,10,Assisted_Takeoff,
364100,2025-09-03 15:28:18,48.1487789296732,11.5722231905456,0,,,1692.9252546329,0.328084,0,16.4097446196,0.74032810768,10,4,15.696,1692.9252546329,0,0,16.4157485568,0,0,0,261.5, -1.1, -3.6,0,0,1024,1024,1024,1024,0,0,0,0,301.3,-36.3,-38.1,64,3.91,3.913,3.933,3.905,0,0,4.146,129.11,1692.9252546329,0,10,Assisted_Takeoff,
364200,2025-09-03 15:28:18,48.1487789200914,11.5722233517608,0,,,1692.9252546329,0.328084,0,16.4318574812,0.77972771524,10,4,15.696,1692.9252546329,0,0,16.4318574812,0,0,0,261.4, -1.1, -3.6,0,0,1024,1024,1024,1024,0,0,0,0,301.1,-36.4,-38,64,3.91,3.913,3.933,3.905,0,0,4.146,129.11,1692.9252546329,0,10,Assisted_Takeoff,
364300,2025-09-03 15:28:18,48.1487789236479,11.5722234863284,0,,,1692.9252546329,0.328084,0,16.4536094504,0.81251314936,10,4,15.696,1692.9252546329,0,0,16.4536094504,0,0,0,261.4, -1.2, -3.6,0,0,1024,1024,1024,1024,0,0,0,0,301.2,-36.3,-38,64,3.91,3.913,3.933,3.905,0,0,4.146,129.11,1692.9252546329,0,10,Assisted_Takeoff,
364400,2025-09-03 15:28:18,48.148779002862,11.5722237566255,0,,,1692.9252546329,0.328084,0,16.5177498724,0.88437666872,10,4,15.696,1692.9252546329,0,0,16.5177498724,0,0,0,261.4, -1.2, -3.6,0,0,1024,1024,1024,1024,0,0,0,0,301,-36.4,-38,64,3.91,3.913,3.933,3.905,0,0,4.146,129.11,1692.9252546329,0,10,Assisted_Takeoff,
364500,2025-09-03 15:28:19,48.1487790088156,11.5722238240697,0,,,1692.9252546329,0.328084,0,16.529856172,0.90093834904,10,4,15.696,1692.9252546329,0,0,16.529856172,0,0,0,261.4, -1.1, -3.6,0,0,1024,1024,1024,1024,0,0,0,0,300.6,-36.7,-38.3,64,3.91,3.913,3.933,3.905,0,0,4.146,129.11,1692.9252546329,0,10,Assisted_Takeoff,
364600,2025-09-03 15:28:19,48.1487790141959,11.5722238794837,0,,,1692.9252546329,0.328084,0,16.5399611592,0.91457023924,10,4,15.696,1692.9252546329,0,0,16.5399611592,0,0,0,261.4, -1.1, -3.6,0,0,1024,1024,1024,1024,0,0,0,0,300.9,-36.5,-37.9,64,3.91,3.913,3.933,3.905,0,0,4.146,129.11,1692.9252546329,0,10,Assisted_Takeoff,
364700,2025-09-03 15:28:19,48.1487789800312,11.5722239893037,0,,,1692.9252546329,0.328084,0,16.547408666,0.94406499084,10,4,15.696,1692.9252546329,0,0,16.547408666,0,0,0,261.4, -1.2, -3.6,0,0,1024,1024,1024,1024,0,0,0,0,300.8,-36.6,-38.1,64,3.91,3.913,3.933,3.905,0,0,4.146,129.11,1692.9252546329,0,10,Assisted_Takeoff,
364800,2025-09-03 15:28:19,48.1487789270351,11.5722241098123,0,,,1692.9252546329,0.328084,0,16.5512800572,0.9791995064,10,4,15.696,1692.9252546329,0,0,16.5512800572,0,0,0,261.4, -1.2, -3.6,0,0,1024,1024,1024,1024,0,0,0,0,300.5,-36.7,-38.1,64,3.91,3.913,3.933,3.905,0,0,4.146,129.11,1692.9252546329,0,10,Assisted_Takeoff,
364900,2025-09-03 15:28:19,48.1487789468956,11.5722241865843,0,,,1692.9252546329,0.328084,0,16.5687997428,0.99924215796,10,4,15.696,1692.9252546329,0,0,16.5687997428,0,0,0,261.4, -1.1, -3.6,0,0,1024,1024,1024,1024,0,0,0,0,300.6,-36.7,-38.2,64,3.91,3.913,3.933,3.905,0,0,4.146,129.11,1692.9252546329,0,10,Assisted_Takeoff,
365000,2025-09-03 15:28:19,48.1487789866752,11.572224250838,0,,,1692.9252546329,0.328084,0,16.5899611608,1.02058074132,10,4,15.71,1692.9252546329,0,0,16.5899611608,0,0,0,261.4, -1.1, -3.6,0,0,1024,1024,1024,1024,0,0,0,0,300.6,-36.7,-38.2,64,3.93,3.933,3.933,3.91,0,0,1.914,129.11,1692.9252546329,0,10,Assisted_Takeoff,
365100,2025-09-03 15:28:19,48.1487790112061,11.5722243286499,0,,,1692.9252546329,0.328084,0,16.6089572244,1.04153218556,10,4,15.71,1692.9252546329,0,0,16.6089572244,0,0,0,261.4, -1.2, -3.6,0,0,1024,1024,1072,1024,0,0,7,0,300.4,-36.8,-38,64,3.93,3.933,3.933,3.91,0,0,1.914,129.11,1692.9252546329,0,10,Assisted_Takeoff,
365200,2025-09-03 15:28:19,48.1487791339322,11.5722243397366,0,,,1692.9252546329,0.328084,0,16.6450792728,1.08638783004,10,4,15.71,1692.9252546329,0,0,16.6450792728,0,0,0,261.4, -1.2, -3.6,0,0,1024,1024,1126,1024,0,0,15,0,300.2,-36.8,-38.2,64,3.93,3.933,3.933,3.91,0,0,1.914,129.11,1692.9252546329,0,10,Assisted_Takeoff,
365300,2025-09-03 15:28:19,48.1487791013437,11.5722243929357,0,,,1692.9252546329,0.328084,0,16.6442590628,1.1039698516,10,4,15.71,1692.9252546329,0,0,16.6450792728,0,0,0,261.4, -1.1, -3.6,0,0,1024,1024,1131,1024,0,0,16,0,300.3,-36.8,-38,64,3.93,3.933,3.933,3.91,0,0,1.914,129.11,1692.9252546329,0,10,Assisted_Takeoff,
365400,2025-09-03 15:28:19,48.1487790521452,11.5722244407425,0,,,1692.9252546329,0.328084,0,16.6379270416,1.1253609284,10,4,15.71,1692.9252546329,0,0,16.6450792728,0,0,0,261.4, -1.2, -3.6,0,0,1024,1024,1130,1024,0,0,16,0,300.1,-36.9,-38,64,3.93,3.933,3.933,3.91,0,0,1.914,129.11,1692.9252546329,0,10,Assisted_Takeoff,
365500,2025-09-03 15:28:20,48.1487790643455,11.5722244757357,0,,,1692.9252546329,0.328084,0,16.646818118,1.1349737896,10,4,15.71,1692.9252546329,0,0,16.646818118,0,0,0,261.4, -1.1, -3.6,0,0,1024,1024,1155,1024,0,0,20,0,300.1,-37,-38.1,64,3.93,3.933,3.933,3.91,0,0,1.914,129.11,1692.9252546329,0,10,Assisted_Takeoff,
365600,2025-09-03 15:28:20,48.148779084688,11.5722244179786,0,,,1692.9252546329,0.328084,0,16.6434716612,1.1508694594,10,4,15.71,1692.9252546329,0,0,16.646818118,0,0,0,261.4, -1.1, -3.6,0,0,1024,1024,1161,1024,0,0,21,0,299.9,-37.1,-38.2,64,3.93,3.933,3.933,3.91,0,0,1.914,129.11,1692.9252546329,0,10,Assisted_Takeoff,
365700,2025-09-03 15:28:20,48.148779059369,11.5722244952641,0,,,1692.9252546329,0.328084,0,16.648458538,1.17183074616,10,4,15.71,1692.9252546329,0,0,16.648458538,0,0,0,261.4, -1.2, -3.6,0,0,1024,1024,1160,1024,0,0,21,0,299.7,-37.2,-38.4,64,3.93,3.933,3.933,3.91,0,0,1.914,129.11,1692.9252546329,0,10,Assisted_Takeoff,
365800,2025-09-03 15:28:20,48.1487790154336,11.5722245887783,0,,,1692.9252546329,0.328084,0,16.6507879344,1.1996719544,10,4,15.71,1692.9252546329,0,0,16.6507879344,0,0,0,261.4, -1.2, -3.6,0,0,1024,1024,1165,1024,0,0,21,0,299.7,-37.3,-38.4,64,3.93,3.933,3.933,3.91,0,0,1.914,129.11,1692.9252546329,0,10,Assisted_Takeoff,
365900,2025-09-03 15:28:20,48.1487789894045,11.5722246911645,0,,,1692.9252546329,0.328084,0,16.6595805856,1.22634190276,10,4,15.71,1692.9252546329,0,0,16.6595805856,0,0,0,261.4, -1.4, -3.7,0,0,1024,1024,1165,1024,0,0,21,0,299.7,-37.4,-38.5,64,3.93,3.933,3.933,3.91,0,0,1.914,129.11,1692.9252546329,0,10,Assisted_Takeoff,
366000,2025-09-03 15:28:20,48.1487789691076,11.5722248031864,0,,,1692.9252546329,0.328084,0,16.6714900348,1.25459977768,10,4,15.599,1692.9252546329,0,0,16.6714900348,0,0,0,261.4, -1.4, -3.7,0,0,1024,1024,1167,1024,0,0,22,0,299.5,-37.6,-38.5,64,3.931,3.933,3.93,3.905,0,0,2.474,129.11,1692.9252546329,0,10,Assisted_Takeoff,
366100,2025-09-03 15:28:20,48.1487789181177,11.5722248996151,0,,,1692.9252546329,0.328084,0,16.6724414784,1.28455056604,10,4,15.599,1692.9252546329,0,0,16.6724414784,0,0,0,261.4, -1.5, -3.7,0,0,1024,1024,1168,1024,0,0,22,0,299.4,-37.8,-38.3,64,3.931,3.933,3.93,3.905,0,0,2.474,129.11,1692.9252546329,0,10,Assisted_Takeoff,
366200,2025-09-03 15:28:20,48.1487789120404,11.5722249030432,0,,,1692.9252546329,0.328084,0,16.6712931844,1.28691933252,10,4,15.599,1692.9252546329,0,0,16.6724414784,0,0,0,261.4, -1.7, -3.8,0,0,1024,1024,1167,1024,0,0,22,0,299.2,-38.2,-38.8,64,3.931,3.933,3.93,3.905,0,0,2.474,129.11,1692.9252546329,0,10,Assisted_Takeoff,
366300,2025-09-03 15:28:20,48.1487789108484,11.5722249560498,0,,,1692.9252546329,0.328084,0,16.6793312424,1.29982943792,10,4,15.599,1692.9252546329,0,0,16.6793312424,0,0,0,261.4, -2, -3.8,0,0,1024,1024,1167,1024,0,0,22,0,299.2,-38.2,-38.8,64,3.931,3.933,3.93,3.905,0,0,2.474,129.11,1692.9252546329,0,10,Assisted_Takeoff,
366400,2025-09-03 15:28:21,48.1487789075459,11.5722250190838,0,,,1692.9252546329,0.328084,0,16.6883535524,1.3152231392,10,4,15.599,1692.9252546329,0,0,16.6883535524,0,0,0,261.4, -2.5, -4,0,0,1024,1024,1170,1024,0,0,22,0,299.4,-38.5,-38.6,64,3.931,3.933,3.93,3.905,0,0,2.474,129.11,1692.9252546329,0,10,Assisted_Takeoff,
366500,2025-09-03 15:28:21,48.1487790793858,11.5722247364804,0,,,1692.9252546329,0.328084,0,16.6917984344,1.40830057,10,4,15.599,1692.9252546329,0,0,16.6917984344,0,0,0,261.6, -3.5, -3.9,0,0,1024,1024,1169,1024,0,0,22,0,299.1,-39.9,-38.4,64,3.931,3.933,3.93,3.905,0,0,2.474,129.11,1692.9252546329,0,10,Assisted_Takeoff,
366600,2025-09-03 15:28:21,48.1487791078705,11.5722246160231,0,,,1692.9252546329,0.328084,0,16.6809060456,1.43940949488,10,4,15.599,1692.9252546329,0,0,16.6917984344,0,0,0,262.3, -4.2, -3.8,0,0,1024,1024,1170,1024,0,0,22,0,299.6,-40.1,-38.5,64,3.931,3.933,3.93,3.905,0,0,2.474,129.11,1692.9252546329,0,10,Assisted_Takeoff,
366700,2025-09-03 15:28:21,48.1487790796398,11.5722244709531,0,,,1692.9252546329,0.328084,0.223694,16.6503286168,1.47619427296,10,4,15.599,1692.9252546329,0,0.223694,16.6917984344,0,-0.223694,-0.223694,263.3, -5, -2.4,0,0,1024,1024,1171,1024,0,0,22,0,302,-39.8,-38,64,3.931,3.933,3.93,3.905,0,0,2.474,129.11,1692.9252546329,0,10,Assisted_Takeoff,
366800,2025-09-03 15:28:21,48.1487790111475,11.5722242309694,0,,,1692.9252546329,0.656168,0.447388,16.5937341268,1.53973430124,10,4,15.599,1692.9252546329,0,0.447388,16.6917984344,0,-0.447388,-0.447388,263.3, -2.7, 0.2,0,0,1024,1024,1172,1024,0,0,22,0,303.7,-35.1,-34.5,64,3.931,3.933,3.93,3.905,0,0,2.474,129.11,1692.9252546329,0,6,P-GPS,
366900,2025-09-03 15:28:21,48.1487789201696,11.5722238780842,0,,,1692.9252546329,0.656168,0.447388,16.5133207384,1.6318241992,10,4,15.599,1692.9252546329,0,0.447388,16.6917984344,0,-0.447388,-0.671082,263.2, 0.8, 1,0,0,1024,1024,1171,1024,0,0,22,0,302.3,-32.8,-34.4,64,3.931,3.933,3.93,3.905,0,0,2.474,129.11,1692.9252546329,0,6,P-GPS,
367000,2025-09-03 15:28:21,48.148778845665,11.5722235283061,0,,,1692.9252546329,0.656168,0.447388,16.4381238856,1.72120412332,11,4,15.461,1692.9252546329,0,0.447388,16.6917984344,0,-0.447388,-0.894776,262.9, 2.5, 0.5,0,0,1024,1024,1170,1024,0,0,22,0,302.3,-31.5,-35,64,3.931,3.933,3.93,3.905,0,0,2.474,129.11,1692.9252546329,0,6,P-GPS,"Home Point recorded. Return-to-Home Altitude:100M"
367100,2025-09-03 15:28:21,48.1487787639497,11.5722232359064,0,,,1692.9252546329,0.984252,0.447388,16.369915222,1.79837276096,11,4,15.461,1692.9252546329,0,0.447388,16.6917984344,0,-0.447388,-0.894776,263, 3.9, 0.3,0,0,1024,1024,1172,1024,0,0,22,0,302.8,-30,-35.2,64,3.931,3.933,3.93,3.905,0,0,2.474,129.11,1692.9252546329,0,6,P-GPS,
367200,2025-09-03 15:28:21,48.148778695783,11.5722230101934,0.328084,,,1693.2533386329,0.984252,0.447388,16.3158797872,1.85868444268,10,4,15.461,1693.2533386329,0.328084,0.447388,16.6917984344,0,-0.223694,-0.894776,262.9, 4, 0.9,0,0,1024,1024,1172,1024,0,0,22,0,301.4,-31.9,-34.4,64,3.931,3.933,3.93,3.905,0,0,2.474,129.11,1693.2533386329,0.328084,6,P-GPS,
367300,2025-09-03 15:28:21,48.1487786311664,11.5722224959967,0.656168,,,1693.5814226329,1.312336,0,16.2186356896,1.986056494,10,4,15.461,1693.5814226329,0.656168,0.447388,16.6917984344,0,0,-1.11847,262.7, 3, 0.1,0,0,1024,1024,1173,1024,0,0,23,0,300.8,-33.4,-36,64,3.931,3.933,3.93,3.905,0,0,2.474,129.11,1693.5814226329,0.656168,6,P-GPS,
367400,2025-09-03 15:28:22,48.1487786524794,11.5722222822691,0.656168,,,1693.5814226329,1.312336,0,16.1920280772,2.03866148256,10,4,15.461,1693.5814226329,0.656168,0.447388,16.6917984344,0,0,-1.11847,262.6, 1.8, -1.3,0,0,1024,1024,1177,1024,0,0,23,0,302.4,-34,-35.8,64,3.931,3.933,3.93,3.905,0,0,2.474,129.11,1693.5814226329,0.656168,6,P-GPS,
367500,2025-09-03 15:28:22,48.1487786254408,11.5722221822197,0.984252,,,1693.9095066329,1.64042,0,16.1690950056,2.06493773012,10,4,15.461,1693.9095066329,0.984252,0.447388,16.6917984344,0,0,-1.11847,262.7, 0.3, -0.7,0,0,1024,1024,1181,1024,0,0,24,0,301.8,-35.5,-35.5,64,3.931,3.933,3.93,3.905,0,0,2.474,129.11,1693.9095066329,0.984252,6,P-GPS,
367600,2025-09-03 15:28:22,48.1487785906963,11.5722221219141,1.312336,,,1694.2375906329,1.968504,0,16.1500005168,2.0843340562,8,4,15.461,1694.2375906329,1.312336,0.447388,16.6917984344,0,0,-1.11847,262.9, -0.4, 0.4,0,0,1024,1024,1184,1024,0,0,24,0,300.9,-35.5,-35.2,64,3.931,3.933,3.93,3.905,0,0,2.474,129.11,1694.2375906329,1.312336,6,P-GPS,
367700,2025-09-03 15:28:22,48.1487786150513,11.5722221161428,1.312336,,,1694.2375906329,1.968504,0,16.1560700708,2.09333011948,8,4,15.461,1694.2375906329,1.312336,0.447388,16.6917984344,0,0,-1.11847,262.9, 0, 0.1,0,0,1024,1024,1183,1024,0,0,24,0,300.9,-35.5,-35.2,64,3.931,3.933,3.93,3.905,0,0,2.474,129.11,1694.2375906329,1.312336,6,P-GPS,
367800,2025-09-03 15:28:22,48.1487785871788,11.5722221294186,1.64042,,,1694.5656746329,2.296588,0,16.1501645588,2.10399941116,8,4,15.461,1694.5656746329,1.64042,0.447388,16.6917984344,0,0,-1.11847,262.9, 0, -1.3,0,0,1024,1024,1181,1024,0,0,24,0,300.4,-35.9,-37.1,64,3.931,3.933,3.93,3.905,0,0,2.474,129.11,1694.5656746329,1.64042,6,P-GPS,
367900,2025-09-03 15:28:22,48.1487786348076,11.5722220260502,1.64042,,,1694.5656746329,2.296588,0.223694,16.1479992044,2.1345801208,8,4,15.461,1694.5656746329,1.64042,0.447388,16.6917984344,0.223694,0,-1.11847,262.8, -0.3, -1.7,0,0,1024,1024,1183,1024,0,0,24,0,301.6,-35.4,-37.5,64,3.931,3.933,3.93,3.905,0,0,2.474,129.11,1694.5656746329,1.64042,6,P-GPS,
368000,2025-09-03 15:28:22,48.1487786785085,11.5722218857307,1.968504,,,1694.8937586329,2.624672,0.223694,16.1391409364,2.1722769724,8,4,15.257,1694.8937586329,1.968504,0.447388,16.6917984344,0.223694,0,-1.11847,262.8, -0.5, -1.8,0,0,1024,1024,1182,1024,0,0,24,0,301,-36,-37.8,64,3.804,3.818,3.815,3.775,0,0,13.958,129.11,1694.8937586329,1.968504,6,P-GPS,
368100,2025-09-03 15:28:22,48.1487787947729,11.5722215570089,1.968504,,,1694.8937586329,2.624672,0.223694,16.1227695448,2.2628445606,8,4,15.257,1694.8937586329,1.968504,0.447388,16.6917984344,0.223694,0,-1.11847,262.8, -0.3, -2.3,0,0,1024,1024,1180,1024,0,0,24,0,299.9,-36.6,-37.7,64,3.804,3.818,3.815,3.775,0,0,13.958,129.11,1694.8937586329,1.968504,6,P-GPS,
368200,2025-09-03 15:28:22,48.1487790689573,11.5722205471424,1.968504,,,1694.8937586329,2.952756,0.223694,16.0514440832,2.5282481124,8,4,15.257,1694.8937586329,1.968504,0.447388,16.6917984344,0.223694,0,-1.11847,262.8, 0.2, -2.8,0,0,1024,1024,1174,1024,0,0,23,0,300.1,-35.5,-38.3,64,3.804,3.818,3.815,3.775,0,0,13.958,129.11,1694.8937586329,1.968504,6,P-GPS,
368300,2025-09-03 15:28:22,48.1487791813329,11.5722202723966,2.296588,,,1695.2218426329,2.952756,0,16.0437341092,2.6066929968,8,4,15.257,1695.2218426329,2.296588,0.447388,16.6917984344,0,0,-1.11847,262.8, 0.8, -3.6,0,0,1024,1024,1171,1024,0,0,22,0,299.5,-35.7,-38.3,64,3.804,3.818,3.815,3.775,0,0,13.958,129.11,1695.2218426329,2.296588,6,P-GPS,
368400,2025-09-03 15:28:22,48.1487792668523,11.5722200390956,2.624672,,,1695.5499266329,3.28084,0,16.034613374,2.67149286764,8,4,15.257,1695.5499266329,2.624672,0.447388,16.6917984344,0,0,-1.11847,262.6, 0.5, -3.3,0,0,1024,1024,1175,1024,0,0,23,0,299,-36.5,-38,64,3.804,3.818,3.815,3.775,0,0,13.958,129.11,1695.5499266329,2.624672,6,P-GPS,
368500,2025-09-03 15:28:23,48.1487791815218,11.572219785573,2.624672,,,1695.5499266329,3.608924,0,15.9727367316,2.74061360476,8,4,15.257,1695.5499266329,2.624672,0.447388,16.6917984344,0,0,-1.11847,262.5, 0.2, -2.7,0,0,1024,1024,1177,1024,0,0,23,0,299.8,-36.1,-38,64,3.804,3.818,3.815,3.775,0,0,13.958,129.11,1695.5499266329,2.624672,6,P-GPS,
368600,2025-09-03 15:28:23,48.1487788332693,11.5722192195188,2.952756,,,1695.8780106329,3.608924,0,15.7885831824,2.92804799396,8,4,15.257,1695.8780106329,2.952756,0.447388,16.6917984344,0,0,-1.11847,262.5, 0.2, -2,0,0,1024,1024,1178,1024,0,0,23,0,299.8,-35.7,-36.9,64,3.804,3.818,3.815,3.775,0,0,13.958,129.11,1695.8780106329,2.952756,6,P-GPS,
368700,2025-09-03 15:28:23,48.1487786614424,11.5722190015799,2.952756,,,1695.8780106329,3.937008,0,15.7066277992,3.01017398084,8,4,15.257,1695.8780106329,2.952756,0.447388,16.6917984344,0,0,-1.11847,262.6, 0.7, -1.4,0,0,1024,1024,1183,1024,0,0,24,0,299.6,-35.8,-36.3,64,3.804,3.818,3.815,3.775,0,0,13.958,129.11,1695.8780106329,2.952756,6,P-GPS,
368800,2025-09-03 15:28:23,48.14877848772,11.5722187986308,3.28084,,,1696.2060946329,3.937008,0,15.6262800276,3.0905348758,9,4,15.257,1696.2060946329,3.28084,0.447388,16.6917984344,0,0,-1.11847,262.7, 0.2, -0.8,0,0,1024,1024,1183,1024,0,0,24,0,299.9,-36.5,-35.8,64,3.804,3.818,3.815,3.775,0,0,13.958,129.11,1696.2060946329,3.28084,6,P-GPS,
368900,2025-09-03 15:28:23,48.1487783734618,11.5722186553326,3.608924,,,1696.5341786329,4.265092,0,15.5720477424,3.14489183292,9,4,15.257,1696.5341786329,3.608924,0.447388,16.6917984344,0,0,-1.11847,262.8, -0.4, -0.5,0,0,1024,1024,1185,1024,0,0,24,0,300.4,-36.6,-35.9,64,3.804,3.818,3.815,3.775,0,0,13.958,129.11,1696.5341786329,3.608924,6,P-GPS,
369000,2025-09-03 15:28:23,48.1487781379107,11.572218519494,3.608924,,,1696.5341786329,4.265092,0,15.4833010204,3.2369751692,9,4,14.996,1696.5341786329,3.608924,0.447388,16.6917984344,0,0,-1.11847,262.8, -0.8, -0.6,0,0,1024,1024,1186,1024,0,0,25,0,300.2,-36.7,-36.4,64,3.776,3.791,3.788,3.747,0,0,18.674,129.11,1696.5341786329,3.608924,6,P-GPS,
369100,2025-09-03 15:28:23,48.1487780780751,11.5722184398589,3.937008,,,1696.8622626329,4.593176,0,15.4541999696,3.26617136436,9,4,14.996,1696.8622626329,3.937008,0.447388,16.6917984344,0,0,-1.11847,262.8, -0.7, -0.7,0,0,1024,1024,1186,1024,0,0,25,0,300.2,-36.7,-36.4,64,3.776,3.791,3.788,3.747,0,0,18.674,129.11,1696.8622626329,3.937008,6,P-GPS,
369200,2025-09-03 15:28:23,48.1487780267922,11.5722183597552,3.937008,,,1696.8622626329,4.92126,0,15.4275595488,3.2932087668,8,4,14.996,1696.8622626329,3.937008,0.447388,16.6917984344,0,0,-1.11847,262.8, -0.3, -1.3,0,0,1024,1024,1183,1024,0,0,24,0,299.8,-36.5,-36.8,64,3.776,3.791,3.788,3.747,0,0,18.674,129.11,1696.8622626329,3.937008,6,P-GPS,
369300,2025-09-03 15:28:23,48.1487780831884,11.5722183057343,4.265092,,,1697.1903466329,4.92126,0,15.4362865832,3.3176182164,8,4,14.996,1697.1903466329,4.265092,0.447388,16.6917984344,0,0,-1.11847,262.8, 0, -1.7,0,0,1024,1024,1185,1024,0,0,24,0,299.4,-36.3,-37.4,64,3.776,3.791,3.788,3.747,0,0,18.674,129.11,1697.1903466329,4.265092,6,P-GPS,
369400,2025-09-03 15:28:24,48.1487781554327,11.5722182430341,4.593176,,,1697.5184306329,5.249344,0,15.4484256912,3.3480644116,9,4,14.996,1697.5184306329,4.593176,0.447388,16.6917984344,0,0,-1.11847,262.8, 0.1, -1.7,0,0,1024,1024,1187,1024,0,0,25,0,299.2,-36.3,-37.2,64,3.776,3.791,3.788,3.747,0,0,18.674,129.11,1697.5184306329,4.593176,6,P-GPS,
369500,2025-09-03 15:28:24,48.1487784237743,11.5722184240603,4.593176,,,1697.5184306329,5.577428,0,15.5534125712,3.4554463048,9,4,14.996,1697.5184306329,4.593176,0.447388,16.6917984344,0,0,-1.11847,262.8, 0.4, -1.5,0,0,1024,1024,1188,1024,0,0,25,0,299,-36.1,-37.2,64,3.776,3.791,3.788,3.747,0,0,18.674,129.11,1697.5184306329,4.593176,6,P-GPS,
369600,2025-09-03 15:28:24,48.1487783707977,11.5722182618821,4.92126,,,1697.8465146329,5.577428,0,15.5144690004,3.4993767524,8,4,14.996,1697.8465146329,4.92126,0.447388,16.6917984344,0,0,-1.342164,262.8, 0.5, -1.4,0,0,1024,1024,1189,1024,0,0,25,0,299.5,-35.6,-37.1,64,3.776,3.791,3.788,3.747,0,0,18.674,129.11,1697.8465146329,4.92126,6,P-GPS,
369700,2025-09-03 15:28:24,48.1487783083176,11.5722179739375,4.92126,,,1697.8465146329,5.905512,0,15.454724904,3.5730972272,8,4,14.996,1697.8465146329,4.92126,0.447388,16.6917984344,0,0,-1.342164,262.8, 0.6, -1.4,0,0,1024,1024,1191,1024,0,0,25,0,298.9,-36.1,-37,64,3.776,3.791,3.788,3.747,0,0,18.674,129.11,1697.8465146329,4.92126,6,P-GPS,
369800,2025-09-03 15:28:24,48.1487782422939,11.5722176539207,5.249344,,,1698.1745986329,5.905512,0,15.3894689964,3.6546261012,9,4,14.996,1698.1745986329,5.249344,0.447388,16.6917984344,0,0,-1.342164,262.8, 0.5, -1.7,0,0,1024,1024,1193,1024,0,0,26,0,298.5,-36.4,-37.4,64,3.776,3.791,3.788,3.747,0,0,18.674,129.11,1698.1745986329,5.249344,6,P-GPS,
369900,2025-09-03 15:28:24,48.1487781924896,11.5722171085825,5.577428,,,1698.5026826329,6.233596,0,15.2972773924,3.7886156068,9,4,14.996,1698.5026826329,5.577428,0.447388,16.6917984344,0,0,-1.342164,262.8, 0.3, -1.8,0,0,1024,1024,1195,1024,0,0,26,0,298.5,-36.6,-37,64,3.776,3.791,3.788,3.747,0,0,18.674,129.11,1698.5026826329,5.577428,6,P-GPS,
370000,2025-09-03 15:28:24,48.1487781776187,11.5722169254828,5.577428,,,1698.5026826329,6.233596,0,15.2669952392,3.8335303064,8,4,14.966,1698.5026826329,5.577428,0.447388,16.6917984344,0,0,-1.342164,262.8, 0.2, -1.8,0,0,1024,1024,1198,1024,0,0,26,0,298.2,-36.8,-37.3,64,3.776,3.791,3.788,3.747,0,0,18.674,129.11,1698.5026826329,5.577428,6,P-GPS,
370100,2025-09-03 15:28:24,48.1487781035701,11.5722167651791,5.905512,,,1698.8307666329,6.56168,0,15.2223758152,3.8810040612,8,4,14.966,1698.8307666329,5.905512,0.447388,16.6917984344,0,0,-1.342164,262.9, 0.2, -1.7,0,0,1024,1024,1201,1024,0,0,27,0,298.6,-36.5,-37.2,64,3.776,3.791,3.788,3.747,0,0,18.674,129.11,1698.8307666329,5.905512,6,P-GPS,
370200,2025-09-03 15:28:24,48.1487780075244,11.5722166036428,6.233596,,,1699.1588506329,6.889764,0,15.1710634776,3.9336615432,8,4,14.966,1699.1588506329,6.233596,0.447388,16.6917984344,0,0,-1.342164,262.9, 0.2, -1.6,0,0,1024,1024,1200,1024,0,0,27,0,298.6,-36.6,-37,64,3.776,3.791,3.788,3.747,0,0,18.674,129.11,1699.1588506329,6.233596,6,P-GPS,
370300,2025-09-03 15:28:24,48.1487778160194,11.5722165804617,6.233596,,,1699.1588506329,6.889764,0,15.1107944468,4.003773094,8,4,14.966,1699.1588506329,6.233596,0.447388,16.6917984344,0,0,-1.342164,262.9, 0.1, -1.5,0,0,1024,1024,1205,1024,0,0,27,0,298.3,-36.8,-37.1,64,3.776,3.791,3.788,3.747,0,0,18.674,129.11,1699.1588506329,6.233596,6,P-GPS,
370400,2025-09-03 15:28:25,48.14877773945,11.5722164634003,6.56168,,,1699.4869346329,7.217848,0,15.071522792,4.0436681084,9,4,14.966,1699.4869346329,6.56168,0.447388,16.6917984344,0,0,-1.342164,262.8, 0, -1.5,0,0,1024,1024,1208,1024,0,0,28,0,297.9,-37,-37.2,64,3.776,3.791,3.788,3.747,0,0,18.674,129.11,1699.4869346329,6.56168,6,P-GPS,
370500,2025-09-03 15:28:25,48.1487776775756,11.5722163861084,6.889764,,,1699.8150186329,7.545932,0,15.0422248908,4.0730644348,9,4,14.966,1699.8150186329,6.889764,0.447388,16.6917984344,0,0,-1.565858,262.8, 0, -1.8,0,0,1024,1024,1213,1024,0,0,29,0,297.9,-37,-37.2,64,3.776,3.791,3.788,3.747,0,0,18.674,129.11,1699.8150186329,6.889764,6,P-GPS,
370600,2025-09-03 15:28:25,48.1487776126593,11.5722163091246,6.889764,,,1699.8150186329,7.874016,0,15.0120739712,4.1032481628,11,4,14.966,1699.8150186329,6.889764,0.447388,16.6917984344,0,0,-1.565858,262.7, 0, -1.9,0,0,1024,1024,1214,1024,0,0,29,0,298,-36.9,-37.5,64,3.776,3.791,3.788,3.747,0,0,18.674,129.11,1699.8150186329,6.889764,6,P-GPS,
370700,2025-09-03 15:28:25,48.1487775701113,11.5722160659375,7.217848,,,1700.1431026329,7.874016,0,14.9651907676,4.1644686372,11,4,14.966,1700.1431026329,7.217848,0.447388,16.6917984344,0,0,-1.565858,262.7, 0, -1.7,0,0,1024,1024,1213,1024,0,0,29,0,298.1,-36.9,-37.2,64,3.776,3.791,3.788,3.747,0,0,18.674,129.11,1700.1431026329,7.217848,6,P-GPS,
370800,2025-09-03 15:28:25,48.1487775019316,11.5722158287335,7.545932,,,1700.4711866329,8.2021,0,14.9116146504,4.2273295316,9,4,14.966,1700.4711866329,7.545932,0.447388,16.6917984344,0,0,-1.565858,262.6, 0, -1.3,0,0,1024,1024,1213,1024,0,0,29,0,297.8,-36.8,-36.8,64,3.776,3.791,3.788,3.747,0,0,18.674,129.11,1700.4711866329,7.545932,6,P-GPS,
370900,2025-09-03 15:28:25,48.1487773652987,11.5722156274471,7.874016,,,1700.7992706329,8.2021,0,14.8426513936,4.2972114236,9,4,14.966,1700.7992706329,7.874016,0.447388,16.6917984344,0,0,-1.565858,262.6, 0.2, -1.2,0,0,1024,1024,1209,1024,0,0,28,0,297.7,-36.8,-36.6,64,3.776,3.791,3.788,3.747,0,0,18.674,129.11,1700.7992706329,7.874016,6,P-GPS,
371000,2025-09-03 15:28:25,48.1487772041609,11.5722154270273,7.874016,,,1700.7992706329,8.530184,0,14.7665030972,4.3736221872,10,4,14.945,1700.7992706329,7.874016,0.447388,16.6917984344,0,0,-1.565858,262.7, 0.2, -1.3,0,0,1024,1024,1209,1024,0,0,28,0,298.1,-36.6,-37.1,64,3.771,3.785,3.782,3.739,0,0,18.45,129.11,1700.7992706329,7.874016,6,P-GPS,
371100,2025-09-03 15:28:25,48.1487770638998,11.5722152968251,8.2021,,,1701.1273546329,8.858268,0,14.7063981084,4.4338256012,10,4,14.945,1701.1273546329,8.2021,0.447388,16.6917984344,0,0,-1.565858,262.7, 0.2, -1.3,0,0,1024,1024,1213,1024,0,0,29,0,297.6,-36.8,-37.3,64,3.771,3.785,3.782,3.739,0,0,18.45,129.11,1701.1273546329,8.2021,6,P-GPS,
371200,2025-09-03 15:28:25,48.1487767811172,11.5722151812339,8.530184,,,1701.4554386329,9.186352,0,14.605807554,4.5407481768,9,4,14.945,1701.4554386329,8.530184,0.447388,16.6917984344,0,0,-1.565858,262.7, 0.1, -1.3,0,0,1024,1024,1218,1024,0,0,29,0,297.9,-36.6,-37.5,64,3.771,3.785,3.782,3.739,0,0,18.45,129.11,1701.4554386329,8.530184,6,P-GPS,
371300,2025-09-03 15:28:25,48.1487766823553,11.5722148968394,8.858268,,,1701.7835226329,9.186352,0,14.5365162132,4.6187993604,9,4,14.945,1701.7835226329,8.858268,0.447388,16.6917984344,0,0,-1.565858,262.7, 0.3, -1.5,0,0,1024,1024,1218,1024,0,0,29,0,297.7,-36.7,-37,64,3.771,3.785,3.782,3.739,0,0,18.45,129.11,1701.7835226329,8.858268,6,P-GPS,
371400,2025-09-03 15:28:25,48.1487765847334,11.5722145572813,8.858268,,,1701.7835226329,9.514436,0,14.459974216,4.70882561,8,4,14.945,1701.7835226329,8.858268,0.447388,16.6917984344,0,0,-1.565858,262.7, 0.2, -1.4,0,0,1024,1024,1220,1024,0,0,30,0,297.1,-37,-36.9,64,3.771,3.785,3.782,3.739,0,0,18.45,129.11,1701.7835226329,8.858268,6,P-GPS,
371500,2025-09-03 15:28:26,48.1487764606134,11.5722142966393,9.186352,,,1702.1116066329,9.84252,0,14.3865818252,4.78674556,8,4,14.945,1702.1116066329,9.186352,0.447388,16.6917984344,0,0,-1.789552,262.7, 0.1, -1.4,0,0,1024,1024,1221,1024,0,0,30,0,297.4,-37,-37.2,64,3.771,3.785,3.782,3.739,0,0,18.45,129.11,1702.1116066329,9.186352,6,P-GPS,
371600,2025-09-03 15:28:26,48.148776224007,11.5722137872187,9.514436,,,1702.4396906329,9.84252,0,14.2450463876,4.9378610504,8,4,14.945,1702.4396906329,9.514436,0.447388,16.6917984344,0,0,-1.789552,262.7, 0, -1.4,0,0,1024,1024,1219,1024,0,0,30,0,297.9,-36.7,-36.9,64,3.771,3.785,3.782,3.739,0,0,18.45,129.11,1702.4396906329,9.514436,6,P-GPS,
371700,2025-09-03 15:28:26,48.148776064224,11.5722136245655,9.84252,,,1702.7677746329,10.170604,0,14.1745739444,5.0083334936,8,4,14.945,1702.7677746329,9.84252,0.447388,16.6917984344,0,0,-1.789552,262.8, 0, -0.9,0,0,1024,1024,1220,1024,0,0,30,0,297.9,-36.7,-36.7,64,3.771,3.785,3.782,3.739,0,0,18.45,129.11,1702.7677746329,9.84252,6,P-GPS,
371800,2025-09-03 15:28:26,48.1487759012103,11.5722134651733,10.170604,,,1703.0958586329,10.498688,0,14.1036093752,5.0793308712,9,4,14.945,1703.0958586329,10.170604,0.447388,16.6917984344,0,0,-1.789552,262.8, 0, -1,0,0,1024,1024,1223,1024,0,0,30,0,297.1,-37,-37.2,64,3.771,3.785,3.782,3.739,0,0,18.45,129.11,1703.0958586329,10.170604,6,P-GPS,
371900,2025-09-03 15:28:26,48.1487759125182,11.5722131736852,10.498688,,,1703.4239426329,10.498688,0,14.0668967756,5.150426674,9,4,14.945,1703.4239426329,10.498688,0.447388,16.6917984344,0,0,-1.789552,262.8, 0.2, -1.4,0,0,1024,1024,1221,1024,0,0,30,0,297.1,-37,-37.2,64,3.771,3.785,3.782,3.739,0,0,18.45,129.11,1703.4239426329,10.498688,6,P-GPS,
372000,2025-09-03 15:28:26,48.1487761885199,11.5722127125015,10.498688,,,1703.4239426329,10.826772,0,14.087598876,5.3012140804,9,4,14.916,1703.4239426329,10.498688,0.447388,16.6917984344,0,0,-1.789552,262.8, 0.3, -1.3,0,0,1024,1024,1218,1024,0,0,29,0,297.1,-36.9,-37.3,64,3.771,3.785,3.782,3.739,0,0,18.716,129.11,1703.4239426329,10.498688,6,P-GPS,
372100,2025-09-03 15:28:26,48.1487761007403,11.5722124655974,10.826772,,,1703.7520266329,11.154856,0,14.0276251208,5.3693243188,9,4,14.916,1703.7520266329,10.826772,0.447388,16.6917984344,0,0,-1.789552,262.8, 0.3, -1.5,0,0,1024,1024,1222,1024,0,0,30,0,297.3,-36.8,-37.3,64,3.771,3.785,3.782,3.739,0,0,18.716,129.11,1703.7520266329,10.826772,6,P-GPS,
372200,2025-09-03 15:28:26,48.1487759685953,11.5722122314748,11.154856,,,1704.0801106329,11.48294,0,13.9559715752,5.4439634288,8,4,14.916,1704.0801106329,11.154856,0.447388,16.6917984344,0,0,-1.789552,262.8, 0.3, -1.8,0,0,1024,1024,1222,1024,0,0,30,0,297.3,-36.8,-37.6,64,3.771,3.785,3.782,3.739,0,0,18.716,129.11,1704.0801106329,11.154856,6,P-GPS,
372300,2025-09-03 15:28:26,48.1487758456347,11.5722120025135,11.48294,,,1704.4081946329,11.811024,0,13.8878285284,5.5155185492,8,4,14.916,1704.4081946329,11.48294,0.447388,16.6917984344,0,0,-1.789552,262.8, 0.4, -1.8,0,0,1024,1024,1222,1024,0,0,30,0,296.1,-37.5,-37.5,64,3.771,3.785,3.782,3.739,0,0,18.716,129.11,1704.4081946329,11.48294,6,P-GPS,
372400,2025-09-03 15:28:27,48.1487755399628,11.5722117541971,11.811024,,,1704.7362786329,11.811024,0,13.7614505716,5.642388632,9,4,14.916,1704.7362786329,11.811024,0.447388,16.6917984344,0,0,-1.789552,262.8, 0.3, -1.5,0,0,1024,1024,1226,1024,0,0,31,0,296.6,-37.3,-37.3,64,3.771,3.785,3.782,3.739,0,0,18.716,129.11,1704.7362786329,11.811024,6,P-GPS,
372500,2025-09-03 15:28:27,48.1487754238091,11.5722116157778,12.139108,,,1705.0643626329,12.139108,0,13.707513562,5.696522492,9,4,14.916,1705.0643626329,12.139108,0.447388,16.6917984344,0,0,-1.789552,262.7, 0, -1.4,0,0,1024,1024,1228,1024,0,0,31,0,296.9,-37.3,-37.2,64,3.771,3.785,3.782,3.739,0,0,18.716,129.11,1705.0643626329,12.139108,6,P-GPS,
372600,2025-09-03 15:28:27,48.1487753051933,11.5722114848759,12.139108,,,1705.0643626329,12.467192,0,13.6538390196,5.7502626512,8,4,14.916,1705.0643626329,12.139108,0.447388,16.6917984344,0,0,-1.789552,262.7, 0, -1.4,0,0,1024,1024,1229,1024,0,0,31,0,295.9,-38,-36.6,64,3.771,3.785,3.782,3.739,0,0,18.716,129.11,1705.0643626329,12.139108,6,P-GPS,
372700,2025-09-03 15:28:27,48.148775238655,11.5722113839598,12.467192,,,1705.3924466329,12.795276,0,13.6200463676,5.7848098964,8,4,14.916,1705.3924466329,12.467192,0.447388,16.6917984344,0,0,-1.789552,262.7, 0.1, -1.4,0,0,991,1024,1233,1024,-5,0,32,0,296.7,-37.2,-37.1,64,3.771,3.785,3.782,3.739,0,0,18.716,129.11,1705.3924466329,12.467192,6,P-GPS,
372800,2025-09-03 15:28:27,48.1487751787934,11.572211281227,12.795276,,,1705.7205306329,12.795276,0,13.5880581776,5.8180119972,8,4,14.916,1705.7205306329,12.795276,0.447388,16.6917984344,0,0,-1.789552,262.7, 0.3, -1.5,0,0,942,1024,1240,1024,-12,0,33,0,296.4,-37.3,-37,64,3.771,3.785,3.782,3.739,0,0,18.716,129.11,1705.7205306329,12.795276,6,P-GPS,
372900,2025-09-03 15:28:27,48.1487751988624,11.5722116137492,13.12336,,,1706.0486146329,13.12336,0,13.6388127724,5.899278404,8,4,14.916,1706.0486146329,13.12336,0.447388,16.6917984344,0,0,-1.789552,262.7, 0.1, -1.2,0,0,922,1024,1243,1024,-15,0,33,0,296.2,-37.3,-36.8,64,3.771,3.785,3.782,3.739,0,0,18.716,129.11,1706.0486146329,13.12336,6,P-GPS,
373000,2025-09-03 15:28:27,48.1487751695699,11.5722116621594,13.451444,,,1706.3766986329,13.451444,0,13.6364505676,5.915190478,9,4,14.883,1706.3766986329,13.451444,0.447388,16.6917984344,0,0,-2.013246,262.6, 0.5, -1.1,0,0,920,1024,1239,1024,-16,0,33,0,295.9,-36.5,-36.7,64,3.761,3.778,3.777,3.734,0,0,18.716,129.11,1706.3766986329,13.451444,6,P-GPS,
373100,2025-09-03 15:28:27,48.1487751931172,11.5722115864724,13.779528,,,1706.7047826329,13.779528,0,13.6333993864,5.9354988776,9,4,14.883,1706.7047826329,13.779528,0.447388,16.6917984344,0,0,-2.013246,262.6, 1.6, -1.2,0,0,981,1024,1233,1024,-7,0,32,0,295.8,-35.5,-37.2,64,3.761,3.778,3.777,3.734,0,0,18.716,129.11,1706.7047826329,13.779528,6,P-GPS,
373200,2025-09-03 15:28:27,48.1487752311837,11.5722115055148,14.107612,,,1707.0328666329,14.107612,0,13.6340883628,5.9596130516,10,4,14.883,1707.0328666329,14.107612,0.447388,16.6917984344,0,0,-2.013246,262.6, 2.5, -1.5,0,0,1024,1024,1233,1024,0,0,32,0,295.8,-35.5,-37.2,64,3.761,3.778,3.777,3.734,0,0,18.716,129.11,1707.0328666329,14.107612,6,P-GPS,
373300,2025-09-03 15:28:27,48.1487756067746,11.5722114982607,14.435696,,,1707.3609506329,14.435696,0,13.7476054268,6.0966537384,10,4,14.883,1707.3609506329,14.435696,0.447388,16.6917984344,0,0,-2.013246,262.7, 2.9, -1.7,0,0,1024,1024,1233,1024,0,0,32,0,295.9,-35,-37.5,64,3.761,3.778,3.777,3.734,0,0,18.716,129.11,1707.3609506329,14.435696,6,P-GPS,
373400,2025-09-03 15:28:28,48.1487756553022,11.5722114974133,14.76378,,,1707.6890346329,14.76378,0.223694,13.7623363984,6.1143702744,10,4,14.883,1707.6890346329,14.76378,0.447388,16.6917984344,0,0.223694,-2.013246,262.7, 1.4, -1.6,0,0,1096,1024,1228,1024,11,0,31,0,295.9,-36.5,-37,64,3.761,3.778,3.777,3.734,0,0,18.716,129.11,1707.6890346329,14.76378,6,P-GPS,
373500,2025-09-03 15:28:28,48.1487756500912,11.5722116812834,15.091864,,,1708.0171186329,15.091864,0.223694,13.7852366616,6.1591865488,10,4,14.883,1708.0171186329,15.091864,0.447388,16.6917984344,0,0.223694,-2.013246,262.7, -0.4, -1.5,0,0,1191,1024,1228,1024,25,0,31,0,295.6,-38.6,-36.9,64,3.761,3.778,3.777,3.734,0,0,18.716,129.11,1708.0171186329,15.091864,6,P-GPS,
373600,2025-09-03 15:28:28,48.1487756275535,11.5722119158361,15.419948,,,1708.3452026329,15.419948,0.223694,13.8098101532,6.216863716,8,4,14.883,1708.3452026329,15.419948,0.447388,16.6917984344,0,0.223694,-2.013246,262.7, -1.4, -1.2,0,0,1192,1024,1230,1024,25,0,31,0,295.8,-39.3,-36.7,64,3.761,3.778,3.777,3.734,0,0,18.716,129.11,1708.3452026329,15.419948,6,P-GPS,
373700,2025-09-03 15:28:28,48.1487755839243,11.5722125658908,15.748032,,,1708.6732866329,15.748032,0.223694,13.8845804968,6.3758860308,8,4,14.883,1708.6732866329,15.748032,0.447388,16.6917984344,0,0.223694,-1.789552,262.7, -2.8, -0.9,0,0,1139,1024,1230,1024,17,0,31,0,296.4,-40.1,-36.6,64,3.761,3.778,3.777,3.734,0,0,18.716,129.11,1708.6732866329,15.748032,6,P-GPS,
373800,2025-09-03 15:28:28,48.1487755731374,11.5722127100749,15.748032,,,1708.6732866329,16.076116,0.223694,13.9010175052,6.4112206776,8,4,14.883,1708.6732866329,15.748032,0.447388,16.6917984344,0,0,-1.789552,262.7, -3.4, -0.9,0,0,1022,1024,1231,1024,-0,0,31,0,296.3,-40.5,-36.6,64,3.761,3.778,3.777,3.734,0,0,18.716,129.11,1708.6732866329,15.748032,6,P-GPS,
373900,2025-09-03 15:28:28,48.148775563256,11.5722126135498,16.076116,,,1709.0013706329,16.4042,0,13.884842964,6.4350067676,8,4,14.883,1709.0013706329,16.076116,0.447388,16.6917984344,0,0,-1.789552,262.7, -3.2, -1,0,0,1024,1024,1234,1024,0,0,32,0,295.7,-40.8,-36.7,64,3.761,3.778,3.777,3.734,0,0,18.716,129.11,1709.0013706329,16.076116,6,P-GPS,
374000,2025-09-03 15:28:28,48.1487755502285,11.5722124019728,16.4042,,,1709.3294546329,16.4042,0,13.8520673724,6.486712806,9,4,14.855,1709.3294546329,16.4042,0.447388,16.6917984344,0,0,-1.789552,262.7, -2.1, -1.2,0,0,848,1024,1260,1024,-27,0,36,0,295.7,-38.7,-37,63,3.757,3.772,3.769,3.726,0,0,18.51,129.11,1709.3294546329,16.4042,6,P-GPS,
374100,2025-09-03 15:28:28,48.1487753072321,11.572211976726,16.732284,,,1709.6575386329,16.732284,0,13.7207353472,6.6229988996,9,4,14.855,1709.6575386329,16.732284,0.447388,16.6917984344,0,0,-1.789552,262.7, 0, -1.2,0,0,749,1036,1270,1024,-42,2,37,0,294.8,-37.4,-36.5,63,3.757,3.772,3.769,3.726,0,0,18.51,129.11,1709.6575386329,16.732284,6,P-GPS,
374200,2025-09-03 15:28:28,48.148775190186,11.5722117420384,17.060368,,,1709.9856226329,16.732284,0,13.6534781272,6.6943243612,9,4,14.855,1709.9856226329,17.060368,0.447388,16.6917984344,0,0,-2.013246,262.7, 1.2, -1.3,0,0,738,1040,1269,1024,-43,2,37,0,294.9,-36.6,-36.4,63,3.757,3.772,3.769,3.726,0,0,18.51,129.11,1709.9856226329,17.060368,6,P-GPS,
374300,2025-09-03 15:28:28,48.14877505539,11.5722113995594,17.388452,,,1710.3137066329,17.060368,0,13.5663718252,6.7911419496,9,4,14.855,1710.3137066329,17.388452,0.447388,16.6917984344,0,0,-2.013246,262.7, 1.7, -1,0,0,764,1034,1263,1024,-39,2,36,0,295.8,-35.8,-36.6,63,3.757,3.772,3.769,3.726,0,0,18.51,129.11,1710.3137066329,17.388452,6,P-GPS,
374400,2025-09-03 15:28:29,48.1487749173109,11.5722110538,17.716536,,,1710.6417906329,17.388452,0,13.4779203788,6.8892062572,10,4,14.855,1710.6417906329,17.716536,0.447388,16.6917984344,0,0,-2.23694,262.7, 2, -1,0,0,778,1028,1267,1024,-37,1,37,0,295.1,-36.1,-36.4,63,3.757,3.772,3.769,3.726,0,0,18.51,129.11,1710.6417906329,17.716536,6,P-GPS,
374500,2025-09-03 15:28:29,48.1487747962003,11.5722107121941,18.04462,,,1710.9698746329,18.04462,0,13.3953744444,6.9833991736,10,4,14.855,1710.9698746329,18.04462,0.447388,16.6917984344,0,0,-2.23694,262.8, 2.1, -1.1,0,0,774,1024,1266,1024,-38,0,37,0,294.4,-36.6,-36.1,63,3.757,3.772,3.769,3.726,0,0,18.51,129.11,1710.9698746329,18.04462,6,P-GPS,
374600,2025-09-03 15:28:29,48.148774495824,11.5722098105427,18.372704,,,1711.2979586329,18.372704,0,13.1841539652,7.2287075804,10,4,14.855,1711.2979586329,18.372704,0.447388,16.6917984344,0,0,-2.460634,262.7, 2, -1.1,0,0,811,1024,1266,1024,-32,0,37,0,294.4,-36.6,-36.1,63,3.757,3.772,3.769,3.726,0,0,18.51,129.11,1711.2979586329,18.372704,6,P-GPS,
374700,2025-09-03 15:28:29,48.1487744470033,11.5722097149549,18.700788,,,1711.6260426329,18.700788,0.223694,13.1565949092,7.2580054816,10,4,14.855,1711.6260426329,18.700788,0.447388,16.6917984344,0,0.223694,-2.460634,262.7, 1.8, -1.1,0,0,831,1024,1269,1024,-29,0,37,0,294.5,-36.7,-36.6,63,3.757,3.772,3.769,3.726,0,0,18.51,129.11,1711.6260426329,18.700788,6,P-GPS,
374800,2025-09-03 15:28:29,48.1487744126496,11.5722096939564,19.028872,,,1711.9541266329,19.028872,0.223694,13.1432746988,7.2715553508,10,4,14.855,1711.9541266329,19.028872,0.447388,16.6917984344,0,0.223694,-2.460634,262.7, 1.7, -1.4,0,0,867,1024,1265,1024,-24,0,37,0,295,-36.5,-37.1,63,3.757,3.772,3.769,3.726,0,0,18.51,129.11,1711.9541266329,19.028872,6,P-GPS,
374900,2025-09-03 15:28:29,48.1487743995569,11.5722097165341,19.356956,,,1712.2822106329,19.356956,0.223694,13.14222483,7.2788388156,10,4,14.855,1712.2822106329,19.356956,0.447388,16.6917984344,0,0.223694,-2.460634,262.7, 1.3, -1.5,0,0,1008,1024,1262,1024,-2,0,36,0,294.5,-36.9,-36.9,63,3.757,3.772,3.769,3.726,0,0,18.51,129.11,1712.2822106329,19.356956,6,P-GPS,
375000,2025-09-03 15:28:29,48.1487745219899,11.5722099052767,20.013124,,,1712.9383786329,20.013124,0.223694,13.2046264068,7.3429136208,10,4,14.9,1712.9383786329,20.013124,0.447388,16.6917984344,0,0.223694,-2.460634,262.7, 1.3, -1.7,0,0,1024,1024,1260,1024,0,0,36,0,294,-37.2,-36.9,63,3.752,3.767,3.765,3.721,0,0,18.592,129.11,1712.9383786329,20.013124,6,P-GPS,
375100,2025-09-03 15:28:29,48.1487745774286,11.5722099705704,20.341208,,,1713.2664626329,20.341208,0.223694,13.2302169588,7.3686354064,10,4,14.9,1713.2664626329,20.341208,0.447388,16.6917984344,0,0.223694,-2.460634,262.7, 1.1, -1.5,0,0,1024,1024,1258,1024,0,0,35,0,293.9,-37.4,-36.4,63,3.752,3.767,3.765,3.721,0,0,18.592,129.11,1713.2664626329,20.341208,6,P-GPS,
375200,2025-09-03 15:28:29,48.1487746508845,11.5722100522469,20.669292,,,1713.5945466329,20.669292,0.223694,13.2635174848,7.4020015492,10,4,14.9,1713.5945466329,20.669292,0.447388,16.6917984344,0,0.223694,-2.460634,262.8, -0.2, -1.3,0,0,1024,1024,1262,1024,0,0,36,0,294.2,-38.8,-36.2,63,3.752,3.767,3.765,3.721,0,0,18.592,129.11,1713.5945466329,20.669292,6,P-GPS,
375300,2025-09-03 15:28:29,48.1487746134237,11.5722101301936,20.997376,,,1713.9226306329,20.997376,0.223694,13.262303574,7.4253939384,10,4,14.9,1713.9226306329,20.997376,0.447388,16.6917984344,0,0.223694,-2.460634,262.8, -1.3, -1.1,0,0,1024,1024,1260,1024,0,0,36,0,294.1,-39.8,-35.8,63,3.752,3.767,3.765,3.721,0,0,18.592,129.11,1713.9226306329,20.997376,6,P-GPS,
375400,2025-09-03 15:28:30,48.1487745995233,11.5722102636185,21.32546,,,1714.2507146329,21.32546,0.223694,13.2756565928,7.4582679552,10,4,14.9,1714.2507146329,21.32546,0.447388,16.6917984344,0,0.223694,-2.460634,262.8, -1.7, -1.1,0,0,1024,1024,1257,1024,0,0,35,0,294.5,-39.6,-36,63,3.752,3.767,3.765,3.721,0,0,18.592,129.11,1714.2507146329,21.32546,6,P-GPS,
375500,2025-09-03 15:28:30,48.1487745916026,11.5722104296613,21.981628,,,1714.9068826329,21.981628,0.223694,13.295276016,7.4987863292,10,4,14.9,1714.9068826329,21.981628,0.447388,16.6917984344,0,0.223694,-2.460634,262.8, -1.6, -1.3,0,0,1024,1024,1259,1024,0,0,36,0,294.3,-39.3,-36.3,63,3.752,3.767,3.765,3.721,0,0,18.592,129.11,1714.9068826329,21.981628,6,P-GPS,
375600,2025-09-03 15:28:30,48.1487745955304,11.5722105949723,22.309712,,,1715.2349666329,22.309712,0,13.3185043632,7.539042236,10,4,14.9,1715.2349666329,22.309712,0.447388,16.6917984344,0,0,-2.460634,262.9, -1.2, -1.4,0,0,1024,1024,1262,1024,0,0,36,0,294.2,-39,-36.2,63,3.752,3.767,3.765,3.721,0,0,18.592,129.11,1715.2349666329,22.309712,6,P-GPS,
375700,2025-09-03 15:28:30,48.1487745874403,11.5722106125106,22.637796,,,1715.5630506329,22.637796,0,13.3183731296,7.5442587716,10,4,14.9,1715.5630506329,22.637796,0.447388,16.6917984344,0,0,-2.460634,262.9, -0.9, -1.1,0,0,1024,1024,1262,1024,0,0,36,0,293.4,-39.1,-35.4,63,3.752,3.767,3.765,3.721,0,0,18.592,129.11,1715.5630506329,22.637796,6,P-GPS,
375800,2025-09-03 15:28:30,48.1487746850688,11.5722107850052,22.96588,,,1715.8911346329,22.96588,0,13.3711946536,7.5993112668,10,4,14.9,1715.8911346329,22.96588,0.447388,16.6917984344,0,0,-2.460634,262.8, -0.7, -0.8,0,0,1024,1024,1264,1024,0,0,36,0,293.5,-38.9,-35.4,63,3.752,3.767,3.765,3.721,0,0,18.592,129.11,1715.8911346329,22.96588,6,P-GPS,
375900,2025-09-03 15:28:30,48.14877467053,11.5722105997228,23.293964,,,1716.2192186329,23.622048,0,13.342027986,7.6447180924,10,4,14.9,1716.2192186329,23.293964,0.447388,16.6917984344,0,0,-2.460634,262.7, -0.4, -0.9,0,0,1024,1024,1262,1024,0,0,36,0,293.8,-38.8,-36.2,63,3.752,3.767,3.765,3.721,0,0,18.592,129.11,1716.2192186329,23.293964,6,P-GPS,
376000,2025-09-03 15:28:30,48.1487746553073,11.5722103689191,23.950132,,,1716.8753866329,23.950132,0,13.3066933392,7.7011813488,10,4,14.819,1716.8753866329,23.950132,0.447388,16.6917984344,0,0,-2.460634,262.6, -0.4, -1,0,0,1024,1024,1262,1024,0,0,36,0,293.8,-38.8,-36.2,63,3.746,3.76,3.758,3.713,0,0,19.058,129.11,1716.8753866329,23.950132,6,P-GPS,
376100,2025-09-03 15:28:30,48.1487745688174,11.5722101952883,24.278216,,,1717.2034706329,24.278216,0,13.257218272,7.753937256,10,4,14.819,1717.2034706329,24.278216,0.447388,16.6917984344,0,0,-2.460634,262.7, -0.5, -0.9,0,0,1024,1024,1266,1024,0,0,37,0,294.3,-38.6,-36.1,63,3.746,3.76,3.758,3.713,0,0,19.058,129.11,1717.2034706329,24.278216,6,P-GPS,
376200,2025-09-03 15:28:30,48.1487744579399,11.5722100155268,24.6063,,,1717.5315546329,24.6063,0,13.1995082964,7.8135173104,10,4,14.819,1717.5315546329,24.6063,0.447388,16.6917984344,0,0,-2.460634,262.6, -0.6, -0.7,0,0,1024,1024,1268,1024,0,0,37,0,293.9,-38.9,-36.1,63,3.746,3.76,3.758,3.713,0,0,19.058,129.11,1717.5315546329,24.6063,6,P-GPS,
376300,2025-09-03 15:28:30,48.148774282791,11.5722097059803,24.934384,,,1717.8596386329,24.934384,0,13.104987296,7.9123034028,10,4,14.819,1717.8596386329,24.934384,0.447388,16.6917984344,0,0,-2.460634,262.6, -0.7, -0.5,0,0,1024,1024,1267,1024,0,0,37,0,293.4,-39.3,-35.5,63,3.746,3.76,3.758,3.713,0,0,19.058,129.11,1717.8596386329,24.934384,6,P-GPS,
376400,2025-09-03 15:28:30,48.1487742668453,11.5722096632579,25.262468,,,1718.1877226329,25.590552,0,13.0944557996,7.9242456604,9,4,14.819,1718.1877226329,25.262468,0.447388,16.6917984344,0,0,-2.460634,262.6, -0.8, -0.4,0,0,1024,1024,1265,1024,0,0,37,0,293.4,-39.4,-35.5,63,3.746,3.76,3.758,3.713,0,0,19.058,129.11,1718.1877226329,25.262468,6,P-GPS,
376500,2025-09-03 15:28:31,48.1487743293645,11.5722096283995,25.590552,,,1718.5158066329,25.918636,0,13.109088346,7.9485566848,9,4,14.819,1718.5158066329,25.590552,0.447388,16.6917984344,0,0,-2.460634,262.5, -0.9, -0.8,0,0,1024,1024,1267,1024,0,0,37,0,293.6,-39.3,-36.2,63,3.746,3.76,3.758,3.713,0,0,19.058,129.11,1718.5158066329,25.590552,6,P-GPS,
376600,2025-09-03 15:28:31,48.148774414936,11.5722095738586,25.918636,,,1718.8438906329,26.24672,0,13.1282484516,7.9825133788,10,4,14.819,1718.8438906329,25.918636,0.447388,16.6917984344,0,0,-2.460634,262.5, -0.7, -1.4,0,0,1024,1024,1269,1024,0,0,37,0,293.3,-39.3,-36.5,63,3.746,3.76,3.758,3.713,0,0,19.058,129.11,1718.8438906329,25.918636,6,P-GPS,
376700,2025-09-03 15:28:31,48.148774645452,11.5722098951209,26.24672,,,1719.1719746329,26.574804,0,13.2412077728,8.0973427788,10,4,14.819,1719.1719746329,26.24672,0.447388,16.6917984344,0,0,-2.460634,262.5, -0.4, -1.6,0,0,1024,1024,1267,1024,0,0,37,0,292.8,-39.2,-36.5,63,3.746,3.76,3.758,3.713,0,0,19.058,129.11,1719.1719746329,26.24672,6,P-GPS,
376800,2025-09-03 15:28:31,48.1487746323332,11.5722097847167,26.574804,,,1719.5000586329,26.902888,0,13.2227366436,8.1246393676,10,4,14.819,1719.5000586329,26.574804,0.447388,16.6917984344,0,0,-2.460634,262.5, -0.3, -1.4,0,0,1024,1024,1267,1024,0,0,37,0,293.1,-39.1,-36.6,63,3.746,3.76,3.758,3.713,0,0,19.058,129.11,1719.5000586329,26.574804,6,P-GPS,
376900,2025-09-03 15:28:31,48.1487746171561,11.5722095591385,27.230972,,,1720.1562266329,27.559056,0,13.188648716,8.1798230964,10,4,14.819,1720.1562266329,27.230972,0.447388,16.6917984344,0,0,-2.460634,262.6, -0.3, -0.9,0,0,1024,1024,1270,1024,0,0,37,0,293,-38.9,-36.5,63,3.746,3.76,3.758,3.713,0,0,19.058,129.11,1720.1562266329,27.230972,6,P-GPS,
377000,2025-09-03 15:28:31,48.1487746048321,11.5722092827428,27.559056,,,1720.4843106329,27.88714,0,13.1489833604,8.2472771668,10,4,14.832,1720.4843106329,27.559056,0.447388,16.6917984344,0,0,-2.460634,262.7, -0.1, -0.8,0,0,1024,1024,1273,1024,0,0,38,0,292,-39.3,-36.9,63,3.746,3.76,3.758,3.713,0,0,19.058,129.11,1720.4843106329,27.559056,6,P-GPS,
377100,2025-09-03 15:28:31,48.1487748148362,11.572208453697,27.88714,,,1720.8123946329,28.215224,0,13.1084977948,8.4631236304,10,4,14.832,1720.8123946329,27.88714,0.447388,16.6917984344,0,0,-2.460634,262.6, 0.1, -1.2,0,0,1024,1024,1273,1024,0,0,38,0,292.1,-39.3,-37.2,63,3.746,3.76,3.758,3.713,0,0,19.058,129.11,1720.8123946329,27.88714,6,P-GPS,
377200,2025-09-03 15:28:31,48.1487749040815,11.572208073182,28.215224,,,1721.1404786329,28.543308,0,13.0888127548,8.5613191716,10,4,14.832,1721.1404786329,28.215224,0.447388,16.6917984344,0,0,-2.460634,262.6, 0.1, -1.6,0,0,1024,1024,1273,1024,0,0,38,0,291.9,-39.5,-37.3,63,3.746,3.76,3.758,3.713,0,0,19.058,129.11,1721.1404786329,28.215224,6,P-GPS,
377300,2025-09-03 15:28:31,48.1487749012154,11.5722079092127,28.543308,,,1721.4685626329,28.871392,0,13.06758572,8.6012469944,10,4,14.832,1721.4685626329,28.543308,0.447388,16.6917984344,0,0,-2.460634,262.7, -0.1, -1.7,0,0,1024,1024,1271,1024,0,0,37,0,291.6,-39.8,-37.8,63,3.746,3.76,3.758,3.713,0,0,19.058,129.11,1721.4685626329,28.543308,6,P-GPS,
377400,2025-09-03 15:28:32,48.1487748649141,11.5722078024676,28.871392,,,1721.7966466329,29.52756,0,13.0429466116,8.630413662,10,4,14.832,1721.7966466329,28.871392,0.447388,16.6917984344,0,0,-2.460634,262.7, -0.2, -1.7,0,0,1024,1024,1273,1024,0,0,38,0,291.6,-39.8,-37.8,63,3.746,3.76,3.758,3.713,0,0,19.058,129.11,1721.7966466329,28.871392,6,P-GPS,
377500,2025-09-03 15:28:32,48.1487747221973,11.5722077900778,29.199476,,,1722.1247306329,29.855644,0,12.9965883424,8.682579018,10,4,14.832,1722.1247306329,29.199476,0.447388,16.6917984344,0,0,-2.460634,262.8, -0.3, -1.4,0,0,1024,1024,1271,1024,0,0,37,0,292.5,-39.3,-37.1,63,3.746,3.76,3.758,3.713,0,0,19.058,129.11,1722.1247306329,29.199476,6,P-GPS,
377600,2025-09-03 15:28:32,48.1487746924033,11.5722075760292,29.52756,,,1722.4528146329,30.183728,0,12.9607615696,8.7357942428,11,4,14.832,1722.4528146329,29.52756,0.447388,16.6917984344,0,0,-2.460634,262.8, -0.1, -1.5,0,0,1024,1024,1271,1024,0,0,37,0,292.1,-39.4,-36.9,63,3.746,3.76,3.758,3.713,0,0,19.058,129.11,1722.4528146329,29.52756,6,P-GPS,
377700,2025-09-03 15:28:32,48.1487746674425,11.5722073730609,30.183728,,,1723.1089826329,30.511812,0,12.9279531696,8.7860239032,11,4,14.832,1723.1089826329,30.183728,0.447388,16.6917984344,0,0,-2.460634,262.8, 0, -1.6,0,0,1024,1024,1274,1024,0,0,38,0,292,-39.2,-36.8,63,3.746,3.76,3.758,3.713,0,0,19.058,129.11,1723.1089826329,30.183728,6,P-GPS,
377800,2025-09-03 15:28:32,48.1487746418108,11.5722071668699,30.511812,,,1723.4370666329,30.839896,0,12.8946198352,8.8370737736,11,4,14.832,1723.4370666329,30.511812,0.447388,16.6917984344,0,0,-2.460634,262.8, 0.4, -1.7,0,0,1024,1024,1272,1024,0,0,38,0,291.6,-39.1,-36.9,63,3.746,3.76,3.758,3.713,0,0,19.058,129.11,1723.4370666329,30.511812,6,P-GPS,
377900,2025-09-03 15:28:32,48.148774621364,11.5722070668205,30.839896,,,1723.7651506329,31.16798,0,12.8759518556,8.8625659004,11,4,14.832,1723.7651506329,30.839896,0.447388,16.6917984344,0,0,-2.460634,262.8, 0.4, -1.6,0,0,1024,1024,1272,1024,0,0,38,0,291.9,-39,-36.9,63,3.746,3.76,3.758,3.713,0,0,19.058,129.11,1723.7651506329,30.839896,6,P-GPS,
378000,2025-09-03 15:28:32,48.1487745701527,11.5722071986469,31.16798,,,1724.0932346329,31.824148,0,12.8758862388,8.8997050092,12,4,14.832,1724.0932346329,31.16798,0.447388,16.6917984344,0,0,-2.460634,262.7, 0.1, -1.4,0,0,1024,1024,1270,1024,0,0,37,0,291.7,-39.4,-36.5,63,3.74,3.757,3.755,3.708,0,0,18.796,129.11,1724.0932346329,31.16798,6,P-GPS,
378100,2025-09-03 15:28:32,48.148774473573,11.5722071404918,31.496064,,,1724.4213186329,31.824148,0,12.8383206208,8.937664328,12,4,14.832,1724.4213186329,31.496064,0.447388,16.6917984344,0,0,-2.460634,262.7, -0.2, -1.3,0,0,1024,1024,1267,1024,0,0,37,0,291.7,-39.5,-36.5,63,3.74,3.757,3.755,3.708,0,0,18.796,129.11,1724.4213186329,31.496064,6,P-GPS,
378200,2025-09-03 15:28:32,48.1487743504821,11.5722070776504,31.824148,,,1724.7494026329,31.824148,0,12.791831118,8.9851052744,13,4,14.832,1724.7494026329,31.824148,0.447388,16.6917984344,0,0,-2.460634,262.6, -0.2, -1.2,0,0,1024,1024,1258,1024,0,0,35,0,291.9,-39.5,-36.2,63,3.74,3.757,3.755,3.708,0,0,18.796,129.11,1724.7494026329,31.824148,6,P-GPS,
378300,2025-09-03 15:28:32,48.1487742885948,11.572206927817,32.152232,,,1725.0774866329,31.824148,0,12.753937416,9.0280186616,13,4,14.832,1725.0774866329,32.152232,0.447388,16.6917984344,0,0,-2.460634,262.7, -0.3, -1.2,0,0,1024,1024,1257,1024,0,0,35,0,290.9,-40.1,-36.9,63,3.74,3.757,3.755,3.708,0,0,18.796,129.11,1725.0774866329,32.152232,6,P-GPS,
378400,2025-09-03 15:28:33,48.1487741884585,11.5722066414453,32.480316,,,1725.4055706329,31.824148,0,12.6874019808,9.1067260132,10,4,14.832,1725.4055706329,32.480316,0.447388,16.6917984344,0,0,-2.460634,262.7, -0.2, -1.2,0,0,1024,1024,1268,1024,0,0,37,0,291,-40,-37,63,3.74,3.757,3.755,3.708,0,0,18.796,129.11,1725.4055706329,32.480316,6,P-GPS,
378500,2025-09-03 15:28:33,48.1487741415463,11.5722064548213,32.8084,,,1725.7336546329,31.824148,0,12.649934788,9.1552496368,10,4,14.832,1725.7336546329,32.8084,0.447388,16.6917984344,0,0,-2.23694,262.7, -0.1, -1.3,0,0,1024,1024,1267,1024,0,0,37,0,291.5,-39.4,-36.8,63,3.74,3.757,3.755,3.708,0,0,18.796,129.11,1725.7336546329,32.8084,6,P-GPS,
378600,2025-09-03 15:28:33,48.1487740841143,11.5722062596014,33.136484,,,1726.0617386329,31.824148,0,12.6081368864,9.207185334,10,4,14.832,1726.0617386329,33.136484,0.447388,16.6917984344,0,0,-2.23694,262.7, 0, -1.1,0,0,1024,1024,1262,1024,0,0,36,0,291.7,-39.4,-35.8,63,3.74,3.757,3.755,3.708,0,0,18.796,129.11,1726.0617386329,33.136484,6,P-GPS,
378700,2025-09-03 15:28:33,48.1487739862904,11.5722061715887,33.464568,,,1726.3898226329,31.824148,0,12.5665358352,9.2488191936,10,4,14.832,1726.3898226329,33.464568,0.447388,16.6917984344,0,0,-2.23694,262.7, -0.1, -0.6,0,0,1024,1024,1260,1024,0,0,36,0,291.6,-39.8,-35.5,63,3.74,3.757,3.755,3.708,0,0,18.796,129.11,1726.3898226329,33.464568,6,P-GPS,
