time(millisecond),datetime(utc),latitude,longitude,height_above_takeoff(feet),height_above_ground_at_drone_location(feet),ground_elevation_at_drone_location(feet),altitude_above_seaLevel(feet),height_sonar(feet),speed(mph),distance(feet),mileage(feet),satellites,gpslevel,voltage(v),max_altitude(feet),max_ascent(feet),max_speed(mph),max_distance(feet), xSpeed(mph), ySpeed(mph), zSpeed(mph), compass_heading(degrees), pitch(degrees), roll(degrees),isPhoto,isVideo,rc_elevator,rc_aileron,rc_throttle,rc_rudder,rc_elevator(percent),rc_aileron(percent),rc_throttle(percent),rc_rudder(percent),gimbal_heading(degrees),gimbal_pitch(degrees),gimbal_roll(degrees),battery_percent,voltageCell1,voltageCell2,voltageCell3,voltageCell4,voltageCell5,voltageCell6,current(A),battery_temperature(f),altitude(feet),ascent(feet),flycStateRaw,flycState,message
0,2025-09-03 16:16:51,0,0,0,Available with any HD 360 subscription,Available with any HD 360 subscription,1693.1493304275,0.656168,0,0,0,6,0,0,1693.1493304275,0,0,0,0,0,0,275.9, -4.2, -1.7,0,0,1024,1024,1024,1024,0,0,0,0,311.8,-4,-27.9,100,4.3,4.305,4.3,4.302,0,0,0,85.91,1693.1493304275,0,41,Motors_Started,
100,2025-09-03 16:16:51,0,0,0,,,1693.1493304275,0.656168,0,0,0,6,0,0,1693.1493304275,0,0,0,0,0,0,276.5, -4.2, -1.7,0,0,1024,1024,1024,1024,0,0,0,0,311.8,-3.9,-28,100,4.3,4.305,4.3,4.302,0,0,0,85.91,1693.1493304275,0,41,Motors_Started,
200,2025-09-03 16:16:51,0,0,0,,,1693.1493304275,0.656168,0,0,0,6,0,0,1693.1493304275,0,0,0,0,0,0,276.2, -4.2, -1.7,0,0,509,422,451,1624,-78,-91,-87,91,311.7,-3.9,-27.9,100,4.3,4.305,4.3,4.302,0,0,0,85.91,1693.1493304275,0,41,Motors_Started,
300,2025-09-03 16:16:51,0,0,0,,,1693.1493304275,0.656168,0,0,0,6,0,17.082,1693.1493304275,0,0,0,0,0,0,276.3, -4.2, -1.7,0,0,1024,1000,1010,1062,0,-4,-2,6,311.7,-3.9,-27.9,100,4.3,4.305,4.3,4.302,0,0,1.628,85.91,1693.1493304275,0,41,Motors_Started,"Setting new Return-To-Home altitude to 100m (328 ft). Data Recorder File Index is 245. Setting new Maximum Flight Altitude to 30m (98 ft)"
400,2025-09-03 16:16:51,0,0,0,,,1693.1493304275,0.656168,0,0,0,6,0,17.082,1693.1493304275,0,0,0,0,0,0,276.3, -4.2, -1.7,0,0,1024,1024,1024,1024,0,0,0,0,311.7,-3.9,-28,100,4.3,4.305,4.3,4.302,0,0,1.628,85.91,1693.1493304275,0,41,Motors_Started,
500,2025-09-03 16:16:52,0,0,0,,,1693.1493304275,0.656168,0,0,0,6,0,17.082,1693.1493304275,0,0,0,0,0,0,276.2, -4.2, -1.7,0,0,1024,1024,1024,1024,0,0,0,0,311.6,-4,-27.9,100,4.3,4.305,4.3,4.302,0,0,1.628,85.91,1693.1493304275,0,41,Motors_Started,
600,2025-09-03 16:16:52,0,0,0,,,1693.1493304275,0.656168,0,0,0,6,0,17.082,1693.1493304275,0,0,0,0,0,0,276.3, -4.2, -1.7,0,0,1024,1024,1024,1024,0,0,0,0,311.5,-4,-27.9,100,4.3,4.305,4.3,4.302,0,0,1.628,85.91,1693.1493304275,0,41,Motors_Started,
700,2025-09-03 16:16:52,0,0,0,,,1693.1493304275,0.656168,0,0,0,6,0,17.082,1693.1493304275,0,0,0,0,0,0,276.2, -4.2, -1.7,0,0,1024,1024,1024,1024,0,0,0,0,311.4,-4,-28,100,4.3,4.305,4.3,4.302,0,0,1.628,85.91,1693.1493304275,0,41,Motors_Started,
800,2025-09-03 16:16:52,0,0,0,,,1693.1493304275,0.656168,0,0,0,6,0,17.082,1693.1493304275,0,0,0,0,0,0,276.2, -4.2, -1.7,0,0,1024,1024,1024,1024,0,0,0,0,311.3,-4,-28.1,100,4.3,4.305,4.3,4.302,0,0,1.628,85.91,1693.1493304275,0,41,Motors_Started,
900,2025-09-03 16:16:52,0,0,0,,,1693.1493304275,0.656168,0,0,0,6,0,17.082,1693.1493304275,0,0,0,0,0,0,276.3, -4.2, -1.7,0,0,1024,1024,1024,1024,0,0,0,0,311.2,-4.2,-28,100,4.3,4.305,4.3,4.302,0,0,1.628,85.91,1693.1493304275,0,41,Motors_Started,
1000,2025-09-03 16:16:52,0,0,0,,,1693.1493304275,0.656168,0,0,0,6,0,17.082,1693.1493304275,0,0,0,0,0,0,276.3, -4.3, -1.7,0,0,1024,1024,1024,1024,0,0,0,0,311.1,-4.2,-28,100,4.3,4.305,4.3,4.302,0,0,1.628,85.91,1693.1493304275,0,41,Motors_Started,
1100,2025-09-03 16:16:52,0,0,0,,,1693.1493304275,0.656168,0,0,0,6,0,17.082,1693.1493304275,0,0,0,0,0,0,276.3, -4.2, -1.7,0,0,1024,1024,1024,1024,0,0,0,0,311.1,-4.1,-28,100,4.3,4.305,4.3,4.302,0,0,1.628,85.91,1693.1493304275,0,41,Motors_Started,
1200,2025-09-03 16:16:52,0,0,0,,,1693.1493304275,0.656168,0,0,0,6,0,17.082,1693.1493304275,0,0,0,0,0,0,276.2, -4.3, -1.7,0,0,1024,1024,1024,1024,0,0,0,0,311.1,-4.1,-28.1,100,4.3,4.305,4.3,4.302,0,0,1.628,85.91,1693.1493304275,0,41,Motors_Started,
1300,2025-09-03 16:16:52,0,0,0,,,1693.1493304275,0.656168,0,0,0,6,0,17.181,1693.1493304275,0,0,0,0,0,0,276.2, -4.3, -1.7,0,0,1024,1024,1024,1024,0,0,0,0,310.9,-4.2,-28.1,100,4.3,4.304,4.3,4.302,0,0,1.63,85.91,1693.1493304275,0,41,Motors_Started,
1400,2025-09-03 16:16:52,0,0,0,,,1693.1493304275,0.656168,0,0,0,6,0,17.181,1693.1493304275,0,0,0,0,0,0,276.3, -4.3, -1.7,0,0,1024,1024,1024,1024,0,0,0,0,310.9,-4.2,-28.2,100,4.3,4.304,4.3,4.302,0,0,1.63,85.91,1693.1493304275,0,41,Motors_Started,
1500,2025-09-03 16:16:52,0,0,0,,,1693.1493304275,0.656168,0,0,0,6,0,17.181,1693.1493304275,0,0,0,0,0,0,276.3, -4.3, -1.7,0,0,1024,1024,1024,1024,0,0,0,0,310.7,-4.3,-28.2,100,4.3,4.304,4.3,4.302,0,0,1.63,85.91,1693.1493304275,0,10,Assisted_Takeoff,
1600,2025-09-03 16:16:53,0,0,0,,,1693.1493304275,0.656168,0,0,0,6,0,17.181,1693.1493304275,0,0,0,0,0,0,276.3, -4.3, -1.7,0,0,1024,1024,1024,1024,0,0,0,0,310.7,-4.3,-28.2,100,4.3,4.304,4.3,4.302,0,0,1.63,85.91,1693.1493304275,0,10,Assisted_Takeoff,
1700,2025-09-03 16:16:53,0,0,0,,,1693.1493304275,0.656168,0,0,0,6,0,17.181,1693.1493304275,0,0,0,0,0,0,276.3, -4.2, -1.7,0,0,1024,1024,1024,1024,0,0,0,0,310.8,-4.2,-28.3,100,4.3,4.304,4.3,4.302,0,0,1.63,85.91,1693.1493304275,0,10,Assisted_Takeoff,
1800,2025-09-03 16:16:53,0,0,0,,,1693.1493304275,0.656168,0,0,0,6,0,17.181,1693.1493304275,0,0,0,0,0,0,276.3, -4.2, -1.7,0,0,1024,1024,1024,1024,0,0,0,0,310.6,-4.3,-28.4,100,4.3,4.304,4.3,4.302,0,0,1.63,85.91,1693.1493304275,0,10,Assisted_Takeoff,
1900,2025-09-03 16:16:53,0,0,0,,,1693.1493304275,0.656168,0,0,0,6,0,17.181,1693.1493304275,0,0,0,0,0,0,276.3, -4.2, -1.7,0,0,1024,1024,1024,1024,0,0,0,0,310.6,-4.2,-28.3,100,4.3,4.304,4.3,4.302,0,0,1.63,85.91,1693.1493304275,0,10,Assisted_Takeoff,
2000,2025-09-03 16:16:53,0,0,0,,,1693.1493304275,0.656168,0,0,0,6,0,17.181,1693.1493304275,0,0,0,0,0,0,276.3, -4.2, -1.7,0,0,1024,1024,1024,1024,0,0,0,0,310.4,-4.3,-28.3,100,4.3,4.304,4.3,4.302,0,0,1.63,85.91,1693.1493304275,0,10,Assisted_Takeoff,
2100,2025-09-03 16:16:53,0,0,0,,,1693.1493304275,0.656168,0,0,0,6,0,17.181,1693.1493304275,0,0,0,0,0,0,276.3, -4.2, -1.7,0,0,1024,1024,1024,1024,0,0,0,0,310.5,-4.3,-28.2,100,4.3,4.304,4.3,4.302,0,0,1.63,85.91,1693.1493304275,0,10,Assisted_Takeoff,
2200,2025-09-03 16:16:53,0,0,0,,,1693.1493304275,0.656168,0,0,0,6,0,17.181,1693.1493304275,0,0,0,0,0,0,276.3, -4.2, -1.7,0,0,1024,1024,1024,1024,0,0,0,0,310.3,-4.4,-28.3,100,4.3,4.304,4.3,4.302,0,0,1.63,85.91,1693.1493304275,0,10,Assisted_Takeoff,
2300,2025-09-03 16:16:53,0,0,0,,,1693.1493304275,0.656168,0,0,0,6,0,16.956,1693.1493304275,0,0,0,0,0,0,276.3, -4.2, -1.7,0,0,1024,1024,1024,1024,0,0,0,0,310.3,-4.4,-28.3,100,4.3,4.304,4.3,4.302,0,0,4.48,85.91,1693.1493304275,0,10,Assisted_Takeoff,
2400,2025-09-03 16:16:53,0,0,0,,,1693.1493304275,0.656168,0,0,0,6,0,16.956,1693.1493304275,0,0,0,0,0,0,276.3, -4.2, -1.7,0,0,1024,1024,1024,1024,0,0,0,0,310.2,-4.4,-28.4,100,4.3,4.304,4.3,4.302,0,0,4.48,85.91,1693.1493304275,0,10,Assisted_Takeoff,
2500,2025-09-03 16:16:54,0,0,0,,,1693.1493304275,0.656168,0,0,0,6,0,16.956,1693.1493304275,0,0,0,0,0,0,276.3, -4.2, -1.7,0,0,1024,1024,1024,1024,0,0,0,0,310.2,-4.4,-28.4,100,4.3,4.304,4.3,4.302,0,0,4.48,85.91,1693.1493304275,0,10,Assisted_Takeoff,
2600,2025-09-03 16:16:54,0,0,0,,,1693.1493304275,0.656168,0,0,0,6,0,16.956,1693.1493304275,0,0,0,0,0,0,276.3, -4.2, -1.7,0,0,1024,1024,1024,1024,0,0,0,0,310,-4.5,-28.4,100,4.3,4.304,4.3,4.302,0,0,4.48,85.91,1693.1493304275,0,10,Assisted_Takeoff,
2700,2025-09-03 16:16:54,0,0,0,,,1693.1493304275,0.656168,0,0,0,6,0,16.956,1693.1493304275,0,0,0,0,0,0,276.3, -4.2, -1.7,0,0,1024,1024,1024,1024,0,0,0,0,310.1,-4.4,-28.4,100,4.3,4.304,4.3,4.302,0,0,4.48,85.91,1693.1493304275,0,10,Assisted_Takeoff,
2800,2025-09-03 16:16:54,0,0,0,,,1693.1493304275,0.656168,0,0,0,6,0,16.956,1693.1493304275,0,0,0,0,0,0,276.3, -4.2, -1.7,0,0,1024,1024,1024,1024,0,0,0,0,310.1,-4.4,-28.4,100,4.3,4.304,4.3,4.302,0,0,4.48,85.91,1693.1493304275,0,10,Assisted_Takeoff,
2900,2025-09-03 16:16:54,0,0,0,,,1693.1493304275,0.656168,0,0,0,6,0,16.956,1693.1493304275,0,0,0,0,0,0,276.3, -4.2, -1.7,0,0,1024,1024,1024,1024,0,0,0,0,309.9,-4.5,-28.5,100,4.3,4.304,4.3,4.302,0,0,4.48,85.91,1693.1493304275,0,10,Assisted_Takeoff,
3000,2025-09-03 16:16:54,0,0,0,,,1693.1493304275,0.656168,0,0,0,6,0,16.956,1693.1493304275,0,0,0,0,0,0,276.3, -4.2, -1.7,0,0,1024,1024,1024,1024,0,0,0,0,309.9,-4.5,-28.6,100,4.3,4.304,4.3,4.302,0,0,4.48,85.91,1693.1493304275,0,10,Assisted_Takeoff,
3100,2025-09-03 16:16:54,0,0,0,,,1693.1493304275,0.656168,0,0,0,6,0,16.956,1693.1493304275,0,0,0,0,0,0,276.3, -4.2, -1.7,0,0,1024,1024,1024,1024,0,0,0,0,309.6,-4.7,-28.7,100,4.3,4.304,4.3,4.302,0,0,4.48,85.91,1693.1493304275,0,10,Assisted_Takeoff,
3200,2025-09-03 16:16:54,0,0,0,,,1693.1493304275,0.656168,0,0,0,6,0,16.956,1693.1493304275,0,0,0,0,0,0,276.3, -4.2, -1.7,0,0,1024,1024,1024,1024,0,0,0,0,309.7,-4.6,-28.6,100,4.3,4.304,4.3,4.302,0,0,4.48,85.91,1693.1493304275,0,10,Assisted_Takeoff,
3300,2025-09-03 16:16:54,0,0,0,,,1693.1493304275,0.656168,0,0,0,6,0,16.916,1693.1493304275,0,0,0,0,0,0,276.3, -4.3, -1.7,0,0,1024,1024,1024,1024,0,0,0,0,309.5,-4.7,-28.8,100,4.273,4.276,4.265,4.272,0,0,4.48,85.91,1693.1493304275,0,10,Assisted_Takeoff,
3400,2025-09-03 16:16:54,0,0,0,,,1693.1493304275,0.656168,0,0,0,6,0,16.916,1693.1493304275,0,0,0,0,0,0,276.3, -4.3, -1.7,0,0,1024,1024,1024,1024,0,0,0,0,309.6,-4.6,-28.8,100,4.273,4.276,4.265,4.272,0,0,4.48,85.91,1693.1493304275,0,10,Assisted_Takeoff,
3500,2025-09-03 16:16:55,0,0,0,,,1693.1493304275,0.656168,0,0,0,6,0,16.916,1693.1493304275,0,0,0,0,0,0,276.3, -4.3, -1.7,0,0,1024,1024,1024,1024,0,0,0,0,309.3,-4.8,-28.8,100,4.273,4.276,4.265,4.272,0,0,4.48,85.91,1693.1493304275,0,10,Assisted_Takeoff,
3600,2025-09-03 16:16:55,0,0,0,,,1693.1493304275,0.656168,0,0,0,6,0,16.916,1693.1493304275,0,0,0,0,0,0,276.3, -4.2, -1.7,0,0,1024,1024,1024,1024,0,0,0,0,309.4,-4.7,-29,100,4.273,4.276,4.265,4.272,0,0,4.48,85.91,1693.1493304275,0,10,Assisted_Takeoff,
3700,2025-09-03 16:16:55,0,0,0,,,1693.1493304275,0.656168,0,0,0,6,0,16.916,1693.1493304275,0,0,0,0,0,0,276.3, -4.2, -1.7,0,0,1024,1024,1024,1024,0,0,0,0,309.2,-4.8,-28.9,100,4.273,4.276,4.265,4.272,0,0,4.48,85.91,1693.1493304275,0,10,Assisted_Takeoff,
3800,2025-09-03 16:16:55,0,0,0,,,1693.1493304275,0.656168,0,0,0,6,0,16.916,1693.1493304275,0,0,0,0,0,0,276.3, -4.2, -1.7,0,0,1024,1024,1024,1024,0,0,0,0,309.2,-4.8,-28.9,100,4.273,4.276,4.265,4.272,0,0,4.48,85.91,1693.1493304275,0,10,Assisted_Takeoff,
3900,2025-09-03 16:16:55,0,0,0,,,1693.1493304275,0.656168,0,0,0,6,0,16.916,1693.1493304275,0,0,0,0,0,0,276.3, -4.3, -1.7,0,0,1024,1024,1024,1024,0,0,0,0,309.1,-4.9,-28.9,100,4.273,4.276,4.265,4.272,0,0,4.48,85.91,1693.1493304275,0,10,Assisted_Takeoff,
4000,2025-09-03 16:16:55,0,0,0,,,1693.1493304275,0.656168,0,0,0,6,0,16.916,1693.1493304275,0,0,0,0,0,0,276.3, -4.3, -1.7,0,0,1024,1024,1024,1024,0,0,0,0,309,-4.9,-29.1,100,4.273,4.276,4.265,4.272,0,0,4.48,85.91,1693.1493304275,0,10,Assisted_Takeoff,
4100,2025-09-03 16:16:55,0,0,0,,,1693.1493304275,0.656168,0,0,0,6,0,16.916,1693.1493304275,0,0,0,0,0,0,276.3, -4.3, -1.7,0,0,1024,1024,1024,1024,0,0,0,0,309,-4.9,-29.1,100,4.273,4.276,4.265,4.272,0,0,4.48,85.91,1693.1493304275,0,10,Assisted_Takeoff,
4200,2025-09-03 16:16:55,0,0,0,,,1693.1493304275,0.656168,0,0,0,6,0,16.916,1693.1493304275,0,0,0,0,0,0,276.3, -4.2, -1.7,0,0,1024,1024,1024,1024,0,0,0,0,309,-4.9,-29,100,4.273,4.276,4.265,4.272,0,0,4.48,85.91,1693.1493304275,0,10,Assisted_Takeoff,
4300,2025-09-03 16:16:55,0,0,0,,,1693.1493304275,0.656168,0,0,0,6,0,17.086,1693.1493304275,0,0,0,0,0,0,276.3, -4.2, -1.7,0,0,1024,1024,1024,1024,0,0,0,0,308.9,-4.9,-29.1,100,4.29,4.295,4.29,4.292,0,0,2.152,85.91,1693.1493304275,0,10,Assisted_Takeoff,
4400,2025-09-03 16:16:55,0,0,0,,,1693.1493304275,0.656168,0,0,0,6,0,17.086,1693.1493304275,0,0,0,0,0,0,276.3, -4.2, -1.7,0,0,1024,1024,1024,1024,0,0,0,0,308.8,-4.9,-29.2,100,4.29,4.295,4.29,4.292,0,0,2.152,85.91,1693.1493304275,0,10,Assisted_Takeoff,
4500,2025-09-03 16:16:55,0,0,0,,,1693.1493304275,0.656168,0,0,0,6,0,17.086,1693.1493304275,0,0,0,0,0,0,276.3, -4.2, -1.7,0,0,1024,1024,1024,1024,0,0,0,0,308.6,-5,-29.2,100,4.29,4.295,4.29,4.292,0,0,2.152,85.91,1693.1493304275,0,10,Assisted_Takeoff,
4600,2025-09-03 16:16:56,0,0,0,,,1693.1493304275,0.656168,0,0,0,6,0,17.086,1693.1493304275,0,0,0,0,0,0,276.3, -4.2, -1.7,0,0,1024,1024,1024,1024,0,0,0,0,308.6,-5,-29.2,100,4.29,4.295,4.29,4.292,0,0,2.152,85.91,1693.1493304275,0,10,Assisted_Takeoff,
4700,2025-09-03 16:16:56,0,0,0,,,1693.1493304275,0.656168,0,0,0,6,0,17.086,1693.1493304275,0,0,0,0,0,0,276.3, -4.2, -1.7,0,0,1024,1024,1024,1024,0,0,0,0,308.5,-5.1,-29.2,100,4.29,4.295,4.29,4.292,0,0,2.152,85.91,1693.1493304275,0,10,Assisted_Takeoff,
4800,2025-09-03 16:16:56,0,0,0,,,1693.1493304275,0.656168,0,0,0,6,0,17.086,1693.1493304275,0,0,0,0,0,0,276.3, -4.2, -1.7,0,0,1024,1024,1024,1024,0,0,0,0,308.5,-5,-29.2,100,4.29,4.295,4.29,4.292,0,0,2.152,85.91,1693.1493304275,0,10,Assisted_Takeoff,
4900,2025-09-03 16:16:56,0,0,0,,,1693.1493304275,0.656168,0,0,0,6,0,17.086,1693.1493304275,0,0,0,0,0,0,276.4, -4.2, -1.7,0,0,1024,1024,1024,1024,0,0,0,0,308.3,-5.1,-29.3,100,4.29,4.295,4.29,4.292,0,0,2.152,85.91,1693.1493304275,0,10,Assisted_Takeoff,
5000,2025-09-03 16:16:56,0,0,0,,,1693.1493304275,0.656168,0,0,0,6,0,17.086,1693.1493304275,0,0,0,0,0,0,276.4, -4.2, -1.7,0,0,1024,1024,1024,1024,0,0,0,0,308.3,-5.1,-29.4,100,4.29,4.295,4.29,4.292,0,0,2.152,85.91,1693.1493304275,0,10,Assisted_Takeoff,
5100,2025-09-03 16:16:56,0,0,0,,,1693.1493304275,0.656168,0,0,0,6,0,17.086,1693.1493304275,0,0,0,0,0,0,276.4, -4.2, -1.7,0,0,1024,1024,1024,1024,0,0,0,0,308.2,-5.2,-29.4,100,4.29,4.295,4.29,4.292,0,0,2.152,85.91,1693.1493304275,0,10,Assisted_Takeoff,
5200,2025-09-03 16:16:56,0,0,0,,,1693.1493304275,0.656168,0,0,0,6,0,17.086,1693.1493304275,0,0,0,0,0,0,276.4, -4.2, -1.7,0,0,1024,1024,1024,1024,0,0,0,0,308.2,-5.2,-29.4,100,4.29,4.295,4.29,4.292,0,0,2.152,85.91,1693.1493304275,0,10,Assisted_Takeoff,
5300,2025-09-03 16:16:56,0,0,0,,,1693.1493304275,0.656168,0,0,0,6,0,17.102,1693.1493304275,0,0,0,0,0,0,276.4, -4.2, -1.7,0,0,1024,1024,1024,1024,0,0,0,0,308.2,-5.2,-29.4,100,4.291,4.295,4.29,4.292,0,0,2.2,85.91,1693.1493304275,0,10,Assisted_Takeoff,
5400,2025-09-03 16:16:56,0,0,0,,,1693.1493304275,0.656168,0,0,0,6,0,17.102,1693.1493304275,0,0,0,0,0,0,276.4, -4.2, -1.7,0,0,1024,1024,1024,1024,0,0,0,0,308.1,-5.2,-29.3,100,4.291,4.295,4.29,4.292,0,0,2.2,85.91,1693.1493304275,0,10,Assisted_Takeoff,
5500,2025-09-03 16:16:57,0,0,0,,,1693.1493304275,0.656168,0,0,0,6,0,17.102,1693.1493304275,0,0,0,0,0,0,276.4, -4.2, -1.7,0,0,1024,1024,1024,1024,0,0,0,0,308,-5.3,-29.5,100,4.291,4.295,4.29,4.292,0,0,2.2,85.91,1693.1493304275,0,10,Assisted_Takeoff,
5600,2025-09-03 16:16:57,0,0,0,,,1693.1493304275,0.656168,0,0,0,6,0,17.102,1693.1493304275,0,0,0,0,0,0,276.4, -4.2, -1.7,0,0,1024,1024,1024,1024,0,0,0,0,307.9,-5.3,-29.6,100,4.291,4.295,4.29,4.292,0,0,2.2,85.91,1693.1493304275,0,10,Assisted_Takeoff,
5700,2025-09-03 16:16:57,0,0,0,,,1693.1493304275,0.656168,0,0,0,6,0,17.102,1693.1493304275,0,0,0,0,0,0,276.4, -4.3, -1.7,0,0,1024,1024,1024,1024,0,0,0,0,307.8,-5.3,-29.6,100,4.291,4.295,4.29,4.292,0,0,2.2,85.91,1693.1493304275,0,10,Assisted_Takeoff,
5800,2025-09-03 16:16:57,0,0,0,,,1693.1493304275,0.656168,0,0,0,6,0,17.102,1693.1493304275,0,0,0,0,0,0,276.4, -4.2, -1.7,0,0,1024,1024,1024,1024,0,0,0,0,307.8,-5.3,-29.7,100,4.291,4.295,4.29,4.292,0,0,2.2,85.91,1693.1493304275,0,10,Assisted_Takeoff,
5900,2025-09-03 16:16:57,0,0,0,,,1693.1493304275,0.656168,0,0,0,6,0,17.102,1693.1493304275,0,0,0,0,0,0,276.4, -4.3, -1.7,0,0,1024,1024,1024,1024,0,0,0,0,307.6,-5.4,-29.7,100,4.291,4.295,4.29,4.292,0,0,2.2,85.91,1693.1493304275,0,10,Assisted_Takeoff,
6000,2025-09-03 16:16:57,0,0,0,,,1693.1493304275,0.656168,0,0,0,6,0,17.102,1693.1493304275,0,0,0,0,0,0,276.4, -4.3, -1.7,0,0,1024,1024,1024,1024,0,0,0,0,307.6,-5.4,-29.7,100,4.291,4.295,4.29,4.292,0,0,2.2,85.91,1693.1493304275,0,10,Assisted_Takeoff,
6100,2025-09-03 16:16:57,0,0,0,,,1693.1493304275,0.656168,0,0,0,6,0,17.102,1693.1493304275,0,0,0,0,0,0,276.4, -4.2, -1.7,0,0,1024,1024,1024,1024,0,0,0,0,307.5,-5.5,-29.7,100,4.291,4.295,4.29,4.292,0,0,2.2,85.91,1693.1493304275,0,10,Assisted_Takeoff,
6200,2025-09-03 16:16:57,0,0,0,,,1693.1493304275,0.656168,0,0,0,6,0,17.102,1693.1493304275,0,0,0,0,0,0,276.4, -4.2, -1.7,0,0,1024,1024,1024,1024,0,0,0,0,307.4,-5.5,-29.7,100,4.291,4.295,4.29,4.292,0,0,2.2,85.91,1693.1493304275,0,10,Assisted_Takeoff,
6300,2025-09-03 16:16:57,0,0,0,,,1693.1493304275,0.656168,0,0,0,6,0,17.101,1693.1493304275,0,0,0,0,0,0,276.4, -4.2, -1.7,0,0,1024,1024,1024,1024,0,0,0,0,307.4,-5.5,-29.8,99,4.291,4.295,4.29,4.292,0,0,2.2,85.91,1693.1493304275,0,10,Assisted_Takeoff,
6400,2025-09-03 16:16:57,0,0,0,,,1693.1493304275,0.656168,0,0,0,6,0,17.101,1693.1493304275,0,0,0,0,0,0,276.4, -4.3, -1.7,0,0,1024,1024,1024,1024,0,0,0,0,307.2,-5.6,-29.9,99,4.291,4.295,4.29,4.292,0,0,2.2,85.91,1693.1493304275,0,10,Assisted_Takeoff,
6500,2025-09-03 16:16:57,0,0,0,,,1693.1493304275,0.656168,0,0,0,6,0,17.101,1693.1493304275,0,0,0,0,0,0,276.4, -4.3, -1.7,0,0,1024,1024,1024,1024,0,0,0,0,307.2,-5.6,-30,99,4.291,4.295,4.29,4.292,0,0,2.2,85.91,1693.1493304275,0,10,Assisted_Takeoff,
6600,2025-09-03 16:16:58,0,0,0,,,1693.1493304275,0.656168,0,0,0,6,0,17.101,1693.1493304275,0,0,0,0,0,0,276.4, -4.3, -1.7,0,0,1024,1024,1024,1024,0,0,0,0,307.2,-5.6,-30,99,4.291,4.295,4.29,4.292,0,0,2.2,85.91,1693.1493304275,0,10,Assisted_Takeoff,
6700,2025-09-03 16:16:58,0,0,0,,,1693.1493304275,0.656168,0,0,0,6,0,17.101,1693.1493304275,0,0,0,0,0,0,276.4, -4.3, -1.7,0,0,1024,1024,1024,1024,0,0,0,0,307.1,-5.6,-30,99,4.291,4.295,4.29,4.292,0,0,2.2,85.91,1693.1493304275,0,10,Assisted_Takeoff,
6800,2025-09-03 16:16:58,0,0,0,,,1693.1493304275,0.656168,0,0,0,6,0,17.101,1693.1493304275,0,0,0,0,0,0,276.4, -4.2, -1.7,0,0,1024,1024,1024,1024,0,0,0,0,307,-5.7,-30.1,99,4.291,4.295,4.29,4.292,0,0,2.2,85.91,1693.1493304275,0,10,Assisted_Takeoff,
6900,2025-09-03 16:16:58,0,0,0,,,1693.1493304275,0.656168,0,0,0,6,0,17.101,1693.1493304275,0,0,0,0,0,0,276.4, -4.2, -1.7,0,0,1024,1024,1024,1024,0,0,0,0,306.9,-5.7,-30.1,99,4.291,4.295,4.29,4.292,0,0,2.2,85.91,1693.1493304275,0,10,Assisted_Takeoff,
7000,2025-09-03 16:16:58,0,0,0,,,1693.1493304275,0.656168,0,0,0,6,0,17.101,1693.1493304275,0,0,0,0,0,0,276.4, -4.3, -1.7,0,0,1024,1024,1024,1024,0,0,0,0,306.8,-5.7,-30.1,99,4.291,4.295,4.29,4.292,0,0,2.2,85.91,1693.1493304275,0,10,Assisted_Takeoff,
7100,2025-09-03 16:16:58,0,0,0,,,1693.1493304275,0.656168,0,0,0,6,0,17.101,1693.1493304275,0,0,0,0,0,0,276.4, -4.2, -1.7,0,0,1024,1024,1024,1024,0,0,0,0,306.8,-5.7,-30.1,99,4.291,4.295,4.29,4.292,0,0,2.2,85.91,1693.1493304275,0,10,Assisted_Takeoff,
7200,2025-09-03 16:16:58,0,0,0,,,1693.1493304275,0.656168,0,0,0,6,0,17.101,1693.1493304275,0,0,0,0,0,0,276.4, -4.2, -1.7,0,0,1024,1024,1024,1024,0,0,0,0,306.6,-5.8,-30.1,99,4.291,4.295,4.29,4.292,0,0,2.2,85.91,1693.1493304275,0,10,Assisted_Takeoff,
7300,2025-09-03 16:16:58,0,0,0,,,1693.1493304275,0.656168,0,0,0,6,0,17.101,1693.1493304275,0,0,0,0,0,0,276.4, -4.2, -1.7,0,0,1024,1024,1024,1024,0,0,0,0,306.6,-5.8,-30.3,99,4.291,4.295,4.29,4.292,0,0,2.2,85.91,1693.1493304275,0,10,Assisted_Takeoff,
7400,2025-09-03 16:16:58,0,0,0,,,1693.1493304275,0.656168,0,0,0,6,0,17.101,1693.1493304275,0,0,0,0,0,0,276.4, -4.2, -1.6,0,0,1024,1024,1024,1024,0,0,0,0,306.5,-5.9,-30.2,99,4.291,4.295,4.29,4.292,0,0,2.2,85.91,1693.1493304275,0,10,Assisted_Takeoff,
7500,2025-09-03 16:16:58,0,0,0,,,1693.1493304275,0.656168,0,0,0,6,0,17.101,1693.1493304275,0,0,0,0,0,0,276.4, -4.2, -1.6,0,0,1024,1024,1024,1024,0,0,0,0,306.4,-5.9,-30.3,99,4.291,4.295,4.29,4.292,0,0,2.2,85.91,1693.1493304275,0,10,Assisted_Takeoff,
7600,2025-09-03 16:16:59,0,0,0,,,1693.1493304275,0.656168,0,0,0,6,0,17.101,1693.1493304275,0,0,0,0,0,0,276.4, -4.2, -1.6,0,0,1024,1024,1024,1024,0,0,0,0,306.3,-5.9,-30.3,99,4.291,4.295,4.29,4.292,0,0,2.2,85.91,1693.1493304275,0,10,Assisted_Takeoff,
7700,2025-09-03 16:16:59,0,0,0,,,1693.1493304275,0.656168,0,0,0,6,0,17.101,1693.1493304275,0,0,0,0,0,0,276.4, -4.2, -1.6,0,0,1024,1024,1024,1024,0,0,0,0,306.3,-5.9,-30.3,99,4.291,4.295,4.29,4.292,0,0,2.2,85.91,1693.1493304275,0,10,Assisted_Takeoff,
7800,2025-09-03 16:16:59,0,0,0,,,1693.1493304275,0.656168,0,0,0,6,0,17.101,1693.1493304275,0,0,0,0,0,0,276.4, -4.2, -1.6,0,0,1024,1024,1024,1024,0,0,0,0,306.2,-6,-30.2,99,4.291,4.295,4.29,4.292,0,0,2.2,85.91,1693.1493304275,0,10,Assisted_Takeoff,
7900,2025-09-03 16:16:59,0,0,0,,,1693.1493304275,0.656168,0,0,0,6,0,17.101,1693.1493304275,0,0,0,0,0,0,276.4, -4.2, -1.6,0,0,1024,1024,1026,1024,0,0,0,0,306.2,-6,-30.2,99,4.291,4.295,4.29,4.292,0,0,2.2,85.91,1693.1493304275,0,10,Assisted_Takeoff,
8000,2025-09-03 16:16:59,0,0,0,,,1693.1493304275,0.656168,0,0,0,6,0,17.101,1693.1493304275,0,0,0,0,0,0,276.4, -4.2, -1.6,0,0,1024,1024,1099,1024,0,0,11,0,306.1,-6,-30.3,99,4.291,4.295,4.29,4.292,0,0,2.2,85.91,1693.1493304275,0,10,Assisted_Takeoff,
8100,2025-09-03 16:16:59,0,0,0,,,1693.1493304275,0.656168,0,0,0,6,0,17.101,1693.1493304275,0,0,0,0,0,0,276.4, -4.2, -1.6,0,0,1024,1024,1141,1024,0,0,18,0,306,-6,-30.4,99,4.291,4.295,4.29,4.292,0,0,2.2,85.91,1693.1493304275,0,10,Assisted_Takeoff,
8200,2025-09-03 16:16:59,0,0,0,,,1693.1493304275,0.656168,0,0,0,6,0,17.101,1693.1493304275,0,0,0,0,0,0,276.4, -4.2, -1.7,0,0,1024,1024,1156,1024,0,0,20,0,305.9,-6.1,-30.4,99,4.291,4.295,4.29,4.292,0,0,2.2,85.91,1693.1493304275,0,10,Assisted_Takeoff,
8300,2025-09-03 16:16:59,0,0,0,,,1693.1493304275,0.656168,0,0,0,6,0,17.086,1693.1493304275,0,0,0,0,0,0,276.4, -4.2, -1.7,0,0,1024,1024,1162,1024,0,0,21,0,305.8,-6.1,-30.3,99,4.29,4.295,4.289,4.291,0,0,2.198,85.91,1693.1493304275,0,10,Assisted_Takeoff,
8400,2025-09-03 16:16:59,0,0,0,,,1693.1493304275,0.656168,0,0,0,6,0,17.086,1693.1493304275,0,0,0,0,0,0,276.4, -4.2, -1.6,0,0,1024,1024,1165,1024,0,0,21,0,305.7,-6.2,-30.3,99,4.29,4.295,4.289,4.291,0,0,2.198,85.91,1693.1493304275,0,10,Assisted_Takeoff,
8500,2025-09-03 16:17:00,0,0,0,,,1693.1493304275,0.656168,0,0,0,6,0,17.086,1693.1493304275,0,0,0,0,0,0,276.4, -4.3, -1.7,0,0,1024,1024,1168,1024,0,0,22,0,305.7,-6.3,-30.3,99,4.29,4.295,4.289,4.291,0,0,2.198,85.91,1693.1493304275,0,10,Assisted_Takeoff,
8600,2025-09-03 16:17:00,0,0,0,,,1693.1493304275,0.656168,0,0,0,6,0,17.086,1693.1493304275,0,0,0,0,0,0,276.4, -4.3, -1.7,0,0,1024,1024,1168,1024,0,0,22,0,305.6,-6.3,-30.3,99,4.29,4.295,4.289,4.291,0,0,2.198,85.91,1693.1493304275,0,10,Assisted_Takeoff,
8700,2025-09-03 16:17:00,0,0,0,,,1693.1493304275,0.656168,0,0,0,6,0,17.086,1693.1493304275,0,0,0,0,0,0,276.5, -4.4, -1.7,0,0,1024,1024,1166,1024,0,0,22,0,305.5,-6.5,-30.3,99,4.29,4.295,4.289,4.291,0,0,2.198,85.91,1693.1493304275,0,10,Assisted_Takeoff,
8800,2025-09-03 16:17:00,0,0,0,,,1693.1493304275,0.656168,0,0,0,6,0,17.086,1693.1493304275,0,0,0,0,0,0,276.5, -4.6, -1.7,0,0,1024,1024,1168,1024,0,0,22,0,305.4,-6.9,-30.3,99,4.29,4.295,4.289,4.291,0,0,2.198,85.91,1693.1493304275,0,10,Assisted_Takeoff,
8900,2025-09-03 16:17:00,0,0,0,,,1693.1493304275,0.656168,0,0,0,6,0,17.086,1693.1493304275,0,0,0,0,0,0,276.5, -4.9, -1.7,0,0,1024,1024,1166,1024,0,0,22,0,305.5,-7.5,-30.1,99,4.29,4.295,4.289,4.291,0,0,2.198,85.91,1693.1493304275,0,10,Assisted_Takeoff,
9000,2025-09-03 16:17:00,0,0,0,,,1693.1493304275,0.656168,0,0,0,6,0,17.086,1693.1493304275,0,0,0,0,0,0,276.5, -5.8, -1.7,0,0,1024,1024,1165,1024,0,0,21,0,305.9,-9,-29.8,99,4.29,4.295,4.289,4.291,0,0,2.198,85.91,1693.1493304275,0,10,Assisted_Takeoff,
9100,2025-09-03 16:17:00,0,0,0,,,1693.1493304275,0.656168,0,0,0,6,0,17.086,1693.1493304275,0,0,0,0,0,0,276.4, -7.4, -1.8,0,0,1024,1024,1164,1024,0,0,21,0,306.1,-11.1,-30.5,99,4.29,4.295,4.289,4.291,0,0,2.198,85.91,1693.1493304275,0,10,Assisted_Takeoff,
9200,2025-09-03 16:17:00,0,0,0,,,1693.1493304275,0.656168,0.223694,0,0,6,0,17.086,1693.1493304275,0,0.223694,0,0,-0.223694,0,276.4, -9.1, -1.8,0,0,1024,1024,1165,1024,0,0,21,0,306.1,-11.1,-30.5,99,4.29,4.295,4.289,4.291,0,0,2.198,85.91,1693.1493304275,0,10,Assisted_Takeoff,
9300,2025-09-03 16:17:00,0,0,0,,,1693.1493304275,0.656168,0.447388,0,0,6,0,16.968,1693.1493304275,0,0.447388,0,0,-0.447388,-0.223694,276.1, -9, -0.9,0,0,1024,1024,1163,1024,0,0,21,0,307.6,-10.8,-30,99,4.277,4.281,4.274,4.272,0,0,2.328,85.91,1693.1493304275,0,10,Assisted_Takeoff,
9400,2025-09-03 16:17:00,0,0,0,,,1693.1493304275,0.656168,0.671082,0,0,6,0,16.968,1693.1493304275,0,0.671082,0,0,-0.671082,-0.447388,276, -2.6, 0.3,0,0,1024,1024,1163,1024,0,0,21,0,308,-9.8,-28.9,99,4.277,4.281,4.274,4.272,0,0,2.328,85.91,1693.1493304275,0,6,P-GPS,"Braking now. Return sticks to midpoints, then continue flying."
9500,2025-09-03 16:17:00,0,0,0,,,1693.1493304275,0.656168,0.894776,0,0,6,0,16.968,1693.1493304275,0,0.894776,0,0,-0.894776,-0.894776,276, 4.7, 0,0,0,1024,1024,1162,1024,0,0,21,0,305.9,-5.5,-30.6,99,4.277,4.281,4.274,4.272,0,0,2.328,85.91,1693.1493304275,0,6,P-GPS,
9600,2025-09-03 16:17:01,0,0,0.328084,,,1693.4774144275,0.984252,0.671082,0,0,6,0,16.968,1693.4774144275,0.328084,0.894776,0,0,-0.671082,-0.894776,276, 6.5, -0.4,0,0,1024,1024,1160,1024,0,0,21,0,305.9,-5,-30.8,99,4.277,4.281,4.274,4.272,0,0,2.328,85.91,1693.4774144275,0.328084,6,P-GPS,
9700,2025-09-03 16:17:01,0,0,0.328084,,,1693.4774144275,0.984252,0.447388,0,0,6,0,16.968,1693.4774144275,0.328084,0.894776,0,0,-0.447388,-1.11847,275.7, 4.9, 0.7,0,0,1024,1024,1159,1024,0,0,20,0,305.6,-8.2,-29,99,4.277,4.281,4.274,4.272,0,0,2.328,85.91,1693.4774144275,0.328084,6,P-GPS,
9800,2025-09-03 16:17:01,0,0,0.656168,,,1693.8054984275,0.984252,0.223694,0,0,6,0,16.968,1693.8054984275,0.656168,0.894776,0,0,-0.223694,-1.11847,275.6, 2.9, 0.8,0,0,1024,1024,1159,1024,0,0,20,0,305.6,-10.4,-29.8,99,4.277,4.281,4.274,4.272,0,0,2.328,85.91,1693.8054984275,0.656168,6,P-GPS,
9900,2025-09-03 16:17:01,0,0,0.656168,,,1693.8054984275,1.312336,0.223694,0,0,6,0,16.968,1693.8054984275,0.656168,0.894776,0,0,-0.223694,-0.894776,275.6, 1.6, 0,0,0,1024,1024,1161,1024,0,0,21,0,306,-11.3,-31.2,99,4.277,4.281,4.274,4.272,0,0,2.328,85.91,1693.8054984275,0.656168,6,P-GPS,
10000,2025-09-03 16:17:01,0,0,0.984252,,,1694.1335824275,1.312336,0.223694,0,0,6,0,16.968,1694.1335824275,0.984252,0.894776,0,0,-0.223694,-0.894776,275.8, 1.3, -0.8,0,0,1024,1024,1162,1024,0,0,21,0,306.1,-11.7,-30.9,99,4.277,4.281,4.274,4.272,0,0,2.328,85.91,1694.1335824275,0.984252,6,P-GPS,
10100,2025-09-03 16:17:01,0,0,0.984252,,,1694.1335824275,1.64042,0,0,0,7,0,16.968,1694.1335824275,0.984252,0.894776,0,0,0,-0.671082,276, 1.6, -0.8,0,0,1024,1024,1167,1024,0,0,22,0,306,-11.3,-30.9,99,4.277,4.281,4.274,4.272,0,0,2.328,85.91,1694.1335824275,0.984252,6,P-GPS,
10200,2025-09-03 16:17:01,0,0,1.312336,,,1694.4616664275,1.64042,0,0,0,7,0,16.968,1694.4616664275,1.312336,0.894776,0,0,0,-0.671082,276.1, 1.4, -1,0,0,1024,1024,1171,1024,0,0,22,0,306.8,-11.9,-31.4,99,4.277,4.281,4.274,4.272,0,0,2.328,85.91,1694.4616664275,1.312336,6,P-GPS,
10300,2025-09-03 16:17:01,0,0,1.312336,,,1694.4616664275,1.968504,0,0,0,7,0,16.799,1694.4616664275,1.312336,0.894776,0,0,0,-0.671082,276.1, 1.3, -1.3,0,0,1024,1024,1174,1024,0,0,23,0,305.7,-12.7,-31.8,99,4.131,4.152,4.14,4.127,0,0,16.124,85.91,1694.4616664275,1.312336,6,P-GPS,
10400,2025-09-03 16:17:01,0,0,1.312336,,,1694.4616664275,1.968504,0,0,0,7,0,16.799,1694.4616664275,1.312336,0.894776,0,0,0,-0.671082,276.1, 1.2, -1.2,0,0,1024,1024,1173,1024,0,0,23,0,304.1,-13.9,-31.7,99,4.131,4.152,4.14,4.127,0,0,16.124,85.91,1694.4616664275,1.312336,6,P-GPS,
10500,2025-09-03 16:17:02,0,0,1.64042,,,1694.7897504275,1.968504,0,0,0,8,0,16.799,1694.7897504275,1.64042,0.894776,0,0,0,-0.671082,276, 0.9, -1.1,0,0,1024,1024,1170,1024,0,0,22,0,304.7,-14.9,-31.2,99,4.131,4.152,4.14,4.127,0,0,16.124,85.91,1694.7897504275,1.64042,6,P-GPS,
10600,2025-09-03 16:17:02,0,0,1.64042,,,1694.7897504275,2.296588,0,0,0,8,0,16.799,1694.7897504275,1.64042,0.894776,0,0,0,-0.671082,276, 0.3, -0.8,0,0,1024,1024,1170,1024,0,0,22,0,304.7,-14.9,-31.2,99,4.131,4.152,4.14,4.127,0,0,16.124,85.91,1694.7897504275,1.64042,6,P-GPS,
10700,2025-09-03 16:17:02,0,0,1.64042,,,1694.7897504275,2.296588,0,0,0,8,0,16.799,1694.7897504275,1.64042,0.894776,0,0,0,-0.671082,276.1, 0.4, -0.5,0,0,1024,1024,1168,1024,0,0,22,0,306.1,-14.2,-31.4,99,4.131,4.152,4.14,4.127,0,0,16.124,85.91,1694.7897504275,1.64042,6,P-GPS,
10800,2025-09-03 16:17:02,0,0,1.968504,,,1695.1178344275,2.296588,0,0,0,8,0,16.799,1695.1178344275,1.968504,0.894776,0,0,0,-0.894776,276.1, 0.4, -0.1,0,0,1024,1024,1173,1024,0,0,23,0,305.4,-14.7,-30.7,99,4.131,4.152,4.14,4.127,0,0,16.124,85.91,1695.1178344275,1.968504,6,P-GPS,
10900,2025-09-03 16:17:02,0,0,1.968504,,,1695.1178344275,2.624672,0,0,0,8,0,16.799,1695.1178344275,1.968504,0.894776,0,0,0,-0.894776,276.2, 0.3, 0,0,0,1024,1024,1176,1024,0,0,23,0,306,-14.5,-30.6,99,4.131,4.152,4.14,4.127,0,0,16.124,85.91,1695.1178344275,1.968504,6,P-GPS,
11000,2025-09-03 16:17:02,0,0,2.296588,,,1695.4459184275,2.624672,0,0,0,8,0,16.799,1695.4459184275,2.296588,0.894776,0,0,0,-0.894776,276.2, 0.3, 0.1,0,0,1024,1024,1179,1024,0,0,23,0,306.4,-14.3,-30.1,99,4.131,4.152,4.14,4.127,0,0,16.124,85.91,1695.4459184275,2.296588,6,P-GPS,
11100,2025-09-03 16:17:02,0,0,2.296588,,,1695.4459184275,2.952756,0,0,0,8,0,16.799,1695.4459184275,2.296588,0.894776,0,0,0,-0.894776,276.2, 0, 0.1,0,0,1024,1024,1180,1024,0,0,24,0,305.6,-15.4,-30.5,99,4.131,4.152,4.14,4.127,0,0,16.124,85.91,1695.4459184275,2.296588,6,P-GPS,
11200,2025-09-03 16:17:02,0,0,2.624672,,,1695.7740024275,2.952756,0,0,0,8,0,16.799,1695.7740024275,2.624672,0.894776,0,0,0,-0.894776,276, -0.2, -0.2,0,0,1024,1024,1183,1024,0,0,24,0,305.5,-15.3,-30.7,99,4.131,4.152,4.14,4.127,0,0,16.124,85.91,1695.7740024275,2.624672,6,P-GPS,
11300,2025-09-03 16:17:02,0,0,2.624672,,,1695.7740024275,3.28084,0,0,0,7,0,16.353,1695.7740024275,2.624672,0.894776,0,0,0,-1.11847,276, 0.1, -0.2,0,0,1024,1024,1184,1024,0,0,24,0,305.4,-15,-30.5,99,4.131,4.152,4.14,4.127,0,0,17.918,85.91,1695.7740024275,2.624672,6,P-GPS,
11400,2025-09-03 16:17:02,0,0,2.952756,,,1696.1020864275,3.28084,0,0,0,7,0,16.353,1696.1020864275,2.952756,0.894776,0,0,0,-1.11847,276.1, 0.5, 0,0,0,1024,1024,1181,1024,0,0,24,0,305,-15.2,-30.7,99,4.131,4.152,4.14,4.127,0,0,17.918,85.91,1696.1020864275,2.952756,6,P-GPS,
11500,2025-09-03 16:17:02,0,0,2.952756,,,1696.1020864275,3.608924,0,0,0,7,0,16.353,1696.1020864275,2.952756,0.894776,0,0,0,-1.11847,276.2, 0.6, -0.1,0,0,1024,1024,1181,1024,0,0,24,0,305.2,-14.9,-30.9,99,4.131,4.152,4.14,4.127,0,0,17.918,85.91,1696.1020864275,2.952756,6,P-GPS,
11600,2025-09-03 16:17:03,0,0,3.28084,,,1696.4301704275,3.608924,0,0,0,7,0,16.353,1696.4301704275,3.28084,0.894776,0,0,0,-1.11847,276.2, 0.4, -0.1,0,0,1024,1024,1180,1024,0,0,24,0,305.5,-15,-30.8,99,4.131,4.152,4.14,4.127,0,0,17.918,85.91,1696.4301704275,3.28084,6,P-GPS,
11700,2025-09-03 16:17:03,0,0,3.608924,,,1696.7582544275,3.937008,0,0,0,8,2,16.353,1696.7582544275,3.608924,0.894776,0,0,0,-1.342164,276.2, 0.2, 0,0,0,1024,1024,1181,1024,0,0,24,0,305.3,-15.4,-30,99,4.131,4.152,4.14,4.127,0,0,17.918,85.91,1696.7582544275,3.608924,6,P-GPS,
11800,2025-09-03 16:17:03,0,0,3.608924,,,1696.7582544275,4.265092,0,0,0,8,2,16.353,1696.7582544275,3.608924,0.894776,0,0,0,-1.11847,276.2, -0.1, 0.2,0,0,1024,1024,1182,1024,0,0,24,0,305.2,-15.4,-29.5,99,4.131,4.152,4.14,4.127,0,0,17.918,85.91,1696.7582544275,3.608924,6,P-GPS,
11900,2025-09-03 16:17:03,0,0,3.937008,,,1697.0863384275,4.265092,0,0,0,8,2,16.353,1697.0863384275,3.937008,0.894776,0,0,0,-1.11847,276.2, -0.1, 0.1,0,0,1024,1024,1185,1024,0,0,24,0,305.2,-15.4,-29.5,99,4.131,4.152,4.14,4.127,0,0,17.918,85.91,1697.0863384275,3.937008,6,P-GPS,
12000,2025-09-03 16:17:03,0,0,3.937008,,,1697.0863384275,4.593176,0,0,0,8,2,16.353,1697.0863384275,3.937008,0.894776,0,0,0,-1.11847,276.2, -0.2, 0,0,0,1024,1024,1182,1024,0,0,24,0,305.3,-15.5,-30,99,4.131,4.152,4.14,4.127,0,0,17.918,85.91,1697.0863384275,3.937008,6,P-GPS,
12100,2025-09-03 16:17:03,0,0,4.265092,,,1697.4144224275,4.593176,0,0,0,8,2,16.353,1697.4144224275,4.265092,0.894776,0,0,0,-1.11847,276.3, -0.2, 0,0,0,1024,1024,1182,1024,0,0,24,0,305.3,-15.5,-29.5,99,4.131,4.152,4.14,4.127,0,0,17.918,85.91,1697.4144224275,4.265092,6,P-GPS,
12200,2025-09-03 16:17:03,0,0,4.265092,,,1697.4144224275,4.92126,0,0,0,8,2,16.353,1697.4144224275,4.265092,0.894776,0,0,0,-1.11847,276.3, -0.2, 0.1,0,0,1024,1024,1185,1024,0,0,24,0,304.7,-15.8,-30.2,99,4.131,4.152,4.14,4.127,0,0,17.918,85.91,1697.4144224275,4.265092,6,P-GPS,
12300,2025-09-03 16:17:03,0,0,4.593176,,,1697.7425064275,4.92126,0,0,0,8,2,16.269,1697.7425064275,4.593176,0.894776,0,0,0,-1.11847,276.3, -0.2, -0.1,0,0,1024,1024,1185,1024,0,0,24,0,304.4,-16.1,-30.9,99,4.088,4.114,4.103,4.089,0,0,17.918,85.91,1697.7425064275,4.593176,6,P-GPS,"Setting new Maximum Flight Altitude to 500m (1640 ft)"
12400,2025-09-03 16:17:03,0,0,4.92126,,,1698.0705904275,5.249344,0,0,0,8,2,16.269,1698.0705904275,4.92126,0.894776,0,0,0,-1.11847,276.3, -0.1, -0.6,0,0,1024,1024,1191,1024,0,0,25,0,304.4,-16,-31.1,99,4.088,4.114,4.103,4.089,0,0,17.918,85.91,1698.0705904275,4.92126,6,P-GPS,
12500,2025-09-03 16:17:03,0,0,4.92126,,,1698.0705904275,5.249344,0,0,0,7,2,16.269,1698.0705904275,4.92126,0.894776,0,0,0,-1.11847,276.3, -0.2, -0.8,0,0,1024,1024,1192,1024,0,0,25,0,303.6,-16.6,-31.1,99,4.088,4.114,4.103,4.089,0,0,17.918,85.91,1698.0705904275,4.92126,6,P-GPS,
12600,2025-09-03 16:17:04,0,0,5.249344,,,1698.3986744275,5.577428,0,0,0,7,2,16.269,1698.3986744275,5.249344,0.894776,0,0,0,-1.11847,276.2, -0.3, -0.8,0,0,1024,1024,1195,1024,0,0,26,0,303.5,-16.7,-30.9,99,4.088,4.114,4.103,4.089,0,0,17.918,85.91,1698.3986744275,5.249344,6,P-GPS,
12700,2025-09-03 16:17:04,0,0,5.249344,,,1698.3986744275,5.905512,0,0,0,7,2,16.269,1698.3986744275,5.249344,0.894776,0,0,0,-1.342164,276.2, -0.2, -0.6,0,0,1024,1024,1200,1024,0,0,27,0,303.8,-16.5,-31.4,99,4.088,4.114,4.103,4.089,0,0,17.918,85.91,1698.3986744275,5.249344,6,P-GPS,
12800,2025-09-03 16:17:04,0,0,5.577428,,,1698.7267584275,5.905512,0,0,0,7,2,16.269,1698.7267584275,5.577428,0.894776,0,0,0,-1.342164,276.2, -0.1, -0.8,0,0,1024,1024,1201,1024,0,0,27,0,303.9,-16.5,-31.6,99,4.088,4.114,4.103,4.089,0,0,17.918,85.91,1698.7267584275,5.577428,6,P-GPS,
12900,2025-09-03 16:17:04,0,0,5.905512,,,1699.0548424275,6.233596,0,0,0,7,2,16.269,1699.0548424275,5.905512,0.894776,0,0,0,-1.342164,276.2, -0.2, -0.7,0,0,1024,1024,1204,1024,0,0,27,0,304,-16.5,-31.4,99,4.088,4.114,4.103,4.089,0,0,17.918,85.91,1699.0548424275,5.905512,6,P-GPS,
13000,2025-09-03 16:17:04,0,0,5.905512,,,1699.0548424275,6.233596,0,0,0,7,2,16.269,1699.0548424275,5.905512,0.894776,0,0,0,-1.342164,276.3, -0.3, -0.7,0,0,1024,1024,1204,1024,0,0,27,0,303.7,-16.7,-31,99,4.088,4.114,4.103,4.089,0,0,17.918,85.91,1699.0548424275,5.905512,6,P-GPS,
13100,2025-09-03 16:17:04,0,0,6.233596,,,1699.3829264275,6.56168,0,0,0,7,2,16.269,1699.3829264275,6.233596,0.894776,0,0,0,-1.342164,276.2, -0.2, -0.6,0,0,1024,1024,1205,1024,0,0,27,0,303,-16.9,-30.7,99,4.088,4.114,4.103,4.089,0,0,17.918,85.91,1699.3829264275,6.233596,6,P-GPS,
13200,2025-09-03 16:17:04,0,0,6.56168,,,1699.7110104275,6.889764,0,0,0,7,2,16.269,1699.7110104275,6.56168,0.894776,0,0,0,-1.342164,276.2, -0.1, -0.3,0,0,1024,1024,1202,1024,0,0,27,0,302.9,-16.6,-30.6,99,4.088,4.114,4.103,4.089,0,0,17.918,85.91,1699.7110104275,6.56168,6,P-GPS,
13300,2025-09-03 16:17:04,0,0,6.56168,,,1699.7110104275,7.217848,0,0,0,8,2,16.301,1699.7110104275,6.56168,0.894776,0,0,0,-1.565858,276.2, 0.2, -0.3,0,0,1024,1024,1204,1024,0,0,27,0,302.9,-16.6,-30.6,99,4.082,4.107,4.095,4.081,0,0,17.918,85.91,1699.7110104275,6.56168,6,P-GPS,
13400,2025-09-03 16:17:04,0,0,6.889764,,,1700.0390944275,7.217848,0,0,0,8,2,16.301,1700.0390944275,6.889764,0.894776,0,0,0,-1.565858,276.2, 0.5, -0.2,0,0,1024,1024,1204,1024,0,0,27,0,303.3,-16.4,-30.8,99,4.082,4.107,4.095,4.081,0,0,17.918,85.91,1700.0390944275,6.889764,6,P-GPS,
13500,2025-09-03 16:17:05,0,0,7.217848,,,1700.3671784275,7.545932,0,0,0,8,2,16.301,1700.3671784275,7.217848,0.894776,0,0,0,-1.565858,276.2, 0.5, -0.4,0,0,1024,1024,1206,1024,0,0,28,0,302.7,-16.9,-31.1,99,4.082,4.107,4.095,4.081,0,0,17.918,85.91,1700.3671784275,7.217848,6,P-GPS,
13600,2025-09-03 16:17:05,0,0,7.545932,,,1700.6952624275,7.545932,0,0,0,8,2,16.301,1700.6952624275,7.545932,0.894776,0,0,0,-1.565858,276.2, 0.6, -0.2,0,0,1024,1024,1206,1024,0,0,28,0,303.1,-16.8,-31.5,99,4.082,4.107,4.095,4.081,0,0,17.918,85.91,1700.6952624275,7.545932,6,P-GPS,
13700,2025-09-03 16:17:05,0,0,7.545932,,,1700.6952624275,7.874016,0,0,0,9,2,16.301,1700.6952624275,7.545932,0.894776,0,0,0,-1.565858,276.2, 0.4, -0.4,0,0,1024,1024,1207,1024,0,0,28,0,302.9,-17.3,-31.7,99,4.082,4.107,4.095,4.081,0,0,17.918,85.91,1700.6952624275,7.545932,6,P-GPS,
13800,2025-09-03 16:17:05,0,0,7.874016,,,1701.0233464275,8.2021,0,0,0,9,2,16.301,1701.0233464275,7.874016,0.894776,0,0,0,-1.565858,276.2, -0.1, -0.9,0,0,1024,1024,1207,1024,0,0,28,0,302.6,-17.4,-31.2,99,4.082,4.107,4.095,4.081,0,0,17.918,85.91,1701.0233464275,7.874016,6,P-GPS,
13900,2025-09-03 16:17:05,0,0,8.2021,,,1701.3514304275,8.2021,0,0,0,8,2,16.301,1701.3514304275,8.2021,0.894776,0,0,0,-1.565858,276.1, 0, -0.6,0,0,1024,1024,1208,1024,0,0,28,0,302.8,-17.1,-30.4,99,4.082,4.107,4.095,4.081,0,0,17.918,85.91,1701.3514304275,8.2021,6,P-GPS,
14000,2025-09-03 16:17:05,0,0,8.2021,,,1701.3514304275,8.530184,0,0,0,8,2,16.301,1701.3514304275,8.2021,0.894776,0,0,0,-1.565858,276.1, 0.1, 0,0,0,1024,1024,1209,1024,0,0,28,0,302.6,-17.1,-30.8,99,4.082,4.107,4.095,4.081,0,0,17.918,85.91,1701.3514304275,8.2021,6,P-GPS,
14100,2025-09-03 16:17:05,0,0,8.530184,,,1701.6795144275,8.858268,0,0,0,8,2,16.301,1701.6795144275,8.530184,0.894776,0,0,0,-1.565858,276.1, 0.4, 0,0,0,1024,1024,1209,1024,0,0,28,0,302.2,-16.8,-30.6,99,4.082,4.107,4.095,4.081,0,0,17.918,85.91,1701.6795144275,8.530184,6,P-GPS,
14200,2025-09-03 16:17:05,0,0,8.858268,,,1702.0075984275,8.858268,0,0,0,8,2,16.301,1702.0075984275,8.858268,0.894776,0,0,0,-1.565858,276.1, 0.8, 0,0,0,1024,1024,1208,1024,0,0,28,0,302.1,-16.7,-30.7,99,4.082,4.107,4.095,4.081,0,0,17.918,85.91,1702.0075984275,8.858268,6,P-GPS,
14300,2025-09-03 16:17:05,0,0,9.186352,,,1702.3356824275,9.186352,0,0,0,8,2,16.215,1702.3356824275,9.186352,0.894776,0,0,0,-1.565858,276.1, 0.8, 0,0,0,1024,1024,1209,1024,0,0,28,0,302.7,-16.2,-30.8,99,4.082,4.107,4.095,4.081,0,0,17.608,85.91,1702.3356824275,9.186352,6,P-GPS,
14400,2025-09-03 16:17:05,0,0,9.186352,,,1702.3356824275,9.514436,0,0,0,8,2,16.215,1702.3356824275,9.186352,0.894776,0,0,0,-1.565858,276.1, 0.8, 0.1,0,0,1024,1024,1205,1024,0,0,27,0,301.9,-16.6,-30.7,99,4.082,4.107,4.095,4.081,0,0,17.608,85.91,1702.3356824275,9.186352,6,P-GPS,
14500,2025-09-03 16:17:05,0,0,9.514436,,,1702.6637664275,9.84252,0,0,0,9,2,16.215,1702.6637664275,9.514436,0.894776,0,0,0,-1.565858,276.1, 0.9, 0.2,0,0,1024,1024,1207,1024,0,0,28,0,302.2,-16.1,-30.7,99,4.082,4.107,4.095,4.081,0,0,17.608,85.91,1702.6637664275,9.514436,6,P-GPS,
14600,2025-09-03 16:17:06,0,0,9.84252,,,1702.9918504275,9.84252,0,0,0,9,2,16.215,1702.9918504275,9.84252,0.894776,0,0,0,-1.565858,276.1, 1.4, 0.4,0,0,1024,1024,1209,1024,0,0,28,0,302.2,-16.1,-30.7,99,4.082,4.107,4.095,4.081,0,0,17.608,85.91,1702.9918504275,9.84252,6,P-GPS,
14700,2025-09-03 16:17:06,0,0,10.170604,,,1703.3199344275,10.170604,0,0,0,10,2,16.215,1703.3199344275,10.170604,0.894776,0,0,0,-1.565858,276.1, 1.2, 0.4,0,0,1024,1024,1205,1024,0,0,27,0,303,-15.9,-30.8,99,4.082,4.107,4.095,4.081,0,0,17.608,85.91,1703.3199344275,10.170604,6,P-GPS,
14800,2025-09-03 16:17:06,0,0,10.498688,,,1703.6480184275,10.498688,0,0,0,10,2,16.215,1703.6480184275,10.498688,0.894776,0,0,0,-1.565858,276.1, 0.6, 0.3,0,0,1024,1024,1203,1024,0,0,27,0,302.3,-16.9,-31.1,99,4.082,4.107,4.095,4.081,0,0,17.608,85.91,1703.6480184275,10.498688,6,P-GPS,
14900,2025-09-03 16:17:06,0,0,10.498688,,,1703.6480184275,10.826772,0.223694,0,0,8,2,16.215,1703.6480184275,10.498688,0.894776,0,0,0.223694,-1.565858,276.1, 0.3, 0.1,0,0,1024,1024,1205,1024,0,0,27,0,301,-18.1,-30.5,99,4.082,4.107,4.095,4.081,0,0,17.608,85.91,1703.6480184275,10.498688,6,P-GPS,
15000,2025-09-03 16:17:06,0,0,10.826772,,,1703.9761024275,10.826772,0.223694,0,0,8,2,16.215,1703.9761024275,10.826772,0.894776,0,0,0.223694,-1.565858,276, -0.6, 0,0,0,1024,1024,1198,1024,0,0,26,0,300.9,-19.1,-30.9,99,4.082,4.107,4.095,4.081,0,0,17.608,85.91,1703.9761024275,10.826772,6,P-GPS,
15100,2025-09-03 16:17:06,0,0,11.154856,,,1704.3041864275,11.154856,0.223694,0,0,8,2,16.215,1704.3041864275,11.154856,0.894776,0,0,0.223694,-1.565858,276, -0.9, 0,0,0,1024,1024,1196,1024,0,0,26,0,302.2,-18.4,-30.3,99,4.082,4.107,4.095,4.081,0,0,17.608,85.91,1704.3041864275,11.154856,6,P-GPS,
15200,2025-09-03 16:17:06,0,0,11.154856,,,1704.3041864275,11.48294,0,0,0,8,2,16.215,1704.3041864275,11.154856,0.894776,0,0,0,-1.565858,276, -0.9, 0,0,0,1024,1024,1198,1024,0,0,26,0,301.6,-18.4,-30.4,99,4.082,4.107,4.095,4.081,0,0,17.608,85.91,1704.3041864275,11.154856,6,P-GPS,
15300,2025-09-03 16:17:06,0,0,11.48294,,,1704.6322704275,11.811024,0,0,0,8,2,16.218,1704.6322704275,11.48294,0.894776,0,0,0,-1.342164,276, -0.8, 0,0,0,1024,1024,1202,1024,0,0,27,0,301.2,-18.6,-30.4,99,4.071,4.098,4.086,4.073,0,0,17.808,85.91,1704.6322704275,11.48294,6,P-GPS,
15400,2025-09-03 16:17:06,0,0,11.811024,,,1704.9603544275,11.811024,0,0,0,8,2,16.218,1704.9603544275,11.811024,0.894776,0,0,0,-1.342164,276, -0.4, 0,0,0,1024,1024,1191,1024,0,0,25,0,301.6,-18,-30.4,99,4.071,4.098,4.086,4.073,0,0,17.808,85.91,1704.9603544275,11.811024,6,P-GPS,
15500,2025-09-03 16:17:07,0,0,11.811024,,,1704.9603544275,12.139108,0,0,0,8,2,16.218,1704.9603544275,11.811024,0.894776,0,0,0,-1.342164,276, -0.2, 0.4,0,0,1024,1024,1192,1024,0,0,25,0,301.5,-17.8,-30.4,99,4.071,4.098,4.086,4.073,0,0,17.808,85.91,1704.9603544275,11.811024,6,P-GPS,
15600,2025-09-03 16:17:07,0,0,12.139108,,,1705.2884384275,12.467192,0,0,0,8,2,16.218,1705.2884384275,12.139108,0.894776,0,0,0,-1.342164,276, 0, 0.6,0,0,1024,1024,1196,1024,0,0,26,0,300.7,-18,-30.5,99,4.071,4.098,4.086,4.073,0,0,17.808,85.91,1705.2884384275,12.139108,6,P-GPS,
15700,2025-09-03 16:17:07,0,0,12.467192,,,1705.6165224275,12.795276,0,0,0,8,2,16.218,1705.6165224275,12.467192,0.894776,0,0,0,-1.342164,276, 0.1, 0.3,0,0,1024,1024,1199,1024,0,0,27,0,300.5,-18.3,-30.6,99,4.071,4.098,4.086,4.073,0,0,17.808,85.91,1705.6165224275,12.467192,6,P-GPS,
15800,2025-09-03 16:17:07,0,0,12.467192,,,1705.6165224275,12.795276,0,0,0,8,2,16.218,1705.6165224275,12.467192,0.894776,0,0,0,-1.342164,276, 0.2, 0.4,0,0,1024,1024,1194,1024,0,0,26,0,300.7,-17.8,-30.6,99,4.071,4.098,4.086,4.073,0,0,17.808,85.91,1705.6165224275,12.467192,6,P-GPS,
15900,2025-09-03 16:17:07,0,0,12.795276,,,1705.9446064275,13.12336,0,0,0,10,2,16.218,1705.9446064275,12.795276,0.894776,0,0,0,-1.342164,276, 0.5, 0.4,0,0,1024,1024,1205,1024,0,0,27,0,300.6,-17.8,-30.6,99,4.071,4.098,4.086,4.073,0,0,17.808,85.91,1705.9446064275,12.795276,6,P-GPS,
16000,2025-09-03 16:17:07,0,0,12.795276,,,1705.9446064275,13.451444,0,0,0,10,2,16.218,1705.9446064275,12.795276,0.894776,0,0,0,-1.342164,276, 0.7, 0,0,0,1024,1024,1199,1024,0,0,27,0,300.6,-17.8,-30.6,99,4.071,4.098,4.086,4.073,0,0,17.808,85.91,1705.9446064275,12.795276,6,P-GPS,
16100,2025-09-03 16:17:07,0,0,13.12336,,,1706.2726904275,13.451444,0,0,0,11,2,16.218,1706.2726904275,13.12336,0.894776,0,0,0,-1.342164,276, 0.5, 0,0,0,1024,1024,1192,1024,0,0,25,0,299.8,-18.3,-30.6,99,4.071,4.098,4.086,4.073,0,0,17.808,85.91,1706.2726904275,13.12336,6,P-GPS,
16200,2025-09-03 16:17:07,0,0,13.451444,,,1706.6007744275,13.779528,0,0,0,11,2,16.218,1706.6007744275,13.451444,0.894776,0,0,0,-1.342164,276, 0.3, 0,0,0,1024,1024,1223,1024,0,0,30,0,299.8,-18.3,-31,99,4.071,4.098,4.086,4.073,0,0,17.808,85.91,1706.6007744275,13.451444,6,P-GPS,
16300,2025-09-03 16:17:07,0,0,13.779528,,,1706.9288584275,14.107612,0,0,0,10,2,16.192,1706.9288584275,13.779528,0.894776,0,0,0,-1.342164,276, 0.2, 0,0,0,1024,1024,1243,1024,0,0,33,0,300,-18.3,-31,99,4.064,4.093,4.083,4.071,0,0,17.402,85.91,1706.9288584275,13.779528,6,P-GPS,
16400,2025-09-03 16:17:07,0,0,13.779528,,,1706.9288584275,14.435696,0,0,0,10,2,16.192,1706.9288584275,13.779528,0.894776,0,0,0,-1.342164,276, 0.3, 0.2,0,0,1024,1024,1229,1024,0,0,31,0,300,-18.3,-30.7,99,4.064,4.093,4.083,4.071,0,0,17.402,85.91,1706.9288584275,13.779528,6,P-GPS,
16500,2025-09-03 16:17:08,0,0,14.107612,,,1707.2569424275,14.435696,0,0,0,10,2,16.192,1707.2569424275,14.107612,0.894776,0,0,0,-1.789552,276, 0.4, 0,0,0,1024,1024,1230,1024,0,0,31,0,299.6,-18.5,-30.7,99,4.064,4.093,4.083,4.071,0,0,17.402,85.91,1707.2569424275,14.107612,6,P-GPS,
16600,2025-09-03 16:17:08,0,0,14.435696,,,1707.5850264275,14.76378,0,0,0,10,2,16.192,1707.5850264275,14.435696,0.894776,0,0,0,-1.789552,275.9, 0.6, 0,0,0,1024,1024,1232,1024,0,0,32,0,299.1,-18.6,-30.9,99,4.064,4.093,4.083,4.071,0,0,17.402,85.91,1707.5850264275,14.435696,6,P-GPS,
16700,2025-09-03 16:17:08,0,0,14.76378,,,1707.9131104275,15.091864,0,0,0,10,2,16.192,1707.9131104275,14.76378,0.894776,0,0,0,-1.789552,275.9, 0.8, 0,0,0,1024,1024,1230,1024,0,0,31,0,299.5,-18.2,-31.3,99,4.064,4.093,4.083,4.071,0,0,17.402,85.91,1707.9131104275,14.76378,6,P-GPS,
16800,2025-09-03 16:17:08,0,0,15.091864,,,1708.2411944275,15.419948,0,0,0,10,2,16.192,1708.2411944275,15.091864,0.894776,0,0,0,-1.789552,276, 0.9, -0.4,0,0,1024,1024,1236,1024,0,0,32,0,299.4,-18.4,-31.6,99,4.064,4.093,4.083,4.071,0,0,17.402,85.91,1708.2411944275,15.091864,6,P-GPS,
16900,2025-09-03 16:17:08,0,0,15.091864,,,1708.2411944275,15.748032,0,0,0,10,2,16.192,1708.2411944275,15.091864,0.894776,0,0,0,-1.789552,276, 0.6, -0.5,0,0,1024,1024,1231,1024,0,0,31,0,298.7,-19.2,-31.6,99,4.064,4.093,4.083,4.071,0,0,17.402,85.91,1708.2411944275,15.091864,6,P-GPS,
17000,2025-09-03 16:17:08,0,0,15.419948,,,1708.5692784275,16.076116,0,0,0,10,2,16.192,1708.5692784275,15.419948,0.894776,0,0,0,-1.789552,276, 0.2, -0.5,0,0,1024,1024,1231,1024,0,0,31,0,298.7,-19.3,-31.4,99,4.064,4.093,4.083,4.071,0,0,17.402,85.91,1708.5692784275,15.419948,6,P-GPS,
17100,2025-09-03 16:17:08,0,0,15.748032,,,1708.8973624275,16.4042,0,0,0,11,2,16.192,1708.8973624275,15.748032,0.894776,0,0,0,-2.013246,275.9, 0, -0.6,0,0,1024,1024,1227,1024,0,0,31,0,298.9,-19.4,-31.9,99,4.064,4.093,4.083,4.071,0,0,17.402,85.91,1708.8973624275,15.748032,6,P-GPS,
17200,2025-09-03 16:17:08,0,0,16.076116,,,1709.2254464275,16.732284,0,0,0,11,2,16.192,1709.2254464275,16.076116,0.894776,0,0,0,-2.013246,275.9, -0.2, -0.8,0,0,1024,1024,1227,1024,0,0,31,0,298.9,-19.4,-31.9,99,4.064,4.093,4.083,4.071,0,0,17.402,85.91,1709.2254464275,16.076116,6,P-GPS,
17300,2025-09-03 16:17:08,0,0,16.4042,,,1709.5535304275,17.060368,0,0,0,11,2,16.176,1709.5535304275,16.4042,0.894776,0,0,0,-2.013246,275.9, 0, -0.7,0,0,1024,1024,1226,1024,0,0,31,0,298.1,-19.6,-31.7,99,4.064,4.093,4.083,4.071,0,0,17.402,85.91,1709.5535304275,16.4042,6,P-GPS,
17400,2025-09-03 16:17:08,0,0,16.732284,,,1709.8816144275,17.388452,0,0,0,11,2,16.176,1709.8816144275,16.732284,0.894776,0,0,0,-2.013246,275.9, 0.2, -0.8,0,0,1024,1024,1224,1024,0,0,30,0,298,-19.6,-31.5,99,4.064,4.093,4.083,4.071,0,0,17.402,85.91,1709.8816144275,16.732284,6,P-GPS,
17500,2025-09-03 16:17:08,0,0,17.060368,,,1710.2096984275,17.716536,0.223694,0,0,11,2,16.176,1710.2096984275,17.060368,0.894776,0,-0.223694,0,-1.789552,275.9, 0.1, 0,0,0,1024,1024,1223,1024,0,0,30,0,299.3,-19,-31,99,4.064,4.093,4.083,4.071,0,0,17.402,85.91,1710.2096984275,17.060368,6,P-GPS,
17600,2025-09-03 16:17:09,0,0,17.388452,,,1710.5377824275,18.04462,0,0,0,11,2,16.176,1710.5377824275,17.388452,0.894776,0,0,0,-1.789552,275.9, 0, 1,0,0,1024,1024,1199,1024,0,0,27,0,299.5,-18.9,-30.2,99,4.064,4.093,4.083,4.071,0,0,17.402,85.91,1710.5377824275,17.388452,6,P-GPS,
17700,2025-09-03 16:17:09,0,0,17.716536,,,1710.8658664275,18.372704,0,0,0,9,2,16.176,1710.8658664275,17.716536,0.894776,0,0,0,-1.789552,275.9, 0, 1.1,0,0,1024,1024,1199,1024,0,0,27,0,298.2,-19.4,-29.9,99,4.064,4.093,4.083,4.071,0,0,17.402,85.91,1710.8658664275,17.716536,6,P-GPS,
17800,2025-09-03 16:17:09,0,0,17.716536,,,1710.8658664275,18.700788,0,0,0,9,2,16.176,1710.8658664275,17.716536,0.894776,0,0,0,-1.789552,275.8, 0.2, 0.7,0,0,1024,1024,1201,1024,0,0,27,0,298.5,-19,-30.4,99,4.064,4.093,4.083,4.071,0,0,17.402,85.91,1710.8658664275,17.716536,6,P-GPS,
17900,2025-09-03 16:17:09,0,0,18.04462,,,1711.1939504275,19.028872,0,0,0,11,2,16.176,1711.1939504275,18.04462,0.894776,0,0,0,-1.565858,275.8, 0.3, 0.5,0,0,1024,1024,1205,1024,0,0,27,0,298.5,-18.9,-30.7,99,4.064,4.093,4.083,4.071,0,0,17.402,85.91,1711.1939504275,18.04462,6,P-GPS,
18000,2025-09-03 16:17:09,0,0,18.372704,,,1711.5220344275,19.356956,0,0,0,11,2,16.176,1711.5220344275,18.372704,0.894776,0,0,0,-1.565858,275.8, 0.4, 0.5,0,0,1024,1024,1204,1024,0,0,27,0,298.2,-19,-30.6,99,4.064,4.093,4.083,4.071,0,0,17.402,85.91,1711.5220344275,18.372704,6,P-GPS,
18100,2025-09-03 16:17:09,0,0,18.700788,,,1711.8501184275,19.356956,0,0,0,10,2,16.176,1711.8501184275,18.700788,0.894776,0,0,0,-1.565858,275.8, 0.4, 0.6,0,0,1024,1024,1208,1024,0,0,28,0,298,-18.8,-30.5,99,4.064,4.093,4.083,4.071,0,0,17.402,85.91,1711.8501184275,18.700788,6,P-GPS,
18200,2025-09-03 16:17:09,0,0,19.028872,,,1712.1782024275,19.68504,0,0,0,10,2,16.176,1712.1782024275,19.028872,0.894776,0,0,0,-1.565858,275.9, 0.6, 0.8,0,0,1024,1024,1207,1024,0,0,28,0,298.2,-18.5,-30.1,99,4.064,4.093,4.083,4.071,0,0,17.402,85.91,1712.1782024275,19.028872,6,P-GPS,
18300,2025-09-03 16:17:09,0,0,19.028872,,,1712.1782024275,20.013124,0,0,0,10,2,16.147,1712.1782024275,19.028872,0.894776,0,0,0,-1.565858,275.9, 0.6, 0.7,0,0,1024,1024,1206,1024,0,0,28,0,298.2,-18.5,-30.3,99,4.067,4.094,4.075,4.049,0,0,18.31,85.91,1712.1782024275,19.028872,6,P-GPS,
18400,2025-09-03 16:17:09,0,0,19.356956,,,1712.5062864275,20.341208,0,0,0,10,2,16.147,1712.5062864275,19.356956,0.894776,0,0,0,-1.565858,275.9, 0.7, 0.2,0,0,1024,1024,1205,1024,0,0,27,0,298.3,-18.7,-30.7,99,4.067,4.094,4.075,4.049,0,0,18.31,85.91,1712.5062864275,19.356956,6,P-GPS,
18500,2025-09-03 16:17:09,0,0,19.68504,,,1712.8343704275,20.669292,0,0,0,10,2,16.147,1712.8343704275,19.68504,0.894776,0,0,0,-1.565858,276, 0.5, 0,0,0,1024,1024,1209,1024,0,0,28,0,298.3,-18.7,-30.7,99,4.067,4.094,4.075,4.049,0,0,18.31,85.91,1712.8343704275,19.68504,6,P-GPS,
18600,2025-09-03 16:17:10,0,0,19.68504,,,1712.8343704275,20.669292,0,0,0,10,2,16.147,1712.8343704275,19.68504,0.894776,0,0,0,-1.565858,276, 0.3, 0,0,0,1024,1024,1207,1024,0,0,28,0,298,-19,-31.5,99,4.067,4.094,4.075,4.049,0,0,18.31,85.91,1712.8343704275,19.68504,6,P-GPS,
18700,2025-09-03 16:17:10,0,0,20.013124,,,1713.1624544275,20.997376,0,0,0,8,2,16.147,1713.1624544275,20.013124,0.894776,0,0,0,-1.565858,276, 0.2, 0,0,0,1024,1024,1207,1024,0,0,28,0,297.5,-19.2,-31.2,99,4.067,4.094,4.075,4.049,0,0,18.31,85.91,1713.1624544275,20.013124,6,P-GPS,
18800,2025-09-03 16:17:10,0,0,20.341208,,,1713.4905384275,21.32546,0,0,0,8,2,16.147,1713.4905384275,20.341208,0.894776,0,0,0,-1.565858,276, 0, 0,0,0,1024,1024,1216,1024,0,0,29,0,297.5,-19.5,-31.5,99,4.067,4.094,4.075,4.049,0,0,18.31,85.91,1713.4905384275,20.341208,6,P-GPS,
18900,2025-09-03 16:17:10,0,0,20.341208,,,1713.4905384275,21.653544,0,0,0,9,2,16.147,1713.4905384275,20.341208,0.894776,0,0,0,-1.565858,276, 0, 0,0,0,1024,1024,1216,1024,0,0,29,0,297.4,-19.6,-31.4,99,4.067,4.094,4.075,4.049,0,0,18.31,85.91,1713.4905384275,20.341208,6,P-GPS,
19000,2025-09-03 16:17:10,0,0,20.669292,,,1713.8186224275,21.981628,0,0,0,9,2,16.147,1713.8186224275,20.669292,0.894776,0,0,0,-1.565858,276.1, 0, 0,0,0,1024,1024,1219,1024,0,0,30,0,297.2,-19.7,-31.5,99,4.067,4.094,4.075,4.049,0,0,18.31,85.91,1713.8186224275,20.669292,6,P-GPS,
19100,2025-09-03 16:17:10,0,0,20.997376,,,1714.1467064275,22.309712,0,0,0,9,2,16.147,1714.1467064275,20.997376,0.894776,0,0,0,-1.565858,276.1, 0, 0,0,0,1024,1024,1211,1024,0,0,28,0,296.8,-19.8,-31.4,99,4.067,4.094,4.075,4.049,0,0,18.31,85.91,1714.1467064275,20.997376,6,P-GPS,
19200,2025-09-03 16:17:10,0,0,21.32546,,,1714.4747904275,22.309712,0,0,0,9,2,16.147,1714.4747904275,21.32546,0.894776,0,0,0,-1.565858,276.1, 0.2, 0,0,0,1024,1024,1210,1024,0,0,28,0,296.9,-19.7,-31.2,99,4.067,4.094,4.075,4.049,0,0,18.31,85.91,1714.4747904275,21.32546,6,P-GPS,
19300,2025-09-03 16:17:10,0,0,21.32546,,,1714.4747904275,22.637796,0,0,0,10,2,16.138,1714.4747904275,21.32546,0.894776,0,0,0,-1.565858,276.1, 0.2, 0.1,0,0,1024,1024,1214,1024,0,0,29,0,296.8,-19.8,-30.6,99,4.058,4.087,4.074,4.057,0,0,17.126,87.71,1714.4747904275,21.32546,6,P-GPS,
19400,2025-09-03 16:17:10,0,0,21.653544,,,1714.8028744275,22.96588,0,0,0,10,2,16.138,1714.8028744275,21.653544,0.894776,0,0,0,-1.565858,276.1, 0.1, 0.2,0,0,1024,1024,1207,1024,0,0,28,0,296.8,-19.9,-30.4,99,4.058,4.087,4.074,4.057,0,0,17.126,87.71,1714.8028744275,21.653544,6,P-GPS,
19500,2025-09-03 16:17:11,0,0,21.981628,,,1715.1309584275,23.293964,0,0,0,10,2,16.138,1715.1309584275,21.981628,0.894776,0,0,0,-1.565858,276.1, 0.1, 0.2,0,0,1024,1024,1206,1024,0,0,28,0,297.4,-19.4,-30.9,99,4.058,4.087,4.074,4.057,0,0,17.126,87.71,1715.1309584275,21.981628,6,P-GPS,
19600,2025-09-03 16:17:11,0,0,21.981628,,,1715.1309584275,23.622048,0,0,0,10,2,16.138,1715.1309584275,21.981628,0.894776,0,0,0,-1.565858,276.1, 0.4, 0.1,0,0,1024,1024,1207,1024,0,0,28,0,296.8,-19.7,-30.7,99,4.058,4.087,4.074,4.057,0,0,17.126,87.71,1715.1309584275,21.981628,6,P-GPS,
19700,2025-09-03 16:17:11,0,0,22.309712,,,1715.4590424275,23.950132,0,0,0,10,2,16.138,1715.4590424275,22.309712,0.894776,0,0,0,-1.565858,276.2, 0.5, 0,0,0,1024,1024,1215,1024,0,0,29,0,296.6,-19.9,-30.6,99,4.058,4.087,4.074,4.057,0,0,17.126,87.71,1715.4590424275,22.309712,6,P-GPS,
19800,2025-09-03 16:17:11,0,0,22.637796,,,1715.7871264275,23.950132,0,0,0,10,2,16.138,1715.7871264275,22.637796,0.894776,0,0,0,-1.565858,276.2, 0.3, 0.3,0,0,1024,1024,1223,1024,0,0,30,0,296.1,-20.4,-30.9,99,4.058,4.087,4.074,4.057,0,0,17.126,87.71,1715.7871264275,22.637796,6,P-GPS,
19900,2025-09-03 16:17:11,0,0,22.96588,,,1716.1152104275,24.278216,0.223694,0,0,9,2,16.138,1716.1152104275,22.96588,0.894776,0,0.223694,0,-1.565858,276.1, 0.2, 0,0,0,1024,1024,1224,1024,0,0,30,0,296.1,-20.4,-30.9,99,4.058,4.087,4.074,4.057,0,0,17.126,87.71,1716.1152104275,22.96588,6,P-GPS,
20000,2025-09-03 16:17:11,0,0,23.293964,,,1716.4432944275,24.6063,0.223694,0,0,9,2,16.138,1716.4432944275,23.293964,0.894776,0,0.223694,0,-1.565858,276.1, 0.2, -0.5,0,0,1024,1024,1226,1024,0,0,31,0,296.3,-20.4,-31.3,99,4.058,4.087,4.074,4.057,0,0,17.126,87.71,1716.4432944275,23.293964,6,P-GPS,
20100,2025-09-03 16:17:11,0,0,23.293964,,,1716.4432944275,24.934384,0,0,0,9,2,16.138,1716.4432944275,23.293964,0.894776,0,0,0,-1.789552,276.1, 0.1, -0.8,0,0,1024,1024,1226,1024,0,0,31,0,295.6,-20.8,-32.2,99,4.058,4.087,4.074,4.057,0,0,17.126,87.71,1716.4432944275,23.293964,6,P-GPS,
20200,2025-09-03 16:17:11,0,0,23.622048,,,1716.7713784275,25.262468,0,0,0,9,2,16.138,1716.7713784275,23.622048,0.894776,0,0,0,-1.789552,276.1, 0, -1,0,0,1024,1024,1226,1024,0,0,31,0,295.8,-20.8,-31.3,99,4.058,4.087,4.074,4.057,0,0,17.126,87.71,1716.7713784275,23.622048,6,P-GPS,
20300,2025-09-03 16:17:11,0,0,23.950132,,,1717.0994624275,25.590552,0,0,0,9,2,16.149,1717.0994624275,23.950132,0.894776,0,0,0,-1.789552,276.1, 0, -0.5,0,0,1024,1024,1227,1024,0,0,31,0,295.4,-21,-30.7,99,4.045,4.074,4.062,4.047,0,0,17.812,87.71,1717.0994624275,23.950132,6,P-GPS,
20400,2025-09-03 16:17:11,0,0,24.278216,,,1717.4275464275,25.918636,0,0,0,9,2,16.149,1717.4275464275,24.278216,0.894776,0,0,0,-1.789552,276.1, 0.2, -0.1,0,0,1024,1024,1227,1024,0,0,31,0,295.5,-20.7,-31.1,99,4.045,4.074,4.062,4.047,0,0,17.812,87.71,1717.4275464275,24.278216,6,P-GPS,
20500,2025-09-03 16:17:11,0,0,24.6063,,,1717.7556304275,26.24672,0,0,0,8,2,16.149,1717.7556304275,24.6063,0.894776,0,0,0,-1.789552,276.2, 0.4, 0,0,0,1024,1024,1227,1024,0,0,31,0,295.4,-20.4,-30.4,99,4.045,4.074,4.062,4.047,0,0,17.812,87.71,1717.7556304275,24.6063,6,P-GPS,
20600,2025-09-03 16:17:12,0,0,24.934384,,,1718.0837144275,26.574804,0,0,0,8,2,16.149,1718.0837144275,24.934384,0.894776,0,0,0,-1.789552,276.1, 0.7, 0,0,0,1024,1024,1226,1024,0,0,31,0,295,-20.9,-30.5,99,4.045,4.074,4.062,4.047,0,0,17.812,87.71,1718.0837144275,24.934384,6,P-GPS,
20700,2025-09-03 16:17:12,0,0,25.262468,,,1718.4117984275,26.902888,0,0,0,7,2,16.149,1718.4117984275,25.262468,0.894776,0,0,0,-1.789552,276.1, 0.5, 0,0,0,1024,1024,1227,1024,0,0,31,0,294.6,-21.5,-30.7,99,4.045,4.074,4.062,4.047,0,0,17.812,87.71,1718.4117984275,25.262468,6,P-GPS,
20800,2025-09-03 16:17:12,0,0,25.262468,,,1718.4117984275,27.230972,0,0,0,7,2,16.149,1718.4117984275,25.262468,0.894776,0,0,0,-1.789552,276.2, 0.1, 0,0,0,1024,1024,1227,1024,0,0,31,0,295.7,-20.9,-31,99,4.045,4.074,4.062,4.047,0,0,17.812,87.71,1718.4117984275,25.262468,6,P-GPS,
20900,2025-09-03 16:17:12,0,0,25.590552,,,1718.7398824275,27.230972,0,0,0,8,2,16.149,1718.7398824275,25.590552,0.894776,0,0,0,-1.789552,276.2, 0.1, -0.1,0,0,1024,1024,1225,1024,0,0,30,0,294.6,-21.4,-31,99,4.045,4.074,4.062,4.047,0,0,17.812,87.71,1718.7398824275,25.590552,6,P-GPS,
21000,2025-09-03 16:17:12,0,0,25.918636,,,1719.0679664275,27.559056,0,0,0,8,2,16.149,1719.0679664275,25.918636,0.894776,0,0,0,-1.789552,276.3, 0.3, -0.3,0,0,1024,1024,1225,1024,0,0,30,0,294.7,-21.5,-31.3,99,4.045,4.074,4.062,4.047,0,0,17.812,87.71,1719.0679664275,25.918636,6,P-GPS,
21100,2025-09-03 16:17:12,0,0,26.24672,,,1719.3960504275,27.88714,0,0,0,10,2,16.149,1719.3960504275,26.24672,0.894776,0,0,0,-1.789552,276.3, 0.3, -0.4,0,0,1024,1024,1227,1024,0,0,31,0,294.5,-21.6,-31.3,99,4.045,4.074,4.062,4.047,0,0,17.812,87.71,1719.3960504275,26.24672,6,P-GPS,
21200,2025-09-03 16:17:12,0,0,26.574804,,,1719.7241344275,28.215224,0,0,0,10,2,16.149,1719.7241344275,26.574804,0.894776,0,0,0,-1.789552,276.3, 0.2, -0.4,0,0,1024,1024,1226,1024,0,0,31,0,294.5,-21.6,-31.3,99,4.045,4.074,4.062,4.047,0,0,17.812,87.71,1719.7241344275,26.574804,6,P-GPS,
21300,2025-09-03 16:17:12,0,0,26.902888,,,1720.0522184275,28.543308,0,0,0,9,2,16.107,1720.0522184275,26.902888,0.894776,0,0,0,-1.789552,276.4, 0.3, -0.5,0,0,1024,1024,1223,1024,0,0,30,0,294.6,-21.6,-31.1,99,4.045,4.074,4.062,4.047,0,0,17.812,87.71,1720.0522184275,26.902888,6,P-GPS,
21400,2025-09-03 16:17:12,0,0,27.230972,,,1720.3803024275,28.871392,0,0,0,9,2,16.107,1720.3803024275,27.230972,0.894776,0,0,0,-1.789552,276.4, 0.6, -0.3,0,0,1024,1024,1222,1024,0,0,30,0,294.9,-21.2,-31.1,99,4.045,4.074,4.062,4.047,0,0,17.812,87.71,1720.3803024275,27.230972,6,P-GPS,
21500,2025-09-03 16:17:12,0,0,27.230972,,,1720.3803024275,29.199476,0,0,0,9,2,16.107,1720.3803024275,27.230972,0.894776,0,0,0,-1.789552,276.4, 0.6, -0.2,0,0,1024,1024,1220,1024,0,0,30,0,294.8,-21.2,-31,99,4.045,4.074,4.062,4.047,0,0,17.812,87.71,1720.3803024275,27.230972,6,P-GPS,
21600,2025-09-03 16:17:13,0,0,27.559056,,,1720.7083864275,29.52756,0,0,0,9,2,16.107,1720.7083864275,27.559056,0.894776,0,0,0,-1.789552,276.4, 0.6, -0.4,0,0,1024,1024,1218,1024,0,0,29,0,294,-21.7,-31.8,99,4.045,4.074,4.062,4.047,0,0,17.812,87.71,1720.7083864275,27.559056,6,P-GPS,
21700,2025-09-03 16:17:13,0,0,27.88714,,,1721.0364704275,29.855644,0,0,0,8,2,16.107,1721.0364704275,27.88714,0.894776,0,0,0,-1.789552,276.4, 0.5, -0.6,0,0,1024,1024,1214,1024,0,0,29,0,293.9,-21.8,-31.2,99,4.045,4.074,4.062,4.047,0,0,17.812,87.71,1721.0364704275,27.88714,6,P-GPS,
21800,2025-09-03 16:17:13,0,0,28.215224,,,1721.3645544275,30.183728,0,0,0,8,2,16.107,1721.3645544275,28.215224,0.894776,0,0,0,-1.789552,276.5, 0.1, -0.7,0,0,1024,1024,1221,1024,0,0,30,0,294.6,-21.8,-31.8,99,4.045,4.074,4.062,4.047,0,0,17.812,87.71,1721.3645544275,28.215224,6,P-GPS,
21900,2025-09-03 16:17:13,0,0,28.543308,,,1721.6926384275,30.183728,0,0,0,8,2,16.107,1721.6926384275,28.543308,0.894776,0,0,0,-1.789552,276.5, 0, -0.6,0,0,1024,1024,1225,1024,0,0,30,0,294.7,-21.7,-31.5,99,4.045,4.074,4.062,4.047,0,0,17.812,87.71,1721.6926384275,28.543308,6,P-GPS,
