time(millisecond),datetime(utc),latitude,longitude,height_above_takeoff(feet),height_above_ground_at_drone_location(feet),ground_elevation_at_drone_location(feet),altitude_above_seaLevel(feet),height_sonar(feet),speed(mph),distance(feet),mileage(feet),satellites,gpslevel,voltage(v),max_altitude(feet),max_ascent(feet),max_speed(mph),max_distance(feet), xSpeed(mph), ySpeed(mph), zSpeed(mph), compass_heading(degrees), pitch(degrees), roll(degrees),isPhoto,isVideo,rc_elevator,rc_aileron,rc_throttle,rc_rudder,rc_elevator(percent),rc_aileron(percent),rc_throttle(percent),rc_rudder(percent),gimbal_heading(degrees),gimbal_pitch(degrees),gimbal_roll(degrees),battery_percent,voltageCell1,voltageCell2,voltageCell3,voltageCell4,voltageCell5,voltageCell6,current(A),battery_temperature(f),altitude(feet),ascent(feet),flycStateRaw,flycState,message
318300,2025-09-03 08:29:07,48.1487552828811,11.5721909529768,0,Available with any HD 360 subscription,Available with any HD 360 subscription,1692.9200482679,0.328084,0,0,0,10,4,0,1692.9200482679,0,0,0,0,0,0,118.5, -1.5, -0.3,0,0,1024,1024,1024,1024,0,0,0,0,25.3,-18.8,12.2,61,3.918,3.922,3.922,3.906,0,0,0,125.51,1692.9200482679,0,41,Motors_Started,
318400,2025-09-03 08:29:07,48.148755341225,11.572191015157,0,,,1692.9200482679,0.328084,0,0.0261196202584,0.0261196202584,10,4,0,1692.9200482679,0,0,0.0261196202584,0,0,0,118.1, -1.5, -0.3,0,0,1024,1024,1024,1024,0,0,0,0,25.3,-18.7,12.3,61,3.918,3.922,3.922,3.906,0,0,0,125.51,1692.9200482679,0,41,Motors_Started,
318500,2025-09-03 08:29:07,48.1487553617499,11.5721910448705,0,,,1692.9200482679,0.328084,0,0.036447179644,0.036530841064,10,4,0,1692.9200482679,0,0,0.036447179644,0,0,0,118.5, -1.5, -0.3,0,0,385,385,364,1679,-97,-97,-100,99,25.1,-18.7,12.1,61,3.918,3.922,3.922,3.906,0,0,0,125.51,1692.9200482679,0,41,Motors_Started,
318600,2025-09-03 08:29:07,48.1487553205959,11.5721910237125,0,,,1692.9200482679,0.328084,0,0.0220417329888,0.05240485732,10,4,0,1692.9200482679,0,0,0.036447179644,0,0,0,118.4, -1.5, -0.3,0,0,775,639,806,1351,-38,-58,-33,50,25,-18.7,12,61,3.918,3.922,3.922,3.906,0,0,0,125.51,1692.9200482679,0,41,Motors_Started,
318700,2025-09-03 08:29:08,48.1487552439385,11.5721910768642,0,,,1692.9200482679,0.328084,0,0.033336943324,0.083220803188,10,4,0,1692.9200482679,0,0,0.036447179644,0,0,0,118.4, -1.5, -0.3,0,0,1024,1024,1024,1024,0,0,0,0,25,-18.6,12.1,61,3.918,3.922,3.922,3.906,0,0,0,125.51,1692.9200482679,0,41,Motors_Started,
318800,2025-09-03 08:29:08,48.1487552699024,11.5721910694628,0,,,1692.9200482679,0.328084,0,0.028748524542,0.092863520032,10,4,0,1692.9200482679,0,0,0.036447179644,0,0,0,118.4, -1.5, -0.3,0,0,1024,1024,1024,1024,0,0,0,0,24.9,-18.6,12.1,61,3.918,3.922,3.922,3.906,0,0,0,125.51,1692.9200482679,0,41,Motors_Started,
318900,2025-09-03 08:29:08,48.1487552884846,11.5721910844405,0,,,1692.9200482679,0.328084,0,0.032067094202,0.100561683008,10,4,0,1692.9200482679,0,0,0.036447179644,0,0,0,118.4, -1.5, -0.3,0,0,1024,1024,1024,1024,0,0,0,0,24.8,-18.6,11.9,61,3.918,3.922,3.922,3.906,0,0,0,125.51,1692.9200482679,0,41,Motors_Started,
319000,2025-09-03 08:29:08,48.1487552942704,11.5721911368525,0,,,1692.9200482679,0.328084,0,0.044952757344,0.113493441952,10,4,15.604,1692.9200482679,0,0,0.044952757344,0,0,0,118.4, -1.5, -0.3,0,0,1024,1024,1024,1024,0,0,0,0,24.8,-18.6,11.9,61,3.918,3.922,3.922,3.906,0,0,1.664,125.51,1692.9200482679,0,41,Motors_Started,"Setting new Return-To-Home altitude to 100m (328 ft). Data Recorder File Index is 236. Setting new Maximum Flight Altitude to 150m (492 ft)"
319100,2025-09-03 08:29:08,48.1487552964249,11.5721911596119,0,,,1692.9200482679,0.328084,0,4.7729004152,0.119089242656,10,4,15.604,1692.9200482679,0,0,4.7729004152,0,0,0,118.4, -1.5, -0.3,0,0,1024,1024,1024,1024,0,0,0,0,24.8,-18.6,11.9,61,3.918,3.922,3.922,3.906,0,0,1.664,125.51,1692.9200482679,0,41,Motors_Started,
319200,2025-09-03 08:29:08,48.1487552531245,11.5721911467386,0,,,1692.9200482679,0.328084,0,4.7880250876,0.1351952143,10,4,15.604,1692.9200482679,0,0,4.7880250876,0,0,0,118.4, -1.5, -0.3,0,0,1024,1024,1024,1024,0,0,0,0,24.7,-18.5,12,61,3.918,3.922,3.922,3.906,0,0,1.664,125.51,1692.9200482679,0,41,Motors_Started,
319300,2025-09-03 08:29:08,48.1487552478044,11.5721911442942,0,,,1692.9200482679,0.328084,0,4.789862358,0.137225398092,10,4,15.604,1692.9200482679,0,0,4.789862358,0,0,0,118.4, -1.5, -0.3,0,0,1024,1024,1024,1024,0,0,0,0,24.6,-18.5,11.9,61,3.918,3.922,3.922,3.906,0,0,1.664,125.51,1692.9200482679,0,41,Motors_Started,
319400,2025-09-03 08:29:08,48.1487552411197,11.5721911873597,0,,,1692.9200482679,0.328084,0,4.7938977912,0.147988521796,10,4,15.604,1692.9200482679,0,0,4.7938977912,0,0,0,118.4, -1.5, -0.3,0,0,1024,1024,1024,1024,0,0,0,0,24.5,-18.4,11.9,61,3.918,3.922,3.922,3.906,0,0,1.664,125.51,1692.9200482679,0,41,Motors_Started,
319500,2025-09-03 08:29:08,48.1487552528949,11.5721912210968,0,,,1692.9200482679,0.328084,0,4.7909450352,0.157256894796,10,4,15.604,1692.9200482679,0,0,4.7938977912,0,0,0,118.4, -1.4, -0.3,0,0,1024,1024,1024,1024,0,0,0,0,24.5,-18.4,11.9,61,3.918,3.922,3.922,3.906,0,0,1.664,125.51,1692.9200482679,0,41,Motors_Started,
319600,2025-09-03 08:29:08,48.1487553530866,11.5721912692539,0,,,1692.9200482679,0.328084,0,4.756725874,0.195645675552,10,4,15.604,1692.9200482679,0,0,4.7938977912,0,0,0,118.4, -1.4, -0.3,0,0,1024,1024,1024,1024,0,0,0,0,24.3,-18.4,11.9,61,3.918,3.922,3.922,3.906,0,0,1.664,125.51,1692.9200482679,0,41,Motors_Started,
319700,2025-09-03 08:29:09,48.1487554025913,11.5721912783146,0,,,1692.9200482679,0.328084,0,4.7392389968,0.213841542276,10,4,15.604,1692.9200482679,0,0,4.7938977912,0,0,0,118.4, -1.5, -0.3,0,0,1024,1024,1024,1024,0,0,0,0,24.4,-18.3,11.9,61,3.918,3.922,3.922,3.906,0,0,1.664,125.51,1692.9200482679,0,41,Motors_Started,
319800,2025-09-03 08:29:09,48.1487554672063,11.5721912793172,0,,,1692.9200482679,0.328084,0,4.7160106496,0.237417330432,10,4,15.604,1692.9200482679,0,0,4.7938977912,0,0,0,118.4, -1.5, -0.3,0,0,1024,1024,1024,1024,0,0,0,0,24.2,-18.3,11.8,61,3.918,3.922,3.922,3.906,0,0,1.664,125.51,1692.9200482679,0,10,Assisted_Takeoff,
319900,2025-09-03 08:29:09,48.1487555139182,11.5721912951992,0,,,1692.9200482679,0.328084,0,4.6998361084,0.25489338086,10,4,15.604,1692.9200482679,0,0,4.7938977912,0,0,0,118.4, -1.5, -0.3,0,0,1024,1024,1024,1024,0,0,0,0,24.1,-18.3,11.8,61,3.918,3.922,3.922,3.906,0,0,1.664,125.51,1692.9200482679,0,10,Assisted_Takeoff,
320000,2025-09-03 08:29:09,48.1487555691583,11.5721913985594,0,,,1692.9200482679,0.328084,0,4.6841865016,0.2871309147,10,4,15.495,1692.9200482679,0,0,4.7938977912,0,0,0,118.4, -1.5, -0.3,0,0,1024,1024,1024,1024,0,0,0,0,24.1,-18.2,11.8,61,3.918,3.922,3.922,3.906,0,0,1.664,125.51,1692.9200482679,0,10,Assisted_Takeoff,
320100,2025-09-03 08:29:09,48.1487556061109,11.5721914565295,0,,,1692.9200482679,0.328084,0,4.6733269212,0.306647647608,10,4,15.495,1692.9200482679,0,0,4.7938977912,0,0,0,118.4, -1.4, -0.2,0,0,1024,1024,1024,1024,0,0,0,0,24,-18.2,11.8,61,3.918,3.922,3.922,3.906,0,0,1.664,125.51,1692.9200482679,0,10,Assisted_Takeoff,
320200,2025-09-03 08:29:09,48.148755701598,11.5721915262879,0,,,1692.9200482679,0.328084,0,4.6420277076,0.34540355436,10,4,15.495,1692.9200482679,0,0,4.7938977912,0,0,0,118.4, -1.4, -0.3,0,0,1024,1024,1024,1024,0,0,0,0,23.9,-18.2,11.8,61,3.918,3.922,3.922,3.906,0,0,1.664,125.51,1692.9200482679,0,10,Assisted_Takeoff,
320300,2025-09-03 08:29:09,48.1487557728587,11.5721915655963,0,,,1692.9200482679,0.328084,0,4.6181760008,0.37310696732,10,4,15.495,1692.9200482679,0,0,4.7938977912,0,0,0,118.4, -1.5, -0.2,0,0,1024,1024,1024,1024,0,0,0,0,23.9,-18.2,11.8,61,3.918,3.922,3.922,3.906,0,0,1.664,125.51,1692.9200482679,0,10,Assisted_Takeoff,
320400,2025-09-03 08:29:09,48.1487558322839,11.5721914468113,0,,,1692.9200482679,0.328084,0,4.5916668136,0.40924870076,10,4,15.495,1692.9200482679,0,0,4.7938977912,0,0,0,118.4, -1.5, -0.2,0,0,1024,1024,1024,1024,0,0,0,0,23.9,-18.2,11.8,61,3.918,3.922,3.922,3.906,0,0,1.664,125.51,1692.9200482679,0,10,Assisted_Takeoff,
320500,2025-09-03 08:29:09,48.1487558333733,11.5721914053974,0,,,1692.9200482679,0.328084,0,4.5895342676,0.41933728376,10,4,15.495,1692.9200482679,0,0,4.7938977912,0,0,0,118.3, -1.4, -0.3,0,0,1024,1024,1024,1024,0,0,0,0,23.8,-18.1,11.8,61,3.918,3.922,3.922,3.906,0,0,1.664,125.51,1692.9200482679,0,10,Assisted_Takeoff,
320600,2025-09-03 08:29:09,48.1487558202204,11.5721913798673,0,,,1692.9200482679,0.328084,0,4.593176,0.42719161472,10,4,15.495,1692.9200482679,0,0,4.7938977912,0,0,0,118.3, -1.5, -0.3,0,0,1024,1024,1024,1024,0,0,0,0,23.7,-18.1,11.8,61,3.918,3.922,3.922,3.906,0,0,1.664,125.51,1692.9200482679,0,10,Assisted_Takeoff,
320700,2025-09-03 08:29:10,48.1487558033171,11.5721913591008,0,,,1692.9200482679,0.328084,0,4.5983597272,0.43516405592,10,4,15.495,1692.9200482679,0,0,4.7938977912,0,0,0,118.3, -1.5, -0.2,0,0,1024,1024,1024,1024,0,0,0,0,23.6,-18,11.8,61,3.918,3.922,3.922,3.906,0,0,1.664,125.51,1692.9200482679,0,10,Assisted_Takeoff,
320800,2025-09-03 08:29:10,48.1487557816442,11.5721913459546,0,,,1692.9200482679,0.328084,0,4.6056103836,0.44369423992,10,4,15.495,1692.9200482679,0,0,4.7938977912,0,0,0,118.3, -1.5, -0.2,0,0,1024,1024,1024,1024,0,0,0,0,23.5,-18,11.7,61,3.918,3.922,3.922,3.906,0,0,1.664,125.51,1692.9200482679,0,10,Assisted_Takeoff,
320900,2025-09-03 08:29:10,48.1487556497337,11.5721912643092,0,,,1692.9200482679,0.328084,0,4.6497376816,0.49576445156,10,4,15.495,1692.9200482679,0,0,4.7938977912,0,0,0,118.3, -1.5, -0.3,0,0,1024,1024,1024,1024,0,0,0,0,23.4,-18,11.6,61,3.918,3.922,3.922,3.906,0,0,1.664,125.51,1692.9200482679,0,10,Assisted_Takeoff,
321000,2025-09-03 08:29:10,48.1487556337912,11.5721912610202,0,,,1692.9200482679,0.328084,0,4.655347918,0.50163715516,10,4,15.461,1692.9200482679,0,0,4.7938977912,0,0,0,118.3, -1.5, -0.3,0,0,1024,1024,1024,1024,0,0,0,0,23.4,-17.9,11.6,61,3.887,3.899,3.9,3.883,0,0,4.644,125.51,1692.9200482679,0,10,Assisted_Takeoff,
321100,2025-09-03 08:29:10,48.1487556384844,11.5721912779211,0,,,1692.9200482679,0.328084,0,4.6543308576,0.50609253588,10,4,15.461,1692.9200482679,0,0,4.7938977912,0,0,0,118.3, -1.5, -0.3,0,0,1024,1024,1024,1024,0,0,0,0,23.3,-17.9,11.6,61,3.887,3.899,3.9,3.883,0,0,4.644,125.51,1692.9200482679,0,10,Assisted_Takeoff,
321200,2025-09-03 08:29:10,48.1487556808565,11.5721913306677,0,,,1692.9200482679,0.328084,0,4.641240306,0.52618768088,10,4,15.461,1692.9200482679,0,0,4.7938977912,0,0,0,118.3, -1.5, -0.3,0,0,1024,1024,1024,1024,0,0,0,0,23.2,-17.9,11.6,61,3.887,3.899,3.9,3.883,0,0,4.644,125.51,1692.9200482679,0,10,Assisted_Takeoff,
321300,2025-09-03 08:29:10,48.1487557661854,11.5721914859211,0,,,1692.9200482679,0.328084,0,4.6170933236,0.57515421788,10,4,15.461,1692.9200482679,0,0,4.7938977912,0,0,0,118.3, -1.4, -0.3,0,0,1024,1024,1024,1024,0,0,0,0,23.1,-17.9,11.6,61,3.887,3.899,3.9,3.883,0,0,4.644,125.51,1692.9200482679,0,10,Assisted_Takeoff,
321400,2025-09-03 08:29:10,48.1487557808023,11.5721915567368,0,,,1692.9200482679,0.328084,0,4.6149279692,0.59319883788,10,4,15.461,1692.9200482679,0,0,4.7938977912,0,0,0,118.3, -1.4, -0.3,0,0,1024,1024,1024,1024,0,0,0,0,23.1,-17.8,11.6,61,3.887,3.899,3.9,3.883,0,0,4.644,125.51,1692.9200482679,0,10,Assisted_Takeoff,
321500,2025-09-03 08:29:10,48.1487557887165,11.5721916051734,0,,,1692.9200482679,0.328084,0,4.6142718012,0.60533794588,10,4,15.461,1692.9200482679,0,0,4.7938977912,0,0,0,118.3, -1.4, -0.3,0,0,1024,1024,1024,1024,0,0,0,0,23.1,-17.8,11.6,61,3.887,3.899,3.9,3.883,0,0,4.644,125.51,1692.9200482679,0,10,Assisted_Takeoff,
321600,2025-09-03 08:29:10,48.1487557870913,11.5721916223267,0,,,1692.9200482679,0.328084,0,4.6156169456,0.60955382528,10,4,15.461,1692.9200482679,0,0,4.7938977912,0,0,0,118.3, -1.5, -0.3,0,0,1024,1024,1024,1024,0,0,0,0,23,-17.8,11.6,61,3.887,3.899,3.9,3.883,0,0,4.644,125.51,1692.9200482679,0,10,Assisted_Takeoff,
321700,2025-09-03 08:29:11,48.1487557800841,11.5721916961876,0,,,1692.9200482679,0.328084,0,4.6214896492,0.62771655552,10,4,15.461,1692.9200482679,0,0,4.7938977912,0,0,0,118.3, -1.4, -0.3,0,0,1024,1024,1024,1024,0,0,0,0,22.9,-17.8,11.4,61,3.887,3.899,3.9,3.883,0,0,4.644,125.51,1692.9200482679,0,10,Assisted_Takeoff,
321800,2025-09-03 08:29:11,48.1487558271576,11.5721917424716,0,,,1692.9200482679,0.328084,0,4.6067586776,0.64825461392,10,4,15.461,1692.9200482679,0,0,4.7938977912,0,0,0,118.3, -1.4, -0.3,0,0,1024,1024,1024,1024,0,0,0,0,22.8,-17.7,11.4,61,3.887,3.899,3.9,3.883,0,0,4.644,125.51,1692.9200482679,0,10,Assisted_Takeoff,
321900,2025-09-03 08:29:11,48.1487558797596,11.5721917727489,0,,,1692.9200482679,0.328084,0,4.5893374172,0.66881235736,10,4,15.461,1692.9200482679,0,0,4.7938977912,0,0,0,118.3, -1.4, -0.2,0,0,1024,1024,1024,1024,0,0,0,0,22.8,-17.7,11.3,61,3.887,3.899,3.9,3.883,0,0,4.644,125.51,1692.9200482679,0,10,Assisted_Takeoff,
322000,2025-09-03 08:29:11,48.1487559441906,11.5721917769744,0,,,1692.9200482679,0.328084,0,4.5664699624,0.69234254184,10,4,15.594,1692.9200482679,0,0,4.7938977912,0,0,0,118.3, -1.4, -0.2,0,0,1024,1024,1024,1024,0,0,0,0,22.7,-17.7,11.4,61,3.91,3.917,3.915,3.897,0,0,2.406,125.51,1692.9200482679,0,10,Assisted_Takeoff,
322100,2025-09-03 08:29:11,48.1487561609267,11.5721915018156,0,,,1692.9200482679,0.328084,0,4.4761484372,0.79597443492,10,4,15.594,1692.9200482679,0,0,4.7938977912,0,0,0,118.3, -1.5, -0.2,0,0,1024,1024,1024,1024,0,0,0,0,22.6,-17.7,11.2,61,3.91,3.917,3.915,3.897,0,0,2.406,125.51,1692.9200482679,0,10,Assisted_Takeoff,
322200,2025-09-03 08:29:11,48.1487562225552,11.5721913865175,0,,,1692.9200482679,0.328084,0,4.4489502736,0.831939003,10,4,15.594,1692.9200482679,0,0,4.7938977912,0,0,0,118.3, -1.5, -0.2,0,0,1024,1024,1024,1024,0,0,0,0,22.5,-17.6,11.3,61,3.91,3.917,3.915,3.897,0,0,2.406,125.51,1692.9200482679,0,10,Assisted_Takeoff,
322300,2025-09-03 08:29:11,48.1487562800002,11.5721913510788,0,,,1692.9200482679,0.328084,0,4.4267717952,0.85460304572,10,4,15.594,1692.9200482679,0,0,4.7938977912,0,0,0,118.3, -1.4, -0.3,0,0,1024,1024,1024,1024,0,0,0,0,22.5,-17.6,11.3,61,3.91,3.917,3.915,3.897,0,0,2.406,125.51,1692.9200482679,0,10,Assisted_Takeoff,
322400,2025-09-03 08:29:11,48.1487563368638,11.5721914604362,0,,,1692.9200482679,0.328084,0,4.4111878052,0.8883530468,10,4,15.594,1692.9200482679,0,0,4.7938977912,0,0,0,118.3, -1.4, -0.3,0,0,1024,1024,1024,1024,0,0,0,0,22.4,-17.6,11.3,61,3.91,3.917,3.915,3.897,0,0,2.406,125.51,1692.9200482679,0,10,Assisted_Takeoff,
322500,2025-09-03 08:29:11,48.1487564083883,11.5721915637031,0,,,1692.9200482679,0.328084,0,4.3902888544,0.92458664376,10,4,15.594,1692.9200482679,0,0,4.7938977912,0,0,0,118.3, -1.5, -0.3,0,0,1024,1024,1024,1024,0,0,0,0,22.3,-17.5,11.3,61,3.91,3.917,3.915,3.897,0,0,2.406,125.51,1692.9200482679,0,10,Assisted_Takeoff,
322600,2025-09-03 08:29:12,48.1487566364193,11.5721919868482,0,,,1692.9200482679,0.328084,0,4.3298557816,1.05699478448,10,4,15.594,1692.9200482679,0,0,4.7938977912,0,0,0,118.3, -1.5, -0.3,0,0,1024,1024,1024,1024,0,0,0,0,22.2,-17.5,11.2,61,3.91,3.917,3.915,3.897,0,0,2.406,125.51,1692.9200482679,0,10,Assisted_Takeoff,
322700,2025-09-03 08:29:12,48.1487567290615,11.5721920772046,0,,,1692.9200482679,0.328084,0,4.3017389828,1.09732286976,9,4,15.594,1692.9200482679,0,0,4.7938977912,0,0,0,118.3, -1.4, -0.3,0,0,1024,1024,1024,1024,0,0,0,0,22.2,-17.5,11.2,61,3.91,3.917,3.915,3.897,0,0,2.406,125.51,1692.9200482679,0,10,Assisted_Takeoff,
322800,2025-09-03 08:29:12,48.1487568007635,11.5721921567312,0,,,1692.9200482679,0.328084,0,4.28067599,1.12986552172,9,4,15.594,1692.9200482679,0,0,4.7938977912,0,0,0,118.3, -1.4, -0.3,0,0,1024,1024,1024,1024,0,0,0,0,22.2,-17.5,11.2,61,3.91,3.917,3.915,3.897,0,0,2.406,125.51,1692.9200482679,0,10,Assisted_Takeoff,
322900,2025-09-03 08:29:12,48.1487568440508,11.5721922090028,0,,,1692.9200482679,0.328084,0,4.2682416064,1.1501476746,9,4,15.594,1692.9200482679,0,0,4.7938977912,0,0,0,118.3, -1.4, -0.3,0,0,1024,1024,1024,1024,0,0,0,0,22.1,-17.5,11.2,61,3.91,3.917,3.915,3.897,0,0,2.406,125.51,1692.9200482679,0,10,Assisted_Takeoff,
323000,2025-09-03 08:29:12,48.1487567358896,11.5721921699322,0,,,1692.9200482679,0.328084,0,4.3044292716,1.19074150792,9,4,15.597,1692.9200482679,0,0,4.7938977912,0,0,0,118.3, -1.4, -0.3,0,0,1024,1024,1024,1024,0,0,0,0,22,-17.4,11.1,61,3.913,3.917,3.917,3.899,0,0,2.1,125.51,1692.9200482679,0,10,Assisted_Takeoff,
323100,2025-09-03 08:29:12,48.1487567275096,11.5721921677484,0,,,1692.9200482679,0.328084,0,4.3072836024,1.19384190172,9,4,15.597,1692.9200482679,0,0,4.7938977912,0,0,0,118.3, -1.4, -0.2,0,0,1024,1024,1024,1024,0,0,0,0,21.9,-17.4,11.1,61,3.913,3.917,3.917,3.899,0,0,2.1,125.51,1692.9200482679,0,10,Assisted_Takeoff,
323200,2025-09-03 08:29:12,48.1487567064766,11.5721921509735,0,,,1692.9200482679,0.328084,0,4.3138452824,1.20253612772,9,4,15.597,1692.9200482679,0,0,4.7938977912,0,0,0,118.3, -1.4, -0.2,0,0,1024,1024,1024,1024,0,0,0,0,21.8,-17.4,11.1,61,3.913,3.917,3.917,3.899,0,0,2.1,125.51,1692.9200482679,0,10,Assisted_Takeoff,
323300,2025-09-03 08:29:12,48.1487566837956,11.5721921322107,0,,,1692.9200482679,0.328084,0,4.32086628,1.21198822776,9,4,15.597,1692.9200482679,0,0,4.7938977912,0,0,0,118.3, -1.5, -0.3,0,0,1024,1024,1024,1024,0,0,0,0,21.8,-17.3,11,61,3.913,3.917,3.917,3.899,0,0,2.1,125.51,1692.9200482679,0,10,Assisted_Takeoff,
323400,2025-09-03 08:29:12,48.1487564823897,11.5721919633458,0,,,1692.9200482679,0.328084,0,4.3834975156,1.29618770552,9,4,15.597,1692.9200482679,0,0,4.7938977912,0,0,0,118.3, -1.5, -0.3,0,0,1024,1024,1024,1024,0,0,0,0,21.7,-17.3,11.1,61,3.913,3.917,3.917,3.899,0,0,2.1,125.51,1692.9200482679,0,10,Assisted_Takeoff,
323500,2025-09-03 08:29:12,48.1487564632669,11.572191983784,0,,,1692.9200482679,0.328084,0,4.39140434,1.3047572596,9,4,15.597,1692.9200482679,0,0,4.7938977912,0,0,0,118.3, -1.5, -0.2,0,0,1024,1024,1024,1024,0,0,0,0,21.6,-17.3,11,61,3.913,3.917,3.917,3.899,0,0,2.1,125.51,1692.9200482679,0,10,Assisted_Takeoff,
323600,2025-09-03 08:29:12,48.1487564501416,11.5721920760458,0,,,1692.9200482679,0.328084,0,4.400918776,1.32771985876,9,4,15.597,1692.9200482679,0,0,4.7938977912,0,0,0,118.3, -1.4, -0.2,0,0,1024,1024,1024,1024,0,0,0,0,21.5,-17.3,11,61,3.913,3.917,3.917,3.899,0,0,2.1,125.51,1692.9200482679,0,10,Assisted_Takeoff,
323700,2025-09-03 08:29:13,48.1487564399752,11.5721921433768,0,,,1692.9200482679,0.328084,0,4.4081694324,1.34452432124,9,4,15.597,1692.9200482679,0,0,4.7938977912,0,0,0,118.3, -1.4, -0.3,0,0,1024,1024,1024,1024,0,0,0,0,21.5,-17.2,10.9,61,3.913,3.917,3.917,3.899,0,0,2.1,125.51,1692.9200482679,0,10,Assisted_Takeoff,
323800,2025-09-03 08:29:13,48.1487563985134,11.5721922720033,0,,,1692.9200482679,0.328084,0,4.42995421,1.3792979444,9,4,15.597,1692.9200482679,0,0,4.7938977912,0,0,0,118.3, -1.4, -0.3,0,0,1024,1024,1024,1024,0,0,0,0,21.4,-17.2,10.9,61,3.913,3.917,3.917,3.899,0,0,2.1,125.51,1692.9200482679,0,10,Assisted_Takeoff,
323900,2025-09-03 08:29:13,48.14875641634,11.5721922843702,0,,,1692.9200482679,0.328084,0,4.4243111652,1.3864665798,9,4,15.597,1692.9200482679,0,0,4.7938977912,0,0,0,118.3, -1.5, -0.2,0,0,1024,1024,1024,1024,0,0,0,0,21.4,-17.2,10.9,61,3.913,3.917,3.917,3.899,0,0,2.1,125.51,1692.9200482679,0,10,Assisted_Takeoff,
324000,2025-09-03 08:29:13,48.14875647137,11.5721922773536,0,,,1692.9200482679,0.328084,0,4.404363658,1.40661421824,9,4,15.596,1692.9200482679,0,0,4.7938977912,0,0,0,118.3, -1.5, -0.2,0,0,1024,1024,1024,1024,0,0,0,0,21.4,-17.2,10.9,61,3.913,3.917,3.917,3.899,0,0,2.1,125.51,1692.9200482679,0,10,Assisted_Takeoff,
324100,2025-09-03 08:29:13,48.1487564974788,11.5721922681505,0,,,1692.9200482679,0.328084,0,4.3945867548,1.41640096396,9,4,15.596,1692.9200482679,0,0,4.7938977912,0,0,0,118.3, -1.5, -0.3,0,0,1024,1024,1024,1024,0,0,0,0,21.2,-17.1,10.8,61,3.913,3.917,3.917,3.899,0,0,2.1,125.51,1692.9200482679,0,10,Assisted_Takeoff,
324200,2025-09-03 08:29:13,48.1487564654669,11.5721922521053,0,,,1692.9200482679,0.328084,0,4.4050526344,1.42871723732,9,4,15.596,1692.9200482679,0,0,4.7938977912,0,0,0,118.3, -1.5, -0.3,0,0,1024,1024,1024,1024,0,0,0,0,21.1,-17.1,10.9,61,3.913,3.917,3.917,3.899,0,0,2.1,125.51,1692.9200482679,0,10,Assisted_Takeoff,
324300,2025-09-03 08:29:13,48.1487564201766,11.5721921692285,0,,,1692.9200482679,0.328084,0,4.4166011912,1.45479335364,9,4,15.596,1692.9200482679,0,0,4.7938977912,0,0,0,118.3, -1.5, -0.3,0,0,1024,1024,1024,1024,0,0,0,0,21.1,-17.1,10.9,61,3.913,3.917,3.917,3.899,0,0,2.1,125.51,1692.9200482679,0,10,Assisted_Takeoff,
324400,2025-09-03 08:29:13,48.1487564039019,11.5721922101146,0,,,1692.9200482679,0.328084,0,4.4246064408,1.46638456136,9,4,15.596,1692.9200482679,0,0,4.7938977912,0,0,0,118.3, -1.5, -0.3,0,0,1024,1024,1024,1024,0,0,0,0,21,-17.1,10.8,61,3.913,3.917,3.917,3.899,0,0,2.1,125.51,1692.9200482679,0,10,Assisted_Takeoff,
324500,2025-09-03 08:29:13,48.1487563918205,11.5721922573777,0,,,1692.9200482679,0.328084,0,4.4315290132,1.47870411556,9,4,15.596,1692.9200482679,0,0,4.7938977912,0,0,0,118.3, -1.5, -0.3,0,0,1024,1024,1024,1024,0,0,0,0,20.9,-17,10.8,61,3.913,3.917,3.917,3.899,0,0,2.1,125.51,1692.9200482679,0,10,Assisted_Takeoff,
324600,2025-09-03 08:29:13,48.1487563867072,11.5721923198509,0,,,1692.9200482679,0.328084,0,4.4368111656,1.49402563836,9,4,15.596,1692.9200482679,0,0,4.7938977912,0,0,0,118.3, -1.5, -0.3,0,0,1024,1024,1024,1024,0,0,0,0,20.8,-17,10.7,61,3.913,3.917,3.917,3.899,0,0,2.1,125.51,1692.9200482679,0,10,Assisted_Takeoff,
324700,2025-09-03 08:29:14,48.1487563841049,11.5721924956184,0,,,1692.9200482679,0.328084,0,4.4478019796,1.53682419616,9,4,15.596,1692.9200482679,0,0,4.7938977912,0,0,0,118.3, -1.5, -0.3,0,0,1024,1024,1024,1024,0,0,0,0,20.8,-17,10.7,61,3.913,3.917,3.917,3.899,0,0,2.1,125.51,1692.9200482679,0,10,Assisted_Takeoff,
324800,2025-09-03 08:29:14,48.1487564369186,11.5721925634663,0,,,1692.9200482679,0.328084,0,4.433071008,1.56220149356,9,4,15.596,1692.9200482679,0,0,4.7938977912,0,0,0,118.3, -1.5, -0.3,0,0,1024,1024,1024,1024,0,0,0,0,20.7,-17,10.6,61,3.913,3.917,3.917,3.899,0,0,2.1,125.51,1692.9200482679,0,10,Assisted_Takeoff,
324900,2025-09-03 08:29:14,48.1487564774262,11.5721926460406,0,,,1692.9200482679,0.328084,0,4.423720614,1.58715228176,9,4,15.596,1692.9200482679,0,0,4.7938977912,0,0,0,118.3, -1.5, -0.3,0,0,1024,1024,1024,1024,0,0,0,0,20.6,-16.9,10.6,61,3.913,3.917,3.917,3.899,0,0,2.1,125.51,1692.9200482679,0,10,Assisted_Takeoff,
325000,2025-09-03 08:29:14,48.1487564970099,11.5721927622455,0,,,1692.9200482679,0.328084,0,4.4239502728,1.61632551104,9,4,15.597,1692.9200482679,0,0,4.7938977912,0,0,0,118.3, -1.5, -0.3,0,0,1024,1024,1024,1024,0,0,0,0,20.5,-16.9,10.5,61,3.912,3.917,3.916,3.899,0,0,2.106,125.51,1692.9200482679,0,10,Assisted_Takeoff,
325100,2025-09-03 08:29:14,48.1487566023425,11.5721929860867,0,,,1692.9200482679,0.328084,0,4.4011484348,1.6830053032,9,4,15.597,1692.9200482679,0,0,4.7938977912,0,0,0,118.3, -1.5, -0.3,0,0,1024,1024,1024,1024,0,0,0,0,20.4,-16.8,10.5,61,3.912,3.917,3.916,3.899,0,0,2.106,125.51,1692.9200482679,0,10,Assisted_Takeoff,
325200,2025-09-03 08:29:14,48.1487566039058,11.5721930080391,0,,,1692.9200482679,0.328084,0,4.4020342616,1.68837931912,9,4,15.597,1692.9200482679,0,0,4.7938977912,0,0,0,118.3, -1.5, -0.3,0,0,1024,1024,1024,1024,0,0,0,0,20.4,-16.8,10.5,61,3.912,3.917,3.916,3.899,0,0,2.106,125.51,1692.9200482679,0,10,Assisted_Takeoff,
325300,2025-09-03 08:29:14,48.1487566019859,11.5721930315988,0,,,1692.9200482679,0.328084,0,4.4042652328,1.69415687836,9,4,15.597,1692.9200482679,0,0,4.7938977912,0,0,0,118.3, -1.4, -0.2,0,0,1024,1024,1024,1024,0,0,0,0,20.4,-16.8,10.5,61,3.912,3.917,3.916,3.899,0,0,2.106,125.51,1692.9200482679,0,10,Assisted_Takeoff,
325400,2025-09-03 08:29:14,48.1487565959346,11.5721930661714,0,,,1692.9200482679,0.328084,0,4.4086943668,1.70285766604,9,4,15.597,1692.9200482679,0,0,4.7938977912,0,0,0,118.3, -1.5, -0.2,0,0,1024,1024,1024,1024,0,0,0,0,20.3,-16.8,10.5,61,3.912,3.917,3.916,3.899,0,0,2.106,125.51,1692.9200482679,0,10,Assisted_Takeoff,
325500,2025-09-03 08:29:14,48.1487565253024,11.5721929056738,0,,,1692.9200482679,0.328084,0,4.4230316376,1.74966212948,9,4,15.597,1692.9200482679,0,0,4.7938977912,0,0,0,118.3, -1.5, -0.3,0,0,1024,1024,1024,1024,0,0,0,0,20.2,-16.8,10.4,61,3.912,3.917,3.916,3.899,0,0,2.106,125.51,1692.9200482679,0,10,Assisted_Takeoff,
325600,2025-09-03 08:29:14,48.1487565188098,11.5721929026288,0,,,1692.9200482679,0.328084,0,4.4251313752,1.75214244452,9,4,15.597,1692.9200482679,0,0,4.7938977912,0,0,0,118.3, -1.5, -0.3,0,0,1024,1024,1024,1024,0,0,0,0,20.2,-16.8,10.4,61,3.912,3.917,3.916,3.899,0,0,2.106,125.51,1692.9200482679,0,10,Assisted_Takeoff,
325700,2025-09-03 08:29:15,48.1487565133366,11.5721929130538,0,,,1692.9200482679,0.328084,0,4.4277232388,1.75537079108,9,4,15.597,1692.9200482679,0,0,4.7938977912,0,0,0,118.3, -1.4, -0.3,0,0,1024,1024,1024,1024,0,0,0,0,20.1,-16.7,10.5,61,3.912,3.917,3.916,3.899,0,0,2.106,125.51,1692.9200482679,0,10,Assisted_Takeoff,
325800,2025-09-03 08:29:15,48.1487565088747,11.5721929515884,0,,,1692.9200482679,0.328084,0,4.431758672,1.76489178876,9,4,15.597,1692.9200482679,0,0,4.7938977912,0,0,0,118.3, -1.4, -0.3,0,0,1024,1024,1024,1024,0,0,0,0,20,-16.7,10.6,61,3.912,3.917,3.916,3.899,0,0,2.106,125.51,1692.9200482679,0,10,Assisted_Takeoff,
325900,2025-09-03 08:29:15,48.1487565055934,11.5721929766465,0,,,1692.9200482679,0.328084,0,4.434547386,1.77110898056,9,4,15.597,1692.9200482679,0,0,4.7938977912,0,0,0,118.3, -1.5, -0.3,0,0,1024,1024,1024,1024,0,0,0,0,19.9,-16.7,10.4,61,3.912,3.917,3.916,3.899,0,0,2.106,125.51,1692.9200482679,0,10,Assisted_Takeoff,
326000,2025-09-03 08:29:15,48.1487564929892,11.5721929413565,0,,,1692.9200482679,0.328084,0,4.436679932,1.78085307536,9,4,15.598,1692.9200482679,0,0,4.7938977912,0,0,0,118.3, -1.5, -0.3,0,0,1024,1024,1024,1024,0,0,0,0,19.9,-16.7,10.5,61,3.912,3.917,3.916,3.899,0,0,2.112,125.51,1692.9200482679,0,10,Assisted_Takeoff,
326100,2025-09-03 08:29:15,48.1487564732395,11.5721929774663,0,,,1692.9200482679,0.328084,0,4.4459647092,1.79221790512,9,4,15.598,1692.9200482679,0,0,4.7938977912,0,0,0,118.3, -1.5, -0.3,0,0,1024,1024,1024,1024,0,0,0,0,19.8,-16.6,10.4,61,3.912,3.917,3.916,3.899,0,0,2.112,125.51,1692.9200482679,0,10,Assisted_Takeoff,
326200,2025-09-03 08:29:15,48.1487564204372,11.572193073806,0,,,1692.9200482679,0.328084,0,4.470800668,1.82256895596,9,4,15.598,1692.9200482679,0,0,4.7938977912,0,0,0,118.3, -1.5, -0.3,0,0,1024,1024,1024,1024,0,0,0,0,19.7,-16.6,10.4,61,3.912,3.917,3.916,3.899,0,0,2.112,125.51,1692.9200482679,0,10,Assisted_Takeoff,
326300,2025-09-03 08:29:15,48.1487563812796,11.5721931430192,0,,,1692.9200482679,0.328084,0,4.4891405636,1.84465885168,9,4,15.598,1692.9200482679,0,0,4.7938977912,0,0,0,118.3, -1.5, -0.3,0,0,1024,1024,1024,1024,0,0,0,0,19.6,-16.6,10.3,61,3.912,3.917,3.916,3.899,0,0,2.112,125.51,1692.9200482679,0,10,Assisted_Takeoff,
326400,2025-09-03 08:29:15,48.1487563002043,11.5721932264743,0,,,1692.9200482679,0.328084,0,4.523130066,1.8805446796,9,4,15.598,1692.9200482679,0,0,4.7938977912,0,0,0,118.3, -1.5, -0.3,0,0,1024,1024,1024,1024,0,0,0,0,19.5,-16.5,10.3,61,3.912,3.917,3.916,3.899,0,0,2.112,125.51,1692.9200482679,0,10,Assisted_Takeoff,
326500,2025-09-03 08:29:15,48.1487562918829,11.5721932717616,0,,,1692.9200482679,0.328084,0,4.5291011948,1.891978407,9,4,15.598,1692.9200482679,0,0,4.7938977912,0,0,0,118.3, -1.4, -0.3,0,0,1024,1024,1024,1024,0,0,0,0,19.5,-16.5,10.3,61,3.912,3.917,3.916,3.899,0,0,2.112,125.51,1692.9200482679,0,10,Assisted_Takeoff,
326600,2025-09-03 08:29:15,48.148756293443,11.5721933676342,0,,,1692.9200482679,0.328084,0,4.5350723236,1.9153215836,9,4,15.598,1692.9200482679,0,0,4.7938977912,0,0,0,118.3, -1.4, -0.3,0,0,1024,1024,1024,1024,0,0,0,0,19.5,-16.5,10.3,61,3.912,3.917,3.916,3.899,0,0,2.112,125.51,1692.9200482679,0,10,Assisted_Takeoff,
326700,2025-09-03 08:29:16,48.1487562793537,11.5721934335416,0,,,1692.9200482679,0.328084,0,4.5445539512,1.932168697,9,4,15.598,1692.9200482679,0,0,4.7938977912,0,0,0,118.3, -1.5, -0.3,0,0,1024,1024,1024,1024,0,0,0,0,19.4,-16.5,10.3,61,3.912,3.917,3.916,3.899,0,0,2.112,125.51,1692.9200482679,0,10,Assisted_Takeoff,
326800,2025-09-03 08:29:16,48.1487562116283,11.5721934669711,0,,,1692.9200482679,0.328084,0,4.570538204,1.9581857582,9,4,15.598,1692.9200482679,0,0,4.7938977912,0,0,0,118.3, -1.5, -0.3,0,0,1024,1024,1024,1024,0,0,0,0,19.3,-16.5,10.2,61,3.912,3.917,3.916,3.899,0,0,2.112,125.51,1692.9200482679,0,10,Assisted_Takeoff,
326900,2025-09-03 08:29:16,48.1487561806797,11.5721934898415,0,,,1692.9200482679,0.328084,0,4.5829725876,1.97077434128,9,4,15.598,1692.9200482679,0,0,4.7938977912,0,0,0,118.3, -1.5, -0.2,0,0,1024,1024,1024,1024,0,0,0,0,19.2,-16.5,10.1,61,3.912,3.917,3.916,3.899,0,0,2.112,125.51,1692.9200482679,0,10,Assisted_Takeoff,
327000,2025-09-03 08:29:16,48.1487561708635,11.5721935279268,0,,,1692.9200482679,0.328084,0,4.5890421416,1.98071200564,9,4,15.618,1692.9200482679,0,0,4.7938977912,0,0,0,118.3, -1.5, -0.2,0,0,1024,1024,1024,1024,0,0,0,0,19.2,-16.4,10.2,61,3.912,3.917,3.916,3.899,0,0,2.106,125.51,1692.9200482679,0,10,Assisted_Takeoff,
327100,2025-09-03 08:29:16,48.1487561306376,11.5721935686404,0,,,1692.9200482679,0.328084,0,4.6059384676,1.99842197996,9,4,15.618,1692.9200482679,0,0,4.7938977912,0,0,0,118.3, -1.5, -0.3,0,0,1024,1024,1024,1024,0,0,0,0,19.1,-16.4,10.2,61,3.912,3.917,3.916,3.899,0,0,2.106,125.51,1692.9200482679,0,10,Assisted_Takeoff,
327200,2025-09-03 08:29:16,48.1487559192558,11.5721936212978,0,,,1692.9200482679,0.328084,0,4.6834975252,2.07660439716,9,4,15.618,1692.9200482679,0,0,4.7938977912,0,0,0,118.3, -1.5, -0.3,0,0,1024,1024,1024,1024,0,0,0,0,19,-16.4,10.1,61,3.912,3.917,3.916,3.899,0,0,2.106,125.51,1692.9200482679,0,10,Assisted_Takeoff,
327300,2025-09-03 08:29:16,48.1487558476988,11.5721936706845,0,,,1692.9200482679,0.328084,0,4.7119752164,2.10534455556,9,4,15.618,1692.9200482679,0,0,4.7938977912,0,0,0,118.3, -1.4, -0.3,0,0,1024,1024,1024,1024,0,0,0,0,18.9,-16.4,10,61,3.912,3.917,3.916,3.899,0,0,2.106,125.51,1692.9200482679,0,10,Assisted_Takeoff,
327400,2025-09-03 08:29:16,48.1487558224253,11.5721937247416,0,,,1692.9200482679,0.328084,0,4.724573642,2.12141410988,9,4,15.618,1692.9200482679,0,0,4.7938977912,0,0,0,118.3, -1.4, -0.2,0,0,1024,1024,1024,1024,0,0,0,0,18.8,-16.3,10.1,61,3.912,3.917,3.916,3.899,0,0,2.106,125.51,1692.9200482679,0,10,Assisted_Takeoff,
327500,2025-09-03 08:29:16,48.1487557927241,11.5721937768461,0,,,1692.9200482679,0.328084,0,4.7386156372,2.13809718128,9,4,15.618,1692.9200482679,0,0,4.7938977912,0,0,0,118.3, -1.5, -0.3,0,0,1024,1024,1024,1024,0,0,0,0,18.8,-16.3,10.2,61,3.912,3.917,3.916,3.899,0,0,2.106,125.51,1692.9200482679,0,10,Assisted_Takeoff,
327600,2025-09-03 08:29:16,48.1487557491844,11.5721938328211,0,,,1692.9200482679,0.328084,0,4.7577757428,2.15902565964,9,4,15.618,1692.9200482679,0,0,4.7938977912,0,0,0,118.3, -1.5, -0.3,0,0,1024,1024,1024,1024,0,0,0,0,18.7,-16.3,10.2,61,3.912,3.917,3.916,3.899,0,0,2.106,125.51,1692.9200482679,0,10,Assisted_Takeoff,
327700,2025-09-03 08:29:17,48.1487557525016,11.5721939223588,0,,,1692.9200482679,0.328084,0,4.7630578952,2.18085308816,9,4,15.618,1692.9200482679,0,0,4.7938977912,0,0,0,118.3, -1.5, -0.3,0,0,1024,1024,1024,1024,0,0,0,0,18.7,-16.3,10.2,61,3.912,3.917,3.916,3.899,0,0,2.106,125.51,1692.9200482679,0,10,Assisted_Takeoff,
327800,2025-09-03 08:29:17,48.1487557517508,11.5721939808171,0,,,1692.9200482679,0.328084,0,4.767552646,2.19508865292,9,4,15.618,1692.9200482679,0,0,4.7938977912,0,0,0,118.3, -1.5, -0.3,0,0,1024,1024,1024,1024,0,0,0,0,18.6,-16.2,10,61,3.912,3.917,3.916,3.899,0,0,2.106,125.51,1692.9200482679,0,10,Assisted_Takeoff,
327900,2025-09-03 08:29:17,48.1487557391662,11.5721940181448,0,,,1692.9200482679,0.328084,0,4.7746720688,2.20526909944,9,4,15.618,1692.9200482679,0,0,4.7938977912,0,0,0,118.3, -1.4, -0.3,0,0,1024,1024,1024,1024,0,0,0,0,18.6,-16.2,10,61,3.912,3.917,3.916,3.899,0,0,2.106,125.51,1692.9200482679,0,10,Assisted_Takeoff,
328000,2025-09-03 08:29:17,48.1487557006535,11.572194022375,0,,,1692.9200482679,0.328084,0,4.78838598,2.2193570264,9,4,15.606,1692.9200482679,0,0,4.7938977912,0,0,0,118.3, -1.4, -0.3,0,0,1024,1024,1024,1024,0,0,0,0,18.5,-16.2,10,61,3.912,3.917,3.916,3.899,0,0,2.106,125.51,1692.9200482679,0,10,Assisted_Takeoff,
328100,2025-09-03 08:29:17,48.1487557080222,11.5721939070212,0,,,1692.9200482679,0.328084,0,4.7774607828,2.24756568872,9,4,15.606,1692.9200482679,0,0,4.7938977912,0,0,0,118.3, -1.5, -0.2,0,0,1024,1024,1024,1024,0,0,0,0,18.4,-16.2,10,61,3.912,3.917,3.916,3.899,0,0,2.106,125.51,1692.9200482679,0,10,Assisted_Takeoff,
328200,2025-09-03 08:29:17,48.1487556521861,11.5721938369749,0,,,1692.9200482679,0.328084,0,4.7919292872,2.2741306502,9,4,15.606,1692.9200482679,0,0,4.7938977912,0,0,0,118.4, -1.5, -0.3,0,0,1024,1024,1024,1024,0,0,0,0,18.3,-16.2,9.9,61,3.912,3.917,3.916,3.899,0,0,2.106,125.51,1692.9200482679,0,10,Assisted_Takeoff,
328300,2025-09-03 08:29:17,48.1487555785267,11.5721937790444,0,,,1692.9200482679,0.328084,0,4.8136156396,2.30448170104,9,4,15.606,1692.9200482679,0,0,4.8136156396,0,0,0,118.3, -1.4, -0.3,0,0,1024,1024,1024,1024,0,0,0,0,18.3,-16.1,9.9,61,3.912,3.917,3.916,3.899,0,0,2.106,125.51,1692.9200482679,0,10,Assisted_Takeoff,
328400,2025-09-03 08:29:17,48.1487554671982,11.5721937446176,0,,,1692.9200482679,0.328084,0,4.8501641972,2.34595479948,9,4,15.606,1692.9200482679,0,0,4.8501641972,0,0,0,118.4, -1.5, -0.3,0,0,1024,1024,1024,1024,0,0,0,0,18.2,-16.1,9.8,61,3.912,3.917,3.916,3.899,0,0,2.106,125.51,1692.9200482679,0,10,Assisted_Takeoff,
328500,2025-09-03 08:29:17,48.1487552695295,11.5721935761183,0,,,1692.9200482679,0.328084,0,4.90813664,2.42892396224,9,4,15.606,1692.9200482679,0,0,4.90813664,0,0,0,118.4, -1.4, -0.3,0,0,1024,1024,1024,1024,0,0,0,0,18.2,-16.1,9.9,61,3.912,3.917,3.916,3.899,0,0,2.106,125.51,1692.9200482679,0,10,Assisted_Takeoff,
328600,2025-09-03 08:29:17,48.1487553021586,11.572193672897,0,,,1692.9200482679,0.328084,0,4.9031169548,2.45531832004,9,4,15.606,1692.9200482679,0,0,4.90813664,0,0,0,118.4, -1.4, -0.3,0,0,1024,1024,1025,1024,0,0,0,0,18,-16,9.9,61,3.912,3.917,3.916,3.899,0,0,2.106,125.51,1692.9200482679,0,10,Assisted_Takeoff,
328700,2025-09-03 08:29:18,48.148755318842,11.572193729287,0,,,1692.9200482679,0.328084,0,4.901082834,2.47033472472,9,4,15.606,1692.9200482679,0,0,4.90813664,0,0,0,118.3, -1.5, -0.3,0,0,1024,1024,1051,1024,0,0,4,0,18,-16,9.8,61,3.912,3.917,3.916,3.899,0,0,2.106,125.51,1692.9200482679,0,10,Assisted_Takeoff,
328800,2025-09-03 08:29:18,48.1487553016619,11.5721937156323,0,,,1692.9200482679,0.328084,0,4.906168136,2.4774279008,9,4,15.606,1692.9200482679,0,0,4.90813664,0,0,0,118.4, -1.5, -0.3,0,0,1024,1024,1081,1024,0,0,9,0,17.9,-16,9.8,61,3.912,3.917,3.916,3.899,0,0,2.106,125.51,1692.9200482679,0,10,Assisted_Takeoff,
328900,2025-09-03 08:29:18,48.1487553924721,11.5721938510294,0,,,1692.9200482679,0.328084,0,4.8836615736,2.5241634666,9,4,15.606,1692.9200482679,0,0,4.90813664,0,0,0,118.4, -1.5, -0.3,0,0,1024,1024,1106,1024,0,0,12,0,17.9,-16,9.8,61,3.912,3.917,3.916,3.899,0,0,2.106,125.51,1692.9200482679,0,10,Assisted_Takeoff,
329000,2025-09-03 08:29:18,48.1487553453205,11.5721938926038,0,,,1692.9200482679,0.328084,0,4.903051338,2.54412081632,9,4,15.593,1692.9200482679,0,0,4.90813664,0,0,0,118.4, -1.5, -0.3,0,0,1024,1024,1110,1024,0,0,13,0,17.8,-16,9.8,61,3.912,3.917,3.916,3.899,0,0,2.106,125.51,1692.9200482679,0,10,Assisted_Takeoff,
329100,2025-09-03 08:29:18,48.1487552943633,11.5721939220629,0,,,1692.9200482679,0.328084,0,4.92290042,2.56404863848,9,4,15.593,1692.9200482679,0,0,4.92290042,0,0,0,118.4, -1.4, -0.2,0,0,1024,1024,1110,1024,0,0,13,0,17.7,-15.9,9.7,61,3.912,3.917,3.916,3.899,0,0,2.106,125.51,1692.9200482679,0,10,Assisted_Takeoff,
329200,2025-09-03 08:29:18,48.1487552348501,11.5721939336064,0,,,1692.9200482679,0.328084,0,4.9445211556,2.58594496464,9,4,15.593,1692.9200482679,0,0,4.9445211556,0,0,0,118.4, -1.4, -0.2,0,0,1024,1024,1115,1024,0,0,14,0,17.7,-15.9,9.8,61,3.912,3.917,3.916,3.899,0,0,2.106,125.51,1692.9200482679,0,10,Assisted_Takeoff,
329300,2025-09-03 08:29:18,48.1487551782259,11.5721939389727,0,,,1692.9200482679,0.328084,0,4.9646983216,2.6066437842,9,4,15.593,1692.9200482679,0,0,4.9646983216,0,0,0,118.3, -1.5, -0.3,0,0,1024,1024,1115,1024,0,0,14,0,17.7,-15.9,9.6,61,3.912,3.917,3.916,3.899,0,0,2.106,125.51,1692.9200482679,0,10,Assisted_Takeoff,
329400,2025-09-03 08:29:18,48.1487550547605,11.5721938737591,0,,,1692.9200482679,0.328084,0,5.0034122336,2.65440625292,9,4,15.593,1692.9200482679,0,0,5.0034122336,0,0,0,118.3, -1.5, -0.3,0,0,1024,1024,1119,1024,0,0,14,0,17.5,-15.9,9.5,61,3.912,3.917,3.916,3.899,0,0,2.106,125.51,1692.9200482679,0,10,Assisted_Takeoff,
329500,2025-09-03 08:29:18,48.1487550371473,11.5721939085723,0,,,1692.9200482679,0.328084,0,5.011975226,2.66503945536,9,4,15.593,1692.9200482679,0,0,5.011975226,0,0,0,118.4, -1.5, -0.3,0,0,1024,1024,1118,1024,0,0,14,0,17.4,-15.8,9.6,61,3.912,3.917,3.916,3.899,0,0,2.106,125.51,1692.9200482679,0,10,Assisted_Takeoff,
329600,2025-09-03 08:29:18,48.1487550865021,11.572194010672,0,,,1692.9200482679,0.328084,0,5.0017390052,2.69573171356,9,4,15.593,1692.9200482679,0,0,5.011975226,0,0,0,118.4, -1.5, -0.3,0,0,1024,1024,1122,1024,0,0,15,0,17.3,-15.9,9.6,61,3.912,3.917,3.916,3.899,0,0,2.106,125.51,1692.9200482679,0,10,Assisted_Takeoff,
329700,2025-09-03 08:29:19,48.1487551306981,11.572194105525,0,,,1692.9200482679,0.328084,0,4.9929791624,2.72389444412,9,4,15.593,1692.9200482679,0,0,5.011975226,0,0,0,118.4, -1.6, -0.3,0,0,1024,1024,1124,1024,0,0,15,0,17.2,-15.8,9.4,61,3.912,3.917,3.916,3.899,0,0,2.106,125.51,1692.9200482679,0,10,Assisted_Takeoff,
329800,2025-09-03 08:29:19,48.1487553674087,11.572194361397,0,,,1692.9200482679,0.328084,0,4.929298058,2.83037738716,9,4,15.593,1692.9200482679,0,0,5.011975226,0,0,0,118.4, -1.7, -0.3,0,0,1024,1024,1125,1024,0,0,15,0,17.2,-16.1,9.7,61,3.912,3.917,3.916,3.899,0,0,2.106,125.51,1692.9200482679,0,10,Assisted_Takeoff,
329900,2025-09-03 08:29:19,48.1487553716785,11.5721944380583,0,,,1692.9200482679,0.328084,0,4.9335959584,2.84910442188,9,4,15.593,1692.9200482679,0,0,5.011975226,0,0,0,118.4, -1.8, -0.4,0,0,1024,1024,1126,1024,0,0,15,0,17.2,-16.5,9.6,61,3.912,3.917,3.916,3.899,0,0,2.106,125.51,1692.9200482679,0,10,Assisted_Takeoff,
330000,2025-09-03 08:29:19,48.1487553307769,11.5721945176059,0,,,1692.9200482679,0.328084,0,4.9538387412,2.87354996072,9,4,15.475,1692.9200482679,0,0,5.011975226,0,0,0,118.4, -2.5, -0.5,0,0,1024,1024,1127,1024,0,0,16,0,17.4,-18,9.3,61,3.912,3.917,3.916,3.899,0,0,2.102,125.51,1692.9200482679,0,10,Assisted_Takeoff,
330100,2025-09-03 08:29:19,48.1487553104067,11.5721945944597,0,,,1692.9200482679,0.328084,0,4.9667980592,2.89368119496,9,4,15.475,1692.9200482679,0,0,5.011975226,0,0,0,118.5, -4.1, -0.5,0,0,1024,1024,1127,1024,0,0,16,0,17.4,-18,9.3,61,3.912,3.917,3.916,3.899,0,0,2.102,125.51,1692.9200482679,0,10,Assisted_Takeoff,
330200,2025-09-03 08:29:19,48.1487553474163,11.5721946176981,0,,,1692.9200482679,0.328084,0.223694,4.9558072452,2.90832030304,9,4,15.475,1692.9200482679,0,0.223694,5.011975226,0,0.223694,0,118.6, -6.6, -0.5,0,0,1024,1024,1126,1024,0,0,15,0,17.4,-20.8,9.9,61,3.912,3.917,3.916,3.899,0,0,2.102,125.51,1692.9200482679,0,10,Assisted_Takeoff,
330300,2025-09-03 08:29:19,48.1487553021586,11.572194820243,0,,,1692.9200482679,0.328084,0.447388,4.9873361176,2.9603183362,9,4,15.475,1692.9200482679,0,0.447388,5.011975226,0,0.447388,-0.223694,118.9, -8, -0.1,0,0,1024,1024,1126,1024,0,0,15,0,17.8,-22.4,9.8,61,3.912,3.917,3.916,3.899,0,0,2.102,125.51,1692.9200482679,0,10,Assisted_Takeoff,
330400,2025-09-03 08:29:19,48.1487551481827,11.5721952340523,0,,,1692.9200482679,0.656168,0.7158208,5.0739502936,3.0756562664,9,4,15.475,1692.9200482679,0,0.7158208,5.0739502936,-0.223694,0.671082,-0.447388,119, -5.9, 1,0,0,1024,1024,1126,1024,0,0,15,0,18.6,-19.7,11.3,61,3.912,3.917,3.916,3.899,0,0,2.102,125.51,1692.9200482679,0,6,P-GPS,
330500,2025-09-03 08:29:19,48.1487549425005,11.5721957136881,0,,,1692.9200482679,0.656168,0.8052984,5.185039536,3.21444892176,9,4,15.475,1692.9200482679,0,0.8052984,5.185039536,-0.447388,0.671082,-0.671082,119, -0.2, 0.7,0,0,1024,1024,1125,1024,0,0,15,0,16.7,-12.8,10.5,61,3.912,3.917,3.916,3.899,0,0,2.102,125.51,1692.9200482679,0,6,P-GPS,
330600,2025-09-03 08:29:19,48.1487545368274,11.5721961670325,0,,,1692.9200482679,0.656168,0.8052984,5.3628938724,3.3990814736,9,4,15.475,1692.9200482679,0,0.8052984,5.3628938724,-0.447388,0.671082,-0.894776,118.9, 4, 0,0,0,1024,1024,1128,1024,0,0,16,0,15.7,-9.5,10.2,61,3.912,3.917,3.916,3.899,0,0,2.102,125.51,1692.9200482679,0,6,P-GPS,
330700,2025-09-03 08:29:20,48.1487543272597,11.5721965727198,0.328084,,,1693.2481322679,0.984252,0.4921268,5.4705054244,3.523950244,8,4,15.475,1693.2481322679,0.328084,0.8052984,5.4705054244,-0.223694,0.447388,-0.894776,118.7, 6, 0.3,0,0,1024,1024,1128,1024,0,0,16,0,16.4,-8.8,10.5,61,3.912,3.917,3.916,3.899,0,0,2.102,125.51,1693.2481322679,0.328084,6,P-GPS,
330800,2025-09-03 08:29:20,48.1487541840462,11.5721969053966,0.328084,,,1693.2481322679,0.984252,0.3131716,5.5496720936,3.6203413232,8,4,15.475,1693.2481322679,0.328084,0.8052984,5.5496720936,-0.223694,0.223694,-0.894776,118.7, 4.4, 0,0,0,1024,1024,1128,1024,0,0,16,0,17.3,-11.4,9.1,61,3.912,3.917,3.916,3.899,0,0,2.102,125.51,1693.2481322679,0.328084,6,P-GPS,
330900,2025-09-03 08:29:20,48.1487540970726,11.5721971653221,0.328084,,,1693.2481322679,1.312336,0.3131716,5.603510678,3.6911418504,8,4,15.475,1693.2481322679,0.328084,0.8052984,5.603510678,-0.223694,0.223694,-0.894776,118.7, 2.8, -0.8,0,0,1024,1024,1128,1024,0,0,16,0,16.9,-12.5,8.9,61,3.912,3.917,3.916,3.899,0,0,2.102,125.51,1693.2481322679,0.328084,6,P-GPS,
331000,2025-09-03 08:29:20,48.1487540612957,11.5721974208245,0.656168,,,1693.5762162679,1.312336,0,5.6402232776,3.7546917212,8,4,15.418,1693.5762162679,0.656168,0.8052984,5.6402232776,0,0,-0.671082,118.8, 2.3, -0.7,0,0,1024,1024,1129,1024,0,0,16,0,16.3,-12.5,10,61,3.809,3.819,3.813,3.776,0,0,10.822,125.51,1693.5762162679,0.656168,6,P-GPS,"Home Point recorded. Return-to-Home Altitude:100M"
331100,2025-09-03 08:29:20,48.1487542730553,11.5721976581594,0.656168,,,1693.5762162679,1.312336,0,5.5932744572,3.8511484172,9,4,15.418,1693.5762162679,0.656168,0.8052984,5.6402232776,0,0,-0.671082,118.8, 2, -0.2,0,0,1024,1024,1130,1024,0,0,16,0,16.6,-12.6,9.6,61,3.809,3.819,3.813,3.776,0,0,10.822,125.51,1693.5762162679,0.656168,6,P-GPS,
331200,2025-09-03 08:29:20,48.1487542902256,11.5721976751196,0.984252,,,1693.9043002679,1.64042,0,5.5892718324,3.8586615408,9,4,15.418,1693.9043002679,0.984252,0.8052984,5.6402232776,0,0,-0.671082,118.8, 1.7, -0.7,0,0,1024,1024,1133,1024,0,0,17,0,16.9,-13.6,8.9,61,3.809,3.819,3.813,3.776,0,0,10.822,125.51,1693.9043002679,0.984252,6,P-GPS,
331300,2025-09-03 08:29:20,48.1487542356451,11.5721975240508,0.984252,,,1693.9043002679,1.64042,0,5.5922573968,3.9004594424,9,4,15.418,1693.9043002679,0.984252,0.8052984,5.6402232776,0,0,-0.447388,118.8, 0.9, -1.1,0,0,1024,1024,1133,1024,0,0,17,0,16.9,-13.6,8.9,61,3.809,3.819,3.813,3.776,0,0,10.822,125.51,1693.9043002679,0.984252,6,P-GPS,
331400,2025-09-03 08:29:20,48.1487540412577,11.5721971124812,0.984252,,,1693.9043002679,1.64042,0,5.6172245892,4.0232284752,9,4,15.418,1693.9043002679,0.984252,0.8052984,5.6402232776,0,0,-0.447388,118.8, 0.5, -1.1,0,0,1024,1024,1135,1024,0,0,17,0,16.6,-14.1,9.3,61,3.809,3.819,3.813,3.776,0,0,10.822,125.51,1693.9043002679,0.984252,6,P-GPS,
331500,2025-09-03 08:29:20,48.1487537378851,11.5721960823141,0.984252,,,1693.9043002679,1.968504,0,5.628116978,4.2973426572,10,4,15.418,1693.9043002679,0.984252,0.8052984,5.6402232776,0,0,-0.447388,118.8, 0.9, -0.6,0,0,1024,1024,1146,1024,0,0,18,0,16.7,-13.5,9.3,61,3.809,3.819,3.813,3.776,0,0,10.822,125.51,1693.9043002679,0.984252,6,P-GPS,
331600,2025-09-03 08:29:20,48.1487536265793,11.5721959618624,1.312336,,,1694.2323842679,1.968504,0,5.6562993936,4.3474082756,10,4,15.418,1694.2323842679,1.312336,0.8052984,5.6562993936,0,0,-0.447388,118.8, 1.2, -0.1,0,0,1024,1024,1151,1024,0,0,19,0,15.7,-13.4,9.8,61,3.809,3.819,3.813,3.776,0,0,10.822,125.51,1694.2323842679,1.312336,6,P-GPS,
331700,2025-09-03 08:29:21,48.1487535010426,11.5721958386865,1.312336,,,1694.2323842679,1.968504,0,5.689468686,4.4021654952,10,4,15.418,1694.2323842679,1.312336,0.8052984,5.689468686,0,0,-0.447388,118.7, 0.9, -0.1,0,0,1024,1024,1162,1024,0,0,21,0,16.5,-14,9.2,61,3.809,3.819,3.813,3.776,0,0,10.822,125.51,1694.2323842679,1.312336,6,P-GPS,
331800,2025-09-03 08:29:21,48.148753346145,11.5721956973424,1.312336,,,1694.2323842679,1.968504,0,5.7316602884,4.468340038,10,4,15.418,1694.2323842679,1.312336,0.8052984,5.7316602884,0,0,-0.447388,118.8, 0.6, -0.8,0,0,1024,1024,1165,1024,0,0,21,0,17.5,-14.5,7.9,61,3.809,3.819,3.813,3.776,0,0,10.822,125.51,1694.2323842679,1.312336,6,P-GPS,
331900,2025-09-03 08:29:21,48.1487530658393,11.572195643481,1.312336,,,1694.2323842679,1.968504,0,5.8244424436,4.5714240308,9,4,15.418,1694.2323842679,1.312336,0.8052984,5.8244424436,0,0,-0.447388,118.9, 0.1, -1.6,0,0,1024,1024,1168,1024,0,0,22,0,16.4,-14.5,7.9,61,3.809,3.819,3.813,3.776,0,0,10.822,125.51,1694.2323842679,1.312336,6,P-GPS,
332000,2025-09-03 08:29:21,48.1487528977904,11.5721953228442,1.312336,,,1694.2323842679,2.296588,0,5.8588584552,4.6707022492,9,4,15.056,1694.2323842679,1.312336,0.8052984,5.8588584552,0,0,-0.671082,119.2, 0.3, -1.3,0,0,1024,1024,1168,1024,0,0,22,0,15.3,-14.1,8.2,61,3.765,3.782,3.778,3.74,0,0,17.726,125.51,1694.2323842679,1.312336,6,P-GPS,
332100,2025-09-03 08:29:21,48.1487527855417,11.5721950921699,1.64042,,,1694.5604682679,2.296588,0,5.8814962512,4.7401904404,10,4,15.056,1694.5604682679,1.64042,0.8052984,5.8814962512,0,0,-0.671082,119.3, 0.6, -0.9,0,0,1024,1024,1170,1024,0,0,22,0,16.1,-14,8.4,61,3.765,3.782,3.778,3.74,0,0,17.726,125.51,1694.5604682679,1.64042,6,P-GPS,
332200,2025-09-03 08:29:21,48.1487527513591,11.5721949833736,1.64042,,,1694.5604682679,2.296588,0.223694,5.8858597684,4.7694555332,10,4,15.056,1694.5604682679,1.64042,0.8052984,5.8858597684,-0.223694,0,-0.894776,119.3, 0.5, -1,0,0,1024,1024,1170,1024,0,0,22,0,15.5,-14,7.6,61,3.765,3.782,3.778,3.74,0,0,17.726,125.51,1694.5604682679,1.64042,6,P-GPS,
332300,2025-09-03 08:29:21,48.1487526309894,11.5721950614241,1.968504,,,1694.8885522679,2.624672,0.3131716,5.9333663316,4.8173229888,10,4,15.056,1694.8885522679,1.968504,0.8052984,5.9333663316,-0.223694,-0.223694,-0.894776,119.1, 0.3, -2.1,0,0,1024,1024,1171,1024,0,0,22,0,15.7,-15.3,6.6,61,3.765,3.782,3.778,3.74,0,0,17.726,125.51,1694.8885522679,1.968504,6,P-GPS,
332400,2025-09-03 08:29:21,48.1487524420377,11.5721948514848,1.968504,,,1694.8885522679,2.624672,0.223694,5.9853020288,4.9031169548,10,4,15.056,1694.8885522679,1.968504,0.8052984,5.9853020288,0,-0.223694,-0.894776,119.1, -0.3, -2.8,0,0,1024,1024,1171,1024,0,0,22,0,16.9,-15.7,6.4,61,3.765,3.782,3.778,3.74,0,0,17.726,125.51,1694.8885522679,1.968504,6,P-GPS,
332500,2025-09-03 08:29:21,48.1487521878914,11.572194632286,1.968504,,,1694.8885522679,2.952756,0.223694,6.060367648,5.0101051472,10,4,15.056,1694.8885522679,1.968504,0.8052984,6.060367648,0,-0.223694,-0.894776,119.1, -0.4, -2.7,0,0,1024,1024,1172,1024,0,0,22,0,16.9,-15.7,6.4,61,3.765,3.782,3.778,3.74,0,0,17.726,125.51,1694.8885522679,1.968504,6,P-GPS,
332600,2025-09-03 08:29:21,48.1487517928227,11.572194368656,2.296588,,,1695.2166362679,2.952756,0.223694,6.1834975732,5.1678807428,10,4,15.056,1695.2166362679,2.296588,0.8052984,6.1834975732,-0.223694,-0.223694,-1.11847,119.1, 0, -3.6,0,0,1024,1024,1174,1024,0,0,23,0,16.7,-15,5.4,61,3.765,3.782,3.778,3.74,0,0,17.726,125.51,1695.2166362679,2.296588,6,P-GPS,
332700,2025-09-03 08:29:22,48.1487514448031,11.5721941673461,2.624672,,,1695.5447202679,3.28084,0.3131716,6.2950133248,5.3040027944,11,4,15.056,1695.5447202679,2.624672,0.8052984,6.2950133248,-0.223694,-0.223694,-1.11847,119, 0, -4.8,0,0,1024,1024,1173,1024,0,0,23,0,14.9,-15,4.4,61,3.765,3.782,3.778,3.74,0,0,17.726,125.51,1695.5447202679,2.624672,6,P-GPS,
332800,2025-09-03 08:29:22,48.1487505555701,11.57219413024,2.624672,,,1695.5447202679,3.28084,0.223694,6.6088912876,5.6285434872,11,4,15.056,1695.5447202679,2.624672,0.8052984,6.6088912876,0,-0.223694,-1.11847,118.9, -0.2, -5,0,0,1024,1024,1177,1024,0,0,23,0,15.1,-15.3,4.3,61,3.765,3.782,3.778,3.74,0,0,17.726,125.51,1695.5447202679,2.624672,6,P-GPS,
332900,2025-09-03 08:29:22,48.1487503787617,11.5721940861593,2.952756,,,1695.8728042679,3.608924,0,6.669455594,5.6939634368,10,4,15.056,1695.8728042679,2.952756,0.8052984,6.669455594,0,0,-1.11847,119, -0.6, -4.7,0,0,1024,1024,1180,1024,0,0,24,0,16.2,-15.6,4.9,61,3.765,3.782,3.778,3.74,0,0,17.726,125.51,1695.8728042679,2.952756,6,P-GPS,
333000,2025-09-03 08:29:22,48.1487503837839,11.5721941914198,2.952756,,,1695.8728042679,3.608924,0,6.6732941768,5.719652414,10,4,14.976,1695.8728042679,2.952756,0.8052984,6.6732941768,0,0,-1.11847,119.1, -0.7, -3.5,0,0,1024,1024,1182,1024,0,0,24,0,16,-15.5,6.3,61,3.765,3.782,3.778,3.74,0,0,17.726,125.51,1695.8728042679,2.952756,6,P-GPS,
333100,2025-09-03 08:29:22,48.1487504824904,11.5721943729481,3.28084,,,1696.2008882679,3.937008,0,6.6481629424,5.7766406048,10,4,14.976,1696.2008882679,3.28084,0.8052984,6.6732941768,0,0,-1.11847,119, -0.7, -2.7,0,0,1024,1024,1185,1024,0,0,24,0,15.7,-15.6,6.3,61,3.765,3.782,3.778,3.74,0,0,17.726,125.51,1696.2008882679,3.28084,6,P-GPS,
333200,2025-09-03 08:29:22,48.1487514801892,11.572195643604,3.28084,,,1696.2008882679,3.937008,0,6.3762469232,6.2543309088,10,4,14.976,1696.2008882679,3.28084,0.8052984,6.6732941768,0,0,-1.11847,119, -1, -2.3,0,0,1024,1024,1189,1024,0,0,25,0,15.5,-15.8,6.8,61,3.765,3.782,3.778,3.74,0,0,17.726,125.51,1696.2008882679,3.28084,6,P-GPS,
333300,2025-09-03 08:29:22,48.1487517087592,11.5721959096377,3.608924,,,1696.5289722679,4.265092,0,6.3155513832,6.35990834,10,4,14.976,1696.5289722679,3.608924,0.8052984,6.6732941768,0,0,-1.11847,119, -1.1, -1.9,0,0,1024,1024,1189,1024,0,0,25,0,15.8,-15.9,7.1,61,3.765,3.782,3.778,3.74,0,0,17.726,125.51,1696.5289722679,3.608924,6,P-GPS,
333400,2025-09-03 08:29:22,48.1487518323907,11.5721960218661,3.608924,,,1696.5289722679,4.593176,0,6.280840096,6.4126314388,10,4,14.976,1696.5289722679,3.608924,0.8052984,6.6732941768,0,0,-1.11847,119.1, -1.3, -1.7,0,0,1024,1024,1189,1024,0,0,25,0,15.6,-16.1,7.3,61,3.765,3.782,3.778,3.74,0,0,17.726,125.51,1696.5289722679,3.608924,6,P-GPS,
333500,2025-09-03 08:29:22,48.1487518558696,11.5721960014051,3.937008,,,1696.8570562679,4.593176,0,6.271161618,6.422572384,10,4,14.976,1696.8570562679,3.937008,0.8052984,6.6732941768,0,0,-1.11847,119, -1.5, -1.6,0,0,1024,1024,1189,1024,0,0,25,0,15.5,-15.9,7.3,61,3.765,3.782,3.778,3.74,0,0,17.726,125.51,1696.8570562679,3.937008,6,P-GPS,
333600,2025-09-03 08:29:22,48.148751435762,11.5721950563648,4.265092,,,1697.1851402679,4.92126,0,6.3522967912,6.698983154,10,4,14.976,1697.1851402679,4.265092,0.8052984,6.6732941768,0,0,-1.342164,118.9, -1.2, -1.8,0,0,1024,1024,1189,1024,0,0,25,0,14.8,-15.2,6.8,61,3.765,3.782,3.778,3.74,0,0,17.726,125.51,1697.1851402679,4.265092,6,P-GPS,
333700,2025-09-03 08:29:23,48.1487512963606,11.5721948538468,4.265092,,,1697.1851402679,4.92126,0,6.3885172648,6.7698164896,9,4,14.976,1697.1851402679,4.265092,0.8052984,6.6732941768,0,0,-1.11847,118.9, -0.7, -2.4,0,0,1024,1024,1189,1024,0,0,25,0,14.8,-15.2,6.8,61,3.765,3.782,3.778,3.74,0,0,17.726,125.51,1697.1851402679,4.265092,6,P-GPS,
333800,2025-09-03 08:29:23,48.148751170959,11.5721947278981,4.593176,,,1697.5132242679,5.249344,0,6.4250002056,6.8249017932,9,4,14.976,1697.5132242679,4.593176,0.8052984,6.6732941768,0,0,-1.342164,118.8, -0.5, -2.8,0,0,1024,1024,1193,1024,0,0,26,0,14.1,-14.9,6.2,61,3.765,3.782,3.778,3.74,0,0,17.726,125.51,1697.5132242679,4.593176,6,P-GPS,
333900,2025-09-03 08:29:23,48.1487510810119,11.5721945772618,4.593176,,,1697.5132242679,5.249344,0,6.4477364268,6.8741143932,10,4,14.976,1697.5132242679,4.593176,0.8052984,6.6732941768,0,0,-1.342164,118.8, -0.5, -2.3,0,0,1024,1024,1196,1024,0,0,26,0,14.1,-15,6.7,61,3.765,3.782,3.778,3.74,0,0,17.726,125.51,1697.5132242679,4.593176,6,P-GPS,
334000,2025-09-03 08:29:23,48.148750865261,11.5721937685101,4.92126,,,1697.8413082679,5.577428,0,6.479494958,7.086122274,10,4,14.864,1697.8413082679,4.92126,0.8052984,6.6732941768,0,0,-1.342164,118.8, -0.5, -1.7,0,0,1024,1024,1200,1024,0,0,27,0,14.6,-14.8,7.3,61,3.765,3.782,3.778,3.74,0,0,17.726,125.51,1697.8413082679,4.92126,6,P-GPS,
334100,2025-09-03 08:29:23,48.1487508160788,11.5721935178429,5.249344,,,1698.1693922679,5.905512,0,6.4843834096,7.1497377616,9,4,14.864,1698.1693922679,5.249344,0.8052984,6.6732941768,0,0,-1.342164,118.8, -0.6, -1.5,0,0,1024,1024,1200,1024,0,0,27,0,13.8,-14.8,8,61,3.765,3.782,3.778,3.74,0,0,17.726,125.51,1698.1693922679,5.249344,6,P-GPS,
334200,2025-09-03 08:29:23,48.1487507289114,11.5721931691711,5.249344,,,1698.1693922679,5.905512,0.223694,6.4989503392,7.2403873708,9,4,14.864,1698.1693922679,5.249344,0.8052984,6.6732941768,0.223694,0,-1.342164,118.7, -0.6, -2,0,0,1024,1024,1200,1024,0,0,27,0,13.4,-14.9,7.2,61,3.765,3.782,3.778,3.74,0,0,17.726,125.51,1698.1693922679,5.249344,6,P-GPS,
334300,2025-09-03 08:29:23,48.1487506829844,11.5721929068284,5.577428,,,1698.4974762679,6.233596,0.223694,6.5036419404,7.3063978716,9,4,14.864,1698.4974762679,5.577428,0.8052984,6.6732941768,0.223694,0,-1.342164,118.7, -0.4, -1.8,0,0,1024,1024,1206,1024,0,0,28,0,16,-14.9,6.4,61,3.765,3.782,3.778,3.74,0,0,17.726,125.51,1698.4974762679,5.577428,6,P-GPS,
334400,2025-09-03 08:29:23,48.1487506980198,11.5721927718887,5.905512,,,1698.8255602679,6.56168,0,6.492454276,7.3396983976,9,4,14.864,1698.8255602679,5.905512,0.8052984,6.6732941768,0,0,-1.342164,118.7, -0.3, -1.3,0,0,1024,1024,1203,1024,0,0,27,0,16,-15,7,61,3.765,3.782,3.778,3.74,0,0,17.726,125.51,1698.8255602679,5.905512,6,P-GPS,
334500,2025-09-03 08:29:23,48.1487505853103,11.572192099057,6.233596,,,1699.1536442679,6.56168,0,6.506561888,7.5085632324,8,4,14.864,1699.1536442679,6.233596,0.8052984,6.6732941768,0,0,-1.565858,118.7, -0.3, -0.7,0,0,1024,1024,1202,1024,0,0,27,0,13.6,-14.7,8.3,61,3.765,3.782,3.778,3.74,0,0,17.726,125.51,1699.1536442679,6.233596,6,P-GPS,
334600,2025-09-03 08:29:23,48.1487503145831,11.5721916221146,6.233596,,,1699.1536442679,6.889764,0,6.5882219956,7.6609910588,8,4,14.864,1699.1536442679,6.233596,0.8052984,6.6732941768,0,0,-1.565858,118.7, -0.4, -0.7,0,0,1024,1024,1212,1024,0,0,28,0,13.3,-14.8,8.5,61,3.765,3.782,3.778,3.74,0,0,17.726,125.51,1699.1536442679,6.233596,6,P-GPS,
334700,2025-09-03 08:29:24,48.1487500812483,11.5721912160131,6.56168,,,1699.4817282679,7.217848,0,6.6607285596,7.7914700656,8,4,14.864,1699.4817282679,6.56168,0.8052984,6.6732941768,0,0,-1.565858,118.7, -0.5, -1.1,0,0,1024,1024,1218,1024,0,0,29,0,14.6,-14.7,7.5,61,3.765,3.782,3.778,3.74,0,0,17.726,125.51,1699.4817282679,6.56168,6,P-GPS,
334800,2025-09-03 08:29:24,48.1487499180538,11.5721909153391,6.889764,,,1699.8098122679,7.545932,0.223694,6.7120737056,7.885827024,8,4,14.864,1699.8098122679,6.889764,0.8052984,6.7120737056,0.223694,0,-1.565858,118.8, -0.4, -1.2,0,0,1024,1024,1224,1024,0,0,30,0,14.6,-14.8,7.9,61,3.765,3.782,3.778,3.74,0,0,17.726,125.51,1699.8098122679,6.889764,6,P-GPS,
334900,2025-09-03 08:29:24,48.1487493991827,11.572190182081,7.217848,,,1700.1378962679,7.545932,0.223694,6.8851380156,8.145997636,9,4,14.864,1700.1378962679,7.217848,0.8052984,6.8851380156,0.223694,0,-1.565858,118.8, -0.4, -0.5,0,0,1024,1024,1224,1024,0,0,30,0,13.5,-15.4,8.9,61,3.765,3.782,3.778,3.74,0,0,17.726,125.51,1700.1378962679,7.217848,6,P-GPS,
335000,2025-09-03 08:29:24,48.1487494069682,11.5721901509557,7.217848,,,1700.1378962679,7.874016,0.223694,6.8817587504,8.1541013108,9,4,14.852,1700.1378962679,7.217848,0.8052984,6.8851380156,0.223694,0,-1.565858,118.8, -0.9, 0.3,0,0,1024,1024,1223,1024,0,0,30,0,13.5,-15.4,8.9,61,3.748,3.765,3.762,3.721,0,0,18.842,125.51,1700.1378962679,7.217848,6,P-GPS,
335100,2025-09-03 08:29:24,48.1487494705834,11.5721901401367,7.545932,,,1700.4659802679,8.2021,0.223694,6.8583991696,8.1774608916,8,4,14.852,1700.4659802679,7.545932,0.8052984,6.8851380156,0.223694,0,-1.789552,118.7, -1.3, 0.5,0,0,1024,1024,1221,1024,0,0,30,0,14.6,-15.9,8.8,61,3.748,3.765,3.762,3.721,0,0,18.842,125.51,1700.4659802679,7.545932,6,P-GPS,
335200,2025-09-03 08:29:24,48.1487496345628,11.5721901422867,7.874016,,,1700.7940642679,8.530184,0.223694,6.7987863068,8.2372706048,8,4,14.852,1700.7940642679,7.874016,0.8052984,6.8851380156,0.223694,0,-1.789552,118.7, -1.1, 0.2,0,0,1024,1024,1225,1024,0,0,30,0,15.1,-15.6,8.1,61,3.748,3.765,3.762,3.721,0,0,18.842,125.51,1700.7940642679,7.874016,6,P-GPS,
335300,2025-09-03 08:29:24,48.1487503986125,11.5721905972209,8.2021,,,1701.1221482679,8.530184,0.223694,6.5300855108,8.537237806,9,4,14.852,1701.1221482679,8.2021,0.8052984,6.8851380156,0.223694,0,-1.789552,118.8, -1, -0.4,0,0,1024,1024,1225,1024,0,0,30,0,15,-15.2,7.8,61,3.748,3.765,3.762,3.721,0,0,18.842,125.51,1701.1221482679,8.2021,6,P-GPS,
335400,2025-09-03 08:29:24,48.1487505822163,11.5721905311943,8.530184,,,1701.4502322679,8.858268,0.223694,6.4619096556,8.606135446,9,4,14.852,1701.4502322679,8.530184,0.8052984,6.8851380156,0.223694,0,-1.789552,118.9, -0.7, -0.2,0,0,1024,1024,1226,1024,0,0,31,0,15.3,-15,8.6,61,3.748,3.765,3.762,3.721,0,0,18.842,125.51,1701.4502322679,8.530184,6,P-GPS,
335500,2025-09-03 08:29:24,48.1487507692822,11.5721906164725,8.858268,,,1701.7783162679,9.186352,0,6.3958663464,8.6774609076,9,4,14.852,1701.7783162679,8.858268,0.8052984,6.8851380156,0,0,-1.789552,118.9, -0.6, 0.5,0,0,1024,1024,1225,1024,0,0,30,0,14.1,-14.9,9.9,61,3.748,3.765,3.762,3.721,0,0,18.842,125.51,1701.7783162679,8.858268,6,P-GPS,
335600,2025-09-03 08:29:24,48.1487509634871,11.5721909607092,8.858268,,,1701.7783162679,9.514436,0,6.3339240872,8.7872050056,9,4,14.852,1701.7783162679,8.858268,0.8052984,6.8851380156,0.223694,0,-1.789552,118.9, -0.7, 0.9,0,0,1024,1024,1226,1024,0,0,31,0,13.2,-14.9,10.1,61,3.748,3.765,3.762,3.721,0,0,18.842,125.51,1701.7783162679,8.858268,6,P-GPS,
335700,2025-09-03 08:29:25,48.1487517973889,11.5721924016906,9.186352,,,1702.1064002679,9.84252,0,6.0817915332,9.2515422908,9,4,14.852,1702.1064002679,9.186352,0.8052984,6.8851380156,0,0,-1.789552,118.9, -0.7, 0.7,0,0,1024,1024,1226,1024,0,0,31,0,14.2,-14.8,9.2,61,3.748,3.765,3.762,3.721,0,0,18.842,125.51,1702.1064002679,9.186352,6,P-GPS,
335800,2025-09-03 08:29:25,48.1487519078104,11.5721926839642,9.514436,,,1702.4344842679,9.84252,0,6.0543637108,9.331201086,9,4,14.852,1702.4344842679,9.514436,0.8052984,6.8851380156,0,0,-1.789552,118.9, -0.4, 0.4,0,0,1024,1024,1225,1024,0,0,30,0,14.2,-14.7,9,61,3.748,3.765,3.762,3.721,0,0,18.842,125.51,1702.4344842679,9.514436,6,P-GPS,
335900,2025-09-03 08:29:25,48.1487519260816,11.5721928267467,9.84252,,,1702.7625682679,10.170604,0,6.0542652856,9.3666013496,9,4,14.852,1702.7625682679,9.84252,0.8052984,6.8851380156,0,0,-1.789552,119, -0.3, 0.3,0,0,1024,1024,1219,1024,0,0,30,0,13.7,-14.5,9,61,3.748,3.765,3.762,3.721,0,0,18.842,125.51,1702.7625682679,9.84252,6,P-GPS,
336000,2025-09-03 08:29:25,48.1487517951237,11.5721927385058,10.170604,,,1703.0906522679,10.498688,0,6.0972114812,9.418963556,9,4,14.836,1703.0906522679,10.170604,0.8052984,6.8851380156,0,0,-1.789552,119.1, -0.3, 0.2,0,0,1024,1024,1213,1024,0,0,29,0,13.9,-14.6,8.4,61,3.739,3.756,3.754,3.715,0,0,18.776,125.51,1703.0906522679,10.170604,6,P-GPS,
336100,2025-09-03 08:29:25,48.1487517065787,11.5721927392911,10.498688,,,1703.4187362679,10.826772,0,6.1290028208,9.45127983,8,4,14.836,1703.4187362679,10.498688,0.8052984,6.8851380156,0,0,-1.789552,119, -0.5, -0.1,0,0,1024,1024,1216,1024,0,0,29,0,14,-14.6,7.9,61,3.739,3.756,3.754,3.715,0,0,18.776,125.51,1703.4187362679,10.498688,6,P-GPS,
336200,2025-09-03 08:29:25,48.1487515767819,11.5721929264368,10.826772,,,1703.7468202679,11.154856,0,6.1840225076,9.5169950552,8,4,14.836,1703.7468202679,10.826772,0.8052984,6.8851380156,0,0,-1.789552,119, -0.6, -0.5,0,0,1024,1024,1221,1024,0,0,30,0,14,-14.6,7.9,61,3.739,3.756,3.754,3.715,0,0,18.776,125.51,1703.7468202679,10.826772,6,P-GPS,
