time(millisecond),datetime(utc),latitude,longitude,height_above_takeoff(feet),height_above_ground_at_drone_location(feet),ground_elevation_at_drone_location(feet),altitude_above_seaLevel(feet),height_sonar(feet),speed(mph),distance(feet),mileage(feet),satellites,gpslevel,voltage(v),max_altitude(feet),max_ascent(feet),max_speed(mph),max_distance(feet), xSpeed(mph), ySpeed(mph), zSpeed(mph), compass_heading(degrees), pitch(degrees), roll(degrees),isPhoto,isVideo,rc_elevator,rc_aileron,rc_throttle,rc_rudder,rc_elevator(percent),rc_aileron(percent),rc_throttle(percent),rc_rudder(percent),gimbal_heading(degrees),gimbal_pitch(degrees),gimbal_roll(degrees),battery_percent,voltageCell1,voltageCell2,voltageCell3,voltageCell4,voltageCell5,voltageCell6,current(A),battery_temperature(f),altitude(feet),ascent(feet),flycStateRaw,flycState,message
0,2025-09-03 11:55:10,0,0,0,Available with any HD 360 subscription,Available with any HD 360 subscription,1691.232169605,0.328084,0,0,0,6,0,0,1691.232169605,0,0,0,0,0,0,114.4, 5.9, 0.3,0,0,1024,1024,1024,1024,0,0,0,0,267.9,-48,-17.7,100,4.299,4.302,4.302,4.3,0,0,0,87.71,1691.232169605,0,41,Motors_Started,
100,2025-09-03 11:55:10,0,0,0,,,1691.232169605,0.328084,0,0,0,6,0,0,1691.232169605,0,0,0,0,0,0,114.6, 5.8, 0.4,0,0,1024,1024,1024,1024,0,0,0,0,267.7,-48.1,-17.8,100,4.299,4.302,4.302,4.3,0,0,0,87.71,1691.232169605,0,41,Motors_Started,
200,2025-09-03 11:55:10,0,0,0,,,1691.232169605,0.328084,0,0,0,6,0,17.104,1691.232169605,0,0,0,0,0,0,114.2, 5.9, 0.3,0,0,1024,1024,1024,1024,0,0,0,0,267.7,-48,-17.8,100,4.299,4.302,4.302,4.3,0,0,1.41,87.71,1691.232169605,0,41,Motors_Started,"Setting new Return-To-Home altitude to 100m (328 ft). Data Recorder File Index is 239. Setting new Maximum Flight Altitude to 30m (98 ft)"
300,2025-09-03 11:55:10,0,0,0,,,1691.232169605,0.328084,0,0,0,6,0,17.104,1691.232169605,0,0,0,0,0,0,114.4, 5.9, 0.3,0,0,1024,1024,1024,1024,0,0,0,0,267.6,-48.1,-17.8,100,4.299,4.302,4.302,4.3,0,0,1.41,87.71,1691.232169605,0,41,Motors_Started,
400,2025-09-03 11:55:10,0,0,0,,,1691.232169605,0.328084,0,0,0,6,0,17.104,1691.232169605,0,0,0,0,0,0,114.3, 5.9, 0.3,0,0,364,364,364,1684,-100,-100,-100,100,267.5,-48.1,-17.8,100,4.299,4.302,4.302,4.3,0,0,1.41,87.71,1691.232169605,0,41,Motors_Started,
500,2025-09-03 11:55:10,0,0,0,,,1691.232169605,0.328084,0,0,0,6,0,17.104,1691.232169605,0,0,0,0,0,0,114.4, 5.9, 0.4,0,0,364,364,364,1684,-100,-100,-100,100,267.4,-48.1,-17.8,100,4.299,4.302,4.302,4.3,0,0,1.41,87.71,1691.232169605,0,41,Motors_Started,
600,2025-09-03 11:55:10,0,0,0,,,1691.232169605,0.328084,0,0,0,6,0,17.104,1691.232169605,0,0,0,0,0,0,114.3, 5.9, 0.4,0,0,368,364,364,1682,-99,-100,-100,100,267.4,-48,-17.6,100,4.299,4.302,4.302,4.3,0,0,1.41,87.71,1691.232169605,0,41,Motors_Started,
700,2025-09-03 11:55:10,0,0,0,,,1691.232169605,0.328084,0,0,0,6,0,17.104,1691.232169605,0,0,0,0,0,0,114.4, 5.9, 0.4,0,0,834,716,840,1337,-29,-47,-28,47,267.3,-48.1,-17.7,100,4.299,4.302,4.302,4.3,0,0,1.41,87.71,1691.232169605,0,41,Motors_Started,
800,2025-09-03 11:55:10,0,0,0,,,1691.232169605,0.328084,0,0,0,6,0,17.104,1691.232169605,0,0,0,0,0,0,114.3, 5.9, 0.4,0,0,1024,1024,1024,1024,0,0,0,0,267.2,-48.1,-17.6,100,4.299,4.302,4.302,4.3,0,0,1.41,87.71,1691.232169605,0,41,Motors_Started,
900,2025-09-03 11:55:10,0,0,0,,,1691.232169605,0.328084,0,0,0,6,0,17.104,1691.232169605,0,0,0,0,0,0,114.3, 5.9, 0.4,0,0,1024,1024,1024,1024,0,0,0,0,267.2,-48,-17.5,100,4.299,4.302,4.302,4.3,0,0,1.41,87.71,1691.232169605,0,41,Motors_Started,
1000,2025-09-03 11:55:11,0,0,0,,,1691.232169605,0.328084,0,0,0,5,0,17.104,1691.232169605,0,0,0,0,0,0,114.3, 5.9, 0.4,0,0,1024,1024,1024,1024,0,0,0,0,267.1,-48,-17.4,100,4.299,4.302,4.302,4.3,0,0,1.41,87.71,1691.232169605,0,41,Motors_Started,
1100,2025-09-03 11:55:11,0,0,0,,,1691.232169605,0.328084,0,0,0,5,0,17.104,1691.232169605,0,0,0,0,0,0,114.3, 5.9, 0.4,0,0,1024,1024,1024,1024,0,0,0,0,267.1,-48,-17.4,100,4.299,4.302,4.302,4.3,0,0,1.41,87.71,1691.232169605,0,41,Motors_Started,
1200,2025-09-03 11:55:11,0,0,0,,,1691.232169605,0.328084,0,0,0,5,0,17.014,1691.232169605,0,0,0,0,0,0,114.3, 5.9, 0.4,0,0,1024,1024,1024,1024,0,0,0,0,267,-48,-17.5,100,4.299,4.302,4.303,4.299,0,0,1.558,87.71,1691.232169605,0,41,Motors_Started,
1300,2025-09-03 11:55:11,0,0,0,,,1691.232169605,0.328084,0,0,0,5,0,17.014,1691.232169605,0,0,0,0,0,0,114.3, 5.9, 0.4,0,0,1024,1024,1024,1024,0,0,0,0,266.9,-48,-17.4,100,4.299,4.302,4.303,4.299,0,0,1.558,87.71,1691.232169605,0,41,Motors_Started,
1400,2025-09-03 11:55:11,0,0,0,,,1691.232169605,0.328084,0,0,0,5,0,17.014,1691.232169605,0,0,0,0,0,0,114.3, 6, 0.4,0,0,1024,1024,1024,1024,0,0,0,0,267,-47.9,-17.3,100,4.299,4.302,4.303,4.299,0,0,1.558,87.71,1691.232169605,0,41,Motors_Started,
1500,2025-09-03 11:55:11,0,0,0,,,1691.232169605,0.328084,0,0,0,5,0,17.014,1691.232169605,0,0,0,0,0,0,114.4, 6, 0.4,0,0,1024,1024,1024,1024,0,0,0,0,266.9,-48,-17.2,100,4.299,4.302,4.303,4.299,0,0,1.558,87.71,1691.232169605,0,10,Assisted_Takeoff,
1600,2025-09-03 11:55:11,0,0,0,,,1691.232169605,0.328084,0,0,0,5,0,17.014,1691.232169605,0,0,0,0,0,0,114.3, 6, 0.4,0,0,1024,1024,1024,1024,0,0,0,0,266.7,-48,-17.4,100,4.299,4.302,4.303,4.299,0,0,1.558,87.71,1691.232169605,0,10,Assisted_Takeoff,
1700,2025-09-03 11:55:11,0,0,0,,,1691.232169605,0.328084,0,0,0,5,0,17.014,1691.232169605,0,0,0,0,0,0,114.3, 5.9, 0.4,0,0,1024,1024,1024,1024,0,0,0,0,266.6,-48.1,-17.3,100,4.299,4.302,4.303,4.299,0,0,1.558,87.71,1691.232169605,0,10,Assisted_Takeoff,
1800,2025-09-03 11:55:11,0,0,0,,,1691.232169605,0.328084,0,0,0,5,0,17.014,1691.232169605,0,0,0,0,0,0,114.3, 5.9, 0.4,0,0,1024,1024,1024,1024,0,0,0,0,266.5,-48.1,-17.3,100,4.299,4.302,4.303,4.299,0,0,1.558,87.71,1691.232169605,0,10,Assisted_Takeoff,
1900,2025-09-03 11:55:11,0,0,0,,,1691.232169605,0.328084,0,0,0,5,0,17.014,1691.232169605,0,0,0,0,0,0,114.3, 5.9, 0.4,0,0,1024,1024,1024,1024,0,0,0,0,266.4,-48.2,-17.4,100,4.299,4.302,4.303,4.299,0,0,1.558,87.71,1691.232169605,0,10,Assisted_Takeoff,
2000,2025-09-03 11:55:12,0,0,0,,,1691.232169605,0.328084,0,0,0,5,0,17.014,1691.232169605,0,0,0,0,0,0,114.3, 5.9, 0.4,0,0,1024,1024,1024,1024,0,0,0,0,266.3,-48.2,-17.4,100,4.299,4.302,4.303,4.299,0,0,1.558,87.71,1691.232169605,0,10,Assisted_Takeoff,
2100,2025-09-03 11:55:12,0,0,0,,,1691.232169605,0.328084,0,0,0,5,0,17.014,1691.232169605,0,0,0,0,0,0,114.3, 5.9, 0.4,0,0,1024,1024,1024,1024,0,0,0,0,266.2,-48.2,-17.3,100,4.299,4.302,4.303,4.299,0,0,1.558,87.71,1691.232169605,0,10,Assisted_Takeoff,
2200,2025-09-03 11:55:12,0,0,0,,,1691.232169605,0.328084,0,0,0,5,0,16.998,1691.232169605,0,0,0,0,0,0,114.3, 5.9, 0.4,0,0,1024,1024,1024,1024,0,0,0,0,266.1,-48.2,-17.2,100,4.262,4.268,4.276,4.268,0,0,4.256,87.71,1691.232169605,0,10,Assisted_Takeoff,
2300,2025-09-03 11:55:12,0,0,0,,,1691.232169605,0.328084,0,0,0,5,0,16.998,1691.232169605,0,0,0,0,0,0,114.3, 5.9, 0.4,0,0,1024,1024,1024,1024,0,0,0,0,266.1,-48.2,-17.3,100,4.262,4.268,4.276,4.268,0,0,4.256,87.71,1691.232169605,0,10,Assisted_Takeoff,
2400,2025-09-03 11:55:12,0,0,0,,,1691.232169605,0.328084,0,0,0,5,0,16.998,1691.232169605,0,0,0,0,0,0,114.3, 5.9, 0.4,0,0,1024,1024,1024,1024,0,0,0,0,266.1,-48.2,-17.3,100,4.262,4.268,4.276,4.268,0,0,4.256,87.71,1691.232169605,0,10,Assisted_Takeoff,
2500,2025-09-03 11:55:12,0,0,0,,,1691.232169605,0.328084,0,0,0,5,0,16.998,1691.232169605,0,0,0,0,0,0,114.3, 5.9, 0.4,0,0,1024,1024,1024,1024,0,0,0,0,266,-48.2,-17.3,100,4.262,4.268,4.276,4.268,0,0,4.256,87.71,1691.232169605,0,10,Assisted_Takeoff,
2600,2025-09-03 11:55:12,0,0,0,,,1691.232169605,0.328084,0,0,0,5,0,16.998,1691.232169605,0,0,0,0,0,0,114.3, 5.9, 0.4,0,0,1024,1024,1024,1024,0,0,0,0,265.9,-48.2,-17.3,100,4.262,4.268,4.276,4.268,0,0,4.256,87.71,1691.232169605,0,10,Assisted_Takeoff,
2700,2025-09-03 11:55:12,0,0,0,,,1691.232169605,0.328084,0,0,0,5,0,16.998,1691.232169605,0,0,0,0,0,0,114.3, 5.9, 0.4,0,0,1024,1024,1024,1024,0,0,0,0,265.9,-48.2,-17.2,100,4.262,4.268,4.276,4.268,0,0,4.256,87.71,1691.232169605,0,10,Assisted_Takeoff,
2800,2025-09-03 11:55:12,0,0,0,,,1691.232169605,0.328084,0,0,0,5,0,16.998,1691.232169605,0,0,0,0,0,0,114.3, 5.9, 0.4,0,0,1024,1024,1024,1024,0,0,0,0,265.8,-48.2,-17.2,100,4.262,4.268,4.276,4.268,0,0,4.256,87.71,1691.232169605,0,10,Assisted_Takeoff,
2900,2025-09-03 11:55:13,0,0,0,,,1691.232169605,0.328084,0,0,0,5,0,16.998,1691.232169605,0,0,0,0,0,0,114.3, 5.9, 0.4,0,0,1024,1024,1024,1024,0,0,0,0,265.7,-48.2,-17.2,100,4.262,4.268,4.276,4.268,0,0,4.256,87.71,1691.232169605,0,10,Assisted_Takeoff,
3000,2025-09-03 11:55:13,0,0,0,,,1691.232169605,0.328084,0,0,0,5,0,16.998,1691.232169605,0,0,0,0,0,0,114.3, 5.9, 0.4,0,0,1024,1024,1024,1024,0,0,0,0,265.6,-48.3,-17.2,100,4.262,4.268,4.276,4.268,0,0,4.256,87.71,1691.232169605,0,10,Assisted_Takeoff,
3100,2025-09-03 11:55:13,0,0,0,,,1691.232169605,0.328084,0,0,0,5,0,16.998,1691.232169605,0,0,0,0,0,0,114.3, 5.9, 0.4,0,0,1024,1024,1024,1024,0,0,0,0,265.5,-48.3,-17.1,100,4.262,4.268,4.276,4.268,0,0,4.256,87.71,1691.232169605,0,10,Assisted_Takeoff,
3200,2025-09-03 11:55:13,0,0,0,,,1691.232169605,0.328084,0,0,0,5,0,17.06,1691.232169605,0,0,0,0,0,0,114.3, 5.9, 0.4,0,0,1024,1024,1024,1024,0,0,0,0,265.5,-48.3,-17.1,100,4.262,4.268,4.276,4.268,0,0,2.146,87.71,1691.232169605,0,10,Assisted_Takeoff,
3300,2025-09-03 11:55:13,0,0,0,,,1691.232169605,0.328084,0,0,0,5,0,17.06,1691.232169605,0,0,0,0,0,0,114.3, 5.9, 0.4,0,0,1024,1024,1024,1024,0,0,0,0,265.4,-48.3,-17.1,100,4.262,4.268,4.276,4.268,0,0,2.146,87.71,1691.232169605,0,10,Assisted_Takeoff,
3400,2025-09-03 11:55:13,0,0,0,,,1691.232169605,0.328084,0,0,0,5,0,17.06,1691.232169605,0,0,0,0,0,0,114.3, 5.9, 0.4,0,0,1024,1024,1024,1024,0,0,0,0,265.3,-48.3,-17,100,4.262,4.268,4.276,4.268,0,0,2.146,87.71,1691.232169605,0,10,Assisted_Takeoff,
3500,2025-09-03 11:55:13,0,0,0,,,1691.232169605,0.328084,0,0,0,5,0,17.06,1691.232169605,0,0,0,0,0,0,114.3, 5.9, 0.4,0,0,1024,1024,1024,1024,0,0,0,0,265.2,-48.3,-17,100,4.262,4.268,4.276,4.268,0,0,2.146,87.71,1691.232169605,0,10,Assisted_Takeoff,
3600,2025-09-03 11:55:13,0,0,0,,,1691.232169605,0.328084,0,0,0,5,0,17.06,1691.232169605,0,0,0,0,0,0,114.3, 5.9, 0.4,0,0,1024,1024,1024,1024,0,0,0,0,265.1,-48.3,-17,100,4.262,4.268,4.276,4.268,0,0,2.146,87.71,1691.232169605,0,10,Assisted_Takeoff,
3700,2025-09-03 11:55:13,0,0,0,,,1691.232169605,0.328084,0,0,0,5,0,17.06,1691.232169605,0,0,0,0,0,0,114.3, 5.9, 0.4,0,0,1024,1024,1024,1024,0,0,0,0,265,-48.4,-17,100,4.262,4.268,4.276,4.268,0,0,2.146,87.71,1691.232169605,0,10,Assisted_Takeoff,
3800,2025-09-03 11:55:13,0,0,0,,,1691.232169605,0.328084,0,0,0,5,0,17.06,1691.232169605,0,0,0,0,0,0,114.3, 5.9, 0.4,0,0,1025,1024,1024,1024,0,0,0,0,265,-48.4,-17,100,4.262,4.268,4.276,4.268,0,0,2.146,87.71,1691.232169605,0,10,Assisted_Takeoff,
3900,2025-09-03 11:55:13,0,0,0,,,1691.232169605,0.328084,0,0,0,5,0,17.06,1691.232169605,0,0,0,0,0,0,114.3, 5.9, 0.4,0,0,1036,1024,1024,1024,2,0,0,0,265,-48.4,-17,100,4.262,4.268,4.276,4.268,0,0,2.146,87.71,1691.232169605,0,10,Assisted_Takeoff,
4000,2025-09-03 11:55:14,0,0,0,,,1691.232169605,0.328084,0,0,0,5,0,17.06,1691.232169605,0,0,0,0,0,0,114.3, 5.9, 0.4,0,0,1024,1024,1121,1024,0,0,15,0,264.9,-48.4,-16.9,100,4.262,4.268,4.276,4.268,0,0,2.146,87.71,1691.232169605,0,10,Assisted_Takeoff,
4100,2025-09-03 11:55:14,0,0,0,,,1691.232169605,0.328084,0,0,0,5,0,17.06,1691.232169605,0,0,0,0,0,0,114.3, 5.9, 0.4,0,0,1024,1024,1170,1024,0,0,22,0,264.8,-48.4,-16.9,100,4.262,4.268,4.276,4.268,0,0,2.146,87.71,1691.232169605,0,10,Assisted_Takeoff,
4200,2025-09-03 11:55:14,0,0,0,,,1691.232169605,0.328084,0,0,0,5,0,17.099,1691.232169605,0,0,0,0,0,0,114.3, 5.9, 0.4,0,0,1024,1024,1174,1024,0,0,23,0,264.8,-48.4,-16.8,100,4.287,4.29,4.29,4.287,0,0,2.146,87.71,1691.232169605,0,10,Assisted_Takeoff,
4300,2025-09-03 11:55:14,0,0,0,,,1691.232169605,0.328084,0,0,0,5,0,17.099,1691.232169605,0,0,0,0,0,0,114.3, 5.9, 0.4,0,0,1024,1024,1184,1024,0,0,24,0,264.7,-48.4,-16.8,100,4.287,4.29,4.29,4.287,0,0,2.146,87.71,1691.232169605,0,10,Assisted_Takeoff,
4400,2025-09-03 11:55:14,0,0,0,,,1691.232169605,0.328084,0,0,0,5,0,17.099,1691.232169605,0,0,0,0,0,0,114.3, 5.9, 0.4,0,0,1024,1024,1213,1024,0,0,29,0,264.7,-48.4,-16.6,100,4.287,4.29,4.29,4.287,0,0,2.146,87.71,1691.232169605,0,10,Assisted_Takeoff,
4500,2025-09-03 11:55:14,0,0,0,,,1691.232169605,0.328084,0,0,0,5,0,17.099,1691.232169605,0,0,0,0,0,0,114.3, 5.9, 0.3,0,0,1024,1024,1225,1024,0,0,30,0,264.7,-48.4,-16.6,100,4.287,4.29,4.29,4.287,0,0,2.146,87.71,1691.232169605,0,10,Assisted_Takeoff,
4600,2025-09-03 11:55:14,0,0,0,,,1691.232169605,0.328084,0,0,0,5,0,17.099,1691.232169605,0,0,0,0,0,0,114.3, 5.9, 0.3,0,0,1024,1024,1230,1024,0,0,31,0,264.7,-48.2,-16.4,100,4.287,4.29,4.29,4.287,0,0,2.146,87.71,1691.232169605,0,10,Assisted_Takeoff,
4700,2025-09-03 11:55:14,0,0,0,,,1691.232169605,0.328084,0,0,0,5,0,17.099,1691.232169605,0,0,0,0,0,0,114.3, 5.9, 0.3,0,0,1024,1024,1241,1024,0,0,33,0,264.7,-48,-16.1,100,4.287,4.29,4.29,4.287,0,0,2.146,87.71,1691.232169605,0,10,Assisted_Takeoff,
4800,2025-09-03 11:55:14,0,0,0,,,1691.232169605,0.328084,0,0,0,5,0,17.099,1691.232169605,0,0,0,0,0,0,114.3, 6, 0.3,0,0,1024,1024,1255,1024,0,0,35,0,264.8,-47.6,-15.5,100,4.287,4.29,4.29,4.287,0,0,2.146,87.71,1691.232169605,0,10,Assisted_Takeoff,
4900,2025-09-03 11:55:14,0,0,0,,,1691.232169605,0.328084,0,0,0,5,0,17.099,1691.232169605,0,0,0,0,0,0,114.4, 6.2, 0.2,0,0,1024,1024,1258,1024,0,0,35,0,264.9,-47,-14.8,100,4.287,4.29,4.29,4.287,0,0,2.146,87.71,1691.232169605,0,10,Assisted_Takeoff,
5000,2025-09-03 11:55:15,0,0,0,,,1691.232169605,0.328084,0,0,0,5,0,17.099,1691.232169605,0,0,0,0,0,0,114.4, 6.3, 0.2,0,0,1024,1024,1251,1024,0,0,34,0,264.9,-46.5,-14.1,100,4.287,4.29,4.29,4.287,0,0,2.146,87.71,1691.232169605,0,10,Assisted_Takeoff,
5100,2025-09-03 11:55:15,0,0,0,,,1691.232169605,0.328084,0,0,0,5,0,17.099,1691.232169605,0,0,0,0,0,0,114.6, 6.5, 0.2,0,0,1024,1024,1263,1024,0,0,36,0,264.9,-46.5,-14.1,100,4.287,4.29,4.29,4.287,0,0,2.146,87.71,1691.232169605,0,10,Assisted_Takeoff,
5200,2025-09-03 11:55:15,0,0,0,,,1691.232169605,0.328084,0,0,0,5,0,16.969,1691.232169605,0,0,0,0,0,0,114.2, 5.5, 0.2,0,0,1024,1024,1260,1024,0,0,36,0,263.7,-47.4,-13.6,99,4.287,4.291,4.29,4.287,0,0,2.14,87.71,1691.232169605,0,10,Assisted_Takeoff,
5300,2025-09-03 11:55:15,0,0,0,,,1691.232169605,0.328084,0.223694,0,0,5,0,16.969,1691.232169605,0,0.223694,0,0,-0.223694,-0.223694,113.7, 3.4, 0.1,0,0,1024,1024,1256,1024,0,0,35,0,262.2,-50.1,-12.9,99,4.287,4.291,4.29,4.287,0,0,2.14,87.71,1691.232169605,0,10,Assisted_Takeoff,
5400,2025-09-03 11:55:15,0,0,0,,,1691.232169605,0.656168,0.223694,0,0,5,0,16.969,1691.232169605,0,0.223694,0,0,-0.223694,-0.671082,113.7, 1, -0.3,0,0,1024,1024,1250,1024,0,0,34,0,262,-52.8,-13.1,99,4.287,4.291,4.29,4.287,0,0,2.14,87.71,1691.232169605,0,6,P-GPS,
5500,2025-09-03 11:55:15,0,0,0.328084,,,1691.560253605,0.656168,0.223694,0,0,5,0,16.969,1691.560253605,0.328084,0.223694,0,0,-0.223694,-1.11847,113.7, -0.8, -0.4,0,0,1024,1024,1252,1024,0,0,35,0,263.4,-54.7,-13.4,99,4.287,4.291,4.29,4.287,0,0,2.14,87.71,1691.560253605,0.328084,6,P-GPS,
5600,2025-09-03 11:55:15,0,0,0.328084,,,1691.560253605,0.984252,0.223694,0,0,5,0,16.969,1691.560253605,0.328084,0.223694,0,0,-0.223694,-1.342164,113.8, -1.9, -0.2,0,0,1024,1024,1240,1024,0,0,33,0,264.6,-55.2,-13.9,99,4.287,4.291,4.29,4.287,0,0,2.14,87.71,1691.560253605,0.328084,6,P-GPS,
5700,2025-09-03 11:55:15,0,0,0.656168,,,1691.888337605,1.312336,0,0,0,5,0,16.969,1691.888337605,0.656168,0.223694,0,0,0,-1.565858,113.7, -2.6, 0.2,0,0,1024,1024,1235,1024,0,0,32,0,264.2,-55.5,-13.3,99,4.287,4.291,4.29,4.287,0,0,2.14,87.71,1691.888337605,0.656168,6,P-GPS,
5800,2025-09-03 11:55:15,0,0,0.984252,,,1692.216421605,1.312336,0,0,0,6,0,16.969,1692.216421605,0.984252,0.223694,0,0,0,-1.789552,113.7, -1.8, 1,0,0,1024,1024,1232,1024,0,0,32,0,263.7,-53.9,-12.1,99,4.287,4.291,4.29,4.287,0,0,2.14,87.71,1692.216421605,0.984252,6,P-GPS,
5900,2025-09-03 11:55:15,0,0,1.312336,,,1692.544505605,1.64042,0,0,0,6,0,16.969,1692.544505605,1.312336,0.223694,0,0,0,-2.013246,113.8, -0.6, 0.9,0,0,1024,1024,1226,1024,0,0,31,0,263.3,-52.9,-12.9,99,4.287,4.291,4.29,4.287,0,0,2.14,87.71,1692.544505605,1.312336,6,P-GPS,
6000,2025-09-03 11:55:16,0,0,1.312336,,,1692.544505605,1.968504,0,0,0,7,0,16.969,1692.544505605,1.312336,0.223694,0,0,0,-2.013246,113.8, 0, -0.1,0,0,1024,1024,1207,1024,0,0,28,0,263.5,-52.6,-14,99,4.287,4.291,4.29,4.287,0,0,2.14,87.71,1692.544505605,1.312336,6,P-GPS,
6100,2025-09-03 11:55:16,0,0,1.64042,,,1692.872589605,2.296588,0,0,0,7,0,16.969,1692.872589605,1.64042,0.223694,0,0,0,-2.013246,114, 0.2, -0.7,0,0,1024,1024,1190,1024,0,0,25,0,263.1,-52.7,-13.9,99,4.287,4.291,4.29,4.287,0,0,2.14,87.71,1692.872589605,1.64042,6,P-GPS,
6200,2025-09-03 11:55:16,0,0,1.968504,,,1693.200673605,2.624672,0,0,0,6,0,16.95,1693.200673605,1.968504,0.223694,0,0,0,-2.013246,114, 0.2, -0.6,0,0,1024,1024,1187,1024,0,0,25,0,263.5,-53.1,-12.8,99,4.135,4.145,4.138,4.122,0,0,15.478,87.71,1693.200673605,1.968504,6,P-GPS,
6300,2025-09-03 11:55:16,0,0,2.296588,,,1693.528757605,2.952756,0,0,0,6,0,16.95,1693.528757605,2.296588,0.223694,0,0,0,-1.789552,114, -0.3, 0.3,0,0,1024,1024,1189,1024,0,0,25,0,263.9,-53.3,-12.5,99,4.135,4.145,4.138,4.122,0,0,15.478,87.71,1693.528757605,2.296588,6,P-GPS,
6400,2025-09-03 11:55:16,0,0,2.624672,,,1693.856841605,3.28084,0,0,0,5,0,16.95,1693.856841605,2.624672,0.223694,0,0,0,-1.789552,114, -0.4, 0.5,0,0,1024,1024,1190,1024,0,0,25,0,264.4,-52.5,-12.8,99,4.135,4.145,4.138,4.122,0,0,15.478,87.71,1693.856841605,2.624672,6,P-GPS,
6500,2025-09-03 11:55:16,0,0,2.952756,,,1694.184925605,3.28084,0,0,0,5,0,16.95,1694.184925605,2.952756,0.223694,0,0,0,-1.565858,114, 0, 0.5,0,0,1024,1024,1187,1024,0,0,25,0,264.4,-52.5,-12.8,99,4.135,4.145,4.138,4.122,0,0,15.478,87.71,1694.184925605,2.952756,6,P-GPS,
6600,2025-09-03 11:55:16,0,0,2.952756,,,1694.184925605,3.608924,0,0,0,5,0,16.95,1694.184925605,2.952756,0.223694,0,0,0,-1.342164,114, 0.5, 0.7,0,0,1024,1024,1193,1024,0,0,26,0,264,-52.3,-12.6,99,4.135,4.145,4.138,4.122,0,0,15.478,87.71,1694.184925605,2.952756,6,P-GPS,
6700,2025-09-03 11:55:16,0,0,3.28084,,,1694.513009605,3.608924,0,0,0,5,0,16.95,1694.513009605,3.28084,0.223694,0,0,0,-1.342164,114, 0.8, 0.8,0,0,1024,1024,1195,1024,0,0,26,0,263.7,-52.1,-12.1,99,4.135,4.145,4.138,4.122,0,0,15.478,87.71,1694.513009605,3.28084,6,P-GPS,
6800,2025-09-03 11:55:16,0,0,3.608924,,,1694.841093605,3.937008,0,0,0,7,0,16.95,1694.841093605,3.608924,0.223694,0,0,0,-1.342164,114, 0.9, 0.9,0,0,1024,1024,1194,1024,0,0,26,0,264,-51.8,-12.4,99,4.135,4.145,4.138,4.122,0,0,15.478,87.71,1694.841093605,3.608924,6,P-GPS,
6900,2025-09-03 11:55:16,0,0,3.608924,,,1694.841093605,4.265092,0,0,0,7,0,16.95,1694.841093605,3.608924,0.223694,0,0,0,-1.11847,114, 0.7, 0.9,0,0,1024,1024,1174,1024,0,0,23,0,263.8,-52.1,-12.1,99,4.135,4.145,4.138,4.122,0,0,15.478,87.71,1694.841093605,3.608924,6,P-GPS,
7000,2025-09-03 11:55:17,0,0,3.937008,,,1695.169177605,4.265092,0,0,0,7,0,16.95,1695.169177605,3.937008,0.223694,0,0,0,-1.342164,113.9, 0.6, 0.9,0,0,1024,1024,1179,1024,0,0,23,0,263.2,-52.2,-12.1,99,4.135,4.145,4.138,4.122,0,0,15.478,87.71,1695.169177605,3.937008,6,P-GPS,
7100,2025-09-03 11:55:17,0,0,3.937008,,,1695.169177605,4.593176,0,0,0,7,0,16.95,1695.169177605,3.937008,0.223694,0,0,0,-1.11847,113.9, 0.8, 1.1,0,0,1024,1024,1176,1024,0,0,23,0,263.2,-52.1,-12.4,99,4.135,4.145,4.138,4.122,0,0,15.478,87.71,1695.169177605,3.937008,6,P-GPS,
7200,2025-09-03 11:55:17,0,0,4.265092,,,1695.497261605,4.92126,0,0,0,7,0,16.229,1695.497261605,4.265092,0.223694,0,0,0,-1.11847,113.8, 0.6, 1.2,0,0,1024,1024,1197,1024,0,0,26,0,263.6,-52.4,-11.8,99,4.102,4.123,4.114,4.095,0,0,17.068,87.71,1695.497261605,4.265092,6,P-GPS,
7300,2025-09-03 11:55:17,0,0,4.593176,,,1695.825345605,4.92126,0,0,0,7,0,16.229,1695.825345605,4.593176,0.223694,0,0,0,-1.11847,113.8, 0.3, 1.6,0,0,1024,1024,1184,1024,0,0,24,0,263.9,-52.6,-11.2,99,4.102,4.123,4.114,4.095,0,0,17.068,87.71,1695.825345605,4.593176,6,P-GPS,
7400,2025-09-03 11:55:17,0,0,4.593176,,,1695.825345605,5.249344,0,0,0,6,0,16.229,1695.825345605,4.593176,0.223694,0,0,0,-1.11847,113.8, 0.4, 1.4,0,0,1024,1024,1183,1024,0,0,24,0,263.6,-52.3,-11.3,99,4.102,4.123,4.114,4.095,0,0,17.068,87.71,1695.825345605,4.593176,6,P-GPS,
7500,2025-09-03 11:55:17,0,0,4.92126,,,1696.153429605,5.249344,0,0,0,6,0,16.229,1696.153429605,4.92126,0.223694,0,0,0,-1.11847,113.8, 0.7, 1,0,0,1024,1024,1192,1024,0,0,25,0,262.8,-52.7,-11.3,99,4.102,4.123,4.114,4.095,0,0,17.068,87.71,1696.153429605,4.92126,6,P-GPS,
7600,2025-09-03 11:55:17,0,0,4.92126,,,1696.153429605,5.577428,0,0,0,6,0,16.229,1696.153429605,4.92126,0.223694,0,0,0,-1.11847,113.8, 0.7, 0.5,0,0,1024,1024,1183,1024,0,0,24,0,261,-53.3,-11.2,99,4.102,4.123,4.114,4.095,0,0,17.068,87.71,1696.153429605,4.92126,6,P-GPS,
7700,2025-09-03 11:55:17,0,0,5.249344,,,1696.481513605,5.905512,0,0,0,6,0,16.229,1696.481513605,5.249344,0.223694,0,0,0,-1.342164,113.8, 0.6, 0,0,0,1024,1024,1175,1024,0,0,23,0,262.8,-52.4,-11.9,99,4.102,4.123,4.114,4.095,0,0,17.068,87.71,1696.481513605,5.249344,6,P-GPS,
7800,2025-09-03 11:55:17,0,0,5.577428,,,1696.809597605,5.905512,0,0,0,6,0,16.229,1696.809597605,5.577428,0.223694,0,0,0,-1.342164,113.9, 0.7, 0.4,0,0,1024,1024,1171,1024,0,0,22,0,262.8,-52.4,-11.9,99,4.102,4.123,4.114,4.095,0,0,17.068,87.71,1696.809597605,5.577428,6,P-GPS,
7900,2025-09-03 11:55:17,0,0,5.577428,,,1696.809597605,6.233596,0,0,0,6,0,16.229,1696.809597605,5.577428,0.223694,0,0,0,-1.11847,113.9, 0.8, 0.9,0,0,1024,1024,1176,1024,0,0,23,0,264.4,-52,-12.7,99,4.102,4.123,4.114,4.095,0,0,17.068,87.71,1696.809597605,5.577428,6,P-GPS,
8000,2025-09-03 11:55:18,0,0,5.905512,,,1697.137681605,6.233596,0,0,0,5,0,16.229,1697.137681605,5.905512,0.223694,0,0,0,-1.11847,113.8, 0.4, 1.1,0,0,1024,1024,1180,1024,0,0,24,0,262.6,-52.7,-11.2,99,4.102,4.123,4.114,4.095,0,0,17.068,87.71,1697.137681605,5.905512,6,P-GPS,
8100,2025-09-03 11:55:18,0,0,6.233596,,,1697.465765605,6.56168,0,0,0,5,0,16.229,1697.465765605,6.233596,0.223694,0,0,0,-1.11847,113.7, 0.2, 1.2,0,0,1024,1024,1191,1024,0,0,25,0,261.9,-53,-10.5,99,4.102,4.123,4.114,4.095,0,0,17.068,87.71,1697.465765605,6.233596,6,P-GPS,
8200,2025-09-03 11:55:18,0,0,6.233596,,,1697.465765605,6.889764,0,0,0,6,0,16.327,1697.465765605,6.233596,0.223694,0,0,0,-1.11847,113.8, 0.1, 1.5,0,0,1024,1024,1193,1024,0,0,26,0,262.6,-53.1,-10.9,99,4.102,4.123,4.114,4.095,0,0,17.068,87.71,1697.465765605,6.233596,6,P-GPS,
8300,2025-09-03 11:55:18,0,0,6.56168,,,1697.793849605,7.217848,0,0,0,6,0,16.327,1697.793849605,6.56168,0.223694,0,0,0,-1.11847,113.8, 0.2, 1.3,0,0,1024,1024,1196,1024,0,0,26,0,262.3,-53.1,-10.9,99,4.102,4.123,4.114,4.095,0,0,17.068,87.71,1697.793849605,6.56168,6,P-GPS,
8400,2025-09-03 11:55:18,0,0,6.56168,,,1697.793849605,7.217848,0,0,0,6,0,16.327,1697.793849605,6.56168,0.223694,0,0,0,-1.11847,113.9, 0.2, 1,0,0,1024,1024,1184,1024,0,0,24,0,262.3,-53,-11.2,99,4.102,4.123,4.114,4.095,0,0,17.068,87.71,1697.793849605,6.56168,6,P-GPS,
8500,2025-09-03 11:55:18,0,0,6.889764,,,1698.121933605,7.545932,0,0,0,6,0,16.327,1698.121933605,6.889764,0.223694,0,0,0,-1.342164,113.9, 0.3, 0.8,0,0,1024,1024,1168,1024,0,0,22,0,262.1,-53,-10.8,99,4.102,4.123,4.114,4.095,0,0,17.068,87.71,1698.121933605,6.889764,6,P-GPS,
8600,2025-09-03 11:55:18,0,0,6.889764,,,1698.121933605,7.545932,0,0,0,6,0,16.327,1698.121933605,6.889764,0.223694,0,0,0,-1.342164,113.9, 0.4, 0.9,0,0,1024,1024,1166,1024,0,0,22,0,262.2,-52.9,-10.5,99,4.102,4.123,4.114,4.095,0,0,17.068,87.71,1698.121933605,6.889764,6,P-GPS,
8700,2025-09-03 11:55:18,0,0,7.217848,,,1698.450017605,7.874016,0,0,0,6,0,16.327,1698.450017605,7.217848,0.223694,0,0,0,-1.11847,113.9, 0.5, 1,0,0,1024,1024,1176,1024,0,0,23,0,262.4,-52.8,-11.1,99,4.102,4.123,4.114,4.095,0,0,17.068,87.71,1698.450017605,7.217848,6,P-GPS,
8800,2025-09-03 11:55:18,0,0,7.545932,,,1698.778101605,8.2021,0,0,0,6,0,16.327,1698.778101605,7.545932,0.223694,0,0,0,-1.11847,113.9, 0.4, 1.1,0,0,1024,1024,1178,1024,0,0,23,0,261.9,-52.9,-10.5,99,4.102,4.123,4.114,4.095,0,0,17.068,87.71,1698.778101605,7.545932,6,P-GPS,
8900,2025-09-03 11:55:19,0,0,7.545932,,,1698.778101605,8.2021,0,0,0,6,0,16.327,1698.778101605,7.545932,0.223694,0,0,0,-1.11847,113.9, 0.4, 1.4,0,0,1024,1024,1175,1024,0,0,23,0,261.6,-53,-10.5,99,4.102,4.123,4.114,4.095,0,0,17.068,87.71,1698.778101605,7.545932,6,P-GPS,
9000,2025-09-03 11:55:19,0,0,7.874016,,,1699.106185605,8.530184,0,0,0,7,0,16.327,1699.106185605,7.874016,0.223694,0,0,0,-1.11847,113.8, 0.3, 1.1,0,0,1024,1024,1182,1024,0,0,24,0,262.4,-52.9,-11.7,99,4.102,4.123,4.114,4.095,0,0,17.068,87.71,1699.106185605,7.874016,6,P-GPS,
9100,2025-09-03 11:55:19,0,0,7.874016,,,1699.106185605,8.530184,0,0,0,7,0,16.327,1699.106185605,7.874016,0.223694,0,0,0,-1.11847,113.8, 0.2, 0.9,0,0,1024,1024,1182,1024,0,0,24,0,261.9,-53.1,-11.8,99,4.102,4.123,4.114,4.095,0,0,17.068,87.71,1699.106185605,7.874016,6,P-GPS,
9200,2025-09-03 11:55:19,0,0,8.2021,,,1699.434269605,8.530184,0,0,0,8,0,16.235,1699.434269605,8.2021,0.223694,0,0,0,-1.11847,113.8, 0.1, 0.6,0,0,1024,1024,1215,1024,0,0,29,0,261.9,-53.1,-11.8,99,4.102,4.123,4.114,4.095,0,0,17.068,87.71,1699.434269605,8.2021,6,P-GPS,
9300,2025-09-03 11:55:19,0,0,8.2021,,,1699.434269605,8.858268,0,0,0,8,0,16.235,1699.434269605,8.2021,0.223694,0,0,0,-1.11847,113.8, 0, 0.4,0,0,1024,1024,1198,1024,0,0,26,0,260.3,-53.7,-10.5,99,4.102,4.123,4.114,4.095,0,0,17.068,87.71,1699.434269605,8.2021,6,P-GPS,
9400,2025-09-03 11:55:19,0,0,8.530184,,,1699.762353605,8.858268,0,0,0,7,0,16.235,1699.762353605,8.530184,0.223694,0,0,0,-1.11847,113.8, 0.3, 0.9,0,0,1024,1024,1183,1024,0,0,24,0,260.5,-53.4,-9.8,99,4.102,4.123,4.114,4.095,0,0,17.068,87.71,1699.762353605,8.530184,6,P-GPS,
9500,2025-09-03 11:55:19,0,0,8.530184,,,1699.762353605,9.186352,0,0,0,7,0,16.235,1699.762353605,8.530184,0.223694,0,0,0,-1.342164,113.9, 0.5, 1.4,0,0,1024,1024,1192,1024,0,0,25,0,262.3,-52.9,-10.7,99,4.102,4.123,4.114,4.095,0,0,17.068,87.71,1699.762353605,8.530184,6,P-GPS,
9600,2025-09-03 11:55:19,0,0,8.858268,,,1700.090437605,9.514436,0,0,0,8,0,16.235,1700.090437605,8.858268,0.223694,0,0,0,-1.342164,113.9, 0.5, 1.2,0,0,1024,1024,1202,1024,0,0,27,0,261.9,-52.6,-10.4,99,4.102,4.123,4.114,4.095,0,0,17.068,87.71,1700.090437605,8.858268,6,P-GPS,
9700,2025-09-03 11:55:19,0,0,9.186352,,,1700.418521605,9.84252,0,0,0,8,0,16.235,1700.418521605,9.186352,0.223694,0,0,0,-1.342164,113.9, 0.5, 1,0,0,1024,1024,1201,1024,0,0,27,0,260.2,-53,-10,99,4.102,4.123,4.114,4.095,0,0,17.068,87.71,1700.418521605,9.186352,6,P-GPS,
9800,2025-09-03 11:55:19,0,0,9.186352,,,1700.418521605,10.170604,0,0,0,7,0,16.235,1700.418521605,9.186352,0.223694,0,0,0,-1.342164,114, 0.5, 1.2,0,0,1024,1024,1218,1024,0,0,29,0,261.9,-52.5,-10.6,99,4.102,4.123,4.114,4.095,0,0,17.068,87.71,1700.418521605,9.186352,6,P-GPS,
9900,2025-09-03 11:55:19,0,0,9.514436,,,1700.746605605,10.170604,0,0,0,7,0,16.235,1700.746605605,9.514436,0.223694,0,0,0,-1.342164,114.1, 0.8, 1.6,0,0,1024,1024,1220,1024,0,0,30,0,262.3,-52.3,-10.7,99,4.102,4.123,4.114,4.095,0,0,17.068,87.71,1700.746605605,9.514436,6,P-GPS,
10000,2025-09-03 11:55:20,0,0,9.84252,,,1701.074689605,10.826772,0,0,0,7,0,16.235,1701.074689605,9.84252,0.223694,0,0,0,-1.342164,114.1, 0.9, 1.7,0,0,1024,1024,1227,1024,0,0,31,0,261.3,-52.7,-10.2,99,4.102,4.123,4.114,4.095,0,0,17.068,87.71,1701.074689605,9.84252,6,P-GPS,
10100,2025-09-03 11:55:20,0,0,9.84252,,,1701.074689605,10.826772,0,0,0,7,0,16.235,1701.074689605,9.84252,0.223694,0,0,0,-1.565858,114.1, 0.8, 1.6,0,0,1024,1024,1227,1024,0,0,31,0,260.9,-52.8,-10.5,99,4.102,4.123,4.114,4.095,0,0,17.068,87.71,1701.074689605,9.84252,6,P-GPS,
10200,2025-09-03 11:55:20,0,0,10.170604,,,1701.402773605,11.154856,0,0,0,7,0,16.18,1701.402773605,10.170604,0.223694,0,0,0,-1.789552,114.2, 0.6, 1.2,0,0,1024,1024,1248,1024,0,0,34,0,261.8,-52.7,-11,99,4.094,4.113,4.103,4.085,0,0,17.388,87.71,1701.402773605,10.170604,6,P-GPS,
10300,2025-09-03 11:55:20,0,0,10.498688,,,1701.730857605,11.48294,0,0,0,7,0,16.18,1701.730857605,10.498688,0.223694,0,0,0,-1.789552,114.3, 0.5, 1.3,0,0,1024,1024,1240,1024,0,0,33,0,261.6,-53,-10.4,99,4.094,4.113,4.103,4.085,0,0,17.388,87.71,1701.730857605,10.498688,6,P-GPS,
10400,2025-09-03 11:55:20,0,0,10.826772,,,1702.058941605,11.811024,0,0,0,7,2,16.18,1702.058941605,10.826772,0.223694,0,0,0,-2.013246,114.4, 0.5, 1.7,0,0,1024,1024,1263,1024,0,0,36,0,261,-52.9,-10.3,99,4.094,4.113,4.103,4.085,0,0,17.388,87.71,1702.058941605,10.826772,6,P-GPS,
10500,2025-09-03 11:55:20,0,0,11.154856,,,1702.387025605,11.811024,0,0,0,7,2,16.18,1702.387025605,11.154856,0.223694,0,0,0,-2.013246,114.4, 0.5, 1.3,0,0,1024,1024,1273,1024,0,0,38,0,261,-52.9,-10.3,99,4.094,4.113,4.103,4.085,0,0,17.388,87.71,1702.387025605,11.154856,6,P-GPS,
10600,2025-09-03 11:55:20,0,0,11.48294,,,1702.715109605,12.139108,0.223694,0,0,7,2,16.18,1702.715109605,11.48294,0.223694,0,0,-0.223694,-2.013246,114.4, 0, 0.2,0,0,1024,1024,1275,1024,0,0,38,0,260.6,-53.1,-11.4,99,4.094,4.113,4.103,4.085,0,0,17.388,87.71,1702.715109605,11.48294,6,P-GPS,
10700,2025-09-03 11:55:20,0,0,11.811024,,,1703.043193605,12.139108,0,0,0,7,2,16.18,1703.043193605,11.811024,0.223694,0,0,0,-2.23694,114.3, -0.2, 0.1,0,0,1024,1024,1277,1024,0,0,38,0,261,-53.2,-11.8,99,4.094,4.113,4.103,4.085,0,0,17.388,87.71,1703.043193605,11.811024,6,P-GPS,
10800,2025-09-03 11:55:20,0,0,12.139108,,,1703.371277605,12.467192,0,0,0,7,2,16.18,1703.371277605,12.139108,0.223694,0,0,0,-2.460634,114.2, -0.1, 0.1,0,0,1024,1024,1277,1024,0,0,38,0,260.5,-53.5,-11.5,99,4.094,4.113,4.103,4.085,0,0,17.388,87.71,1703.371277605,12.139108,6,P-GPS,
10900,2025-09-03 11:55:20,0,0,12.467192,,,1703.699361605,12.795276,0,0,0,7,2,16.18,1703.699361605,12.467192,0.223694,0,0,0,-2.460634,114.2, -0.2, 0.4,0,0,1024,1024,1275,1024,0,0,38,0,260.2,-53.9,-10.8,99,4.094,4.113,4.103,4.085,0,0,17.388,87.71,1703.699361605,12.467192,6,P-GPS,
11000,2025-09-03 11:55:21,0,0,12.795276,,,1704.027445605,13.12336,0.223694,0,0,7,2,16.18,1704.027445605,12.795276,0.223694,0,0,-0.223694,-2.460634,114.1, -0.8, 0.8,0,0,1024,1024,1277,1024,0,0,38,0,260.7,-54.2,-10.8,99,4.094,4.113,4.103,4.085,0,0,17.388,87.71,1704.027445605,12.795276,6,P-GPS,
11100,2025-09-03 11:55:21,0,0,13.12336,,,1704.355529605,13.451444,0.223694,0,0,7,2,16.18,1704.355529605,13.12336,0.223694,0,0,-0.223694,-2.684328,114, -1.1, 0.9,0,0,1024,1024,1277,1024,0,0,38,0,260.5,-54.3,-10.7,99,4.094,4.113,4.103,4.085,0,0,17.388,87.71,1704.355529605,13.12336,6,P-GPS,
11200,2025-09-03 11:55:21,0,0,13.779528,,,1705.011697605,13.779528,0,0,0,6,2,16.104,1705.011697605,13.779528,0.223694,0,0,0,-2.684328,114, -1.1, 1,0,0,1024,1024,1275,1024,0,0,38,0,260.3,-54.5,-10.8,99,4.085,4.099,4.083,4.06,0,0,17.458,89.51,1705.011697605,13.779528,6,P-GPS,"Setting new Maximum Flight Altitude to 150m (492 ft)"
11300,2025-09-03 11:55:21,0,0,14.107612,,,1705.339781605,14.107612,0.223694,0,0,6,2,16.104,1705.339781605,14.107612,0.223694,0,0,-0.223694,-2.684328,113.9, -1.2, 0.8,0,0,1024,1024,1268,1024,0,0,37,0,259.8,-54.4,-10.9,99,4.085,4.099,4.083,4.06,0,0,17.458,89.51,1705.339781605,14.107612,6,P-GPS,
11400,2025-09-03 11:55:21,0,0,14.435696,,,1705.667865605,14.435696,0.223694,0,0,8,2,16.104,1705.667865605,14.435696,0.223694,0,0,-0.223694,-2.684328,113.9, -1.1, 0.4,0,0,1024,1024,1256,1024,0,0,35,0,259.9,-54.2,-11.5,99,4.085,4.099,4.083,4.06,0,0,17.458,89.51,1705.667865605,14.435696,6,P-GPS,"Braking now. Return sticks to midpoints, then continue flying."
11500,2025-09-03 11:55:21,0,0,14.76378,,,1705.995949605,14.76378,0.223694,0,0,8,2,16.104,1705.995949605,14.76378,0.223694,0,0,-0.223694,-2.684328,113.9, -1, 0,0,0,1024,1024,1260,1024,0,0,36,0,259.2,-54.6,-12,99,4.085,4.099,4.083,4.06,0,0,17.458,89.51,1705.995949605,14.76378,6,P-GPS,
11600,2025-09-03 11:55:21,0,0,15.419948,,,1706.652117605,15.091864,0.223694,0,0,7,2,16.104,1706.652117605,15.419948,0.223694,0,0,-0.223694,-2.460634,113.8, -1.1, -0.4,0,0,1024,1024,1264,1024,0,0,36,0,258.9,-55,-12.3,99,4.085,4.099,4.083,4.06,0,0,17.458,89.51,1706.652117605,15.419948,6,P-GPS,
11700,2025-09-03 11:55:21,0,0,15.748032,,,1706.980201605,15.748032,0.223694,0,0,7,2,16.104,1706.980201605,15.748032,0.223694,0,0,-0.223694,-2.460634,113.9, -1.2, -0.9,0,0,1024,1024,1257,1024,0,0,35,0,258.8,-55.2,-12.6,99,4.085,4.099,4.083,4.06,0,0,17.458,89.51,1706.980201605,15.748032,6,P-GPS,
11800,2025-09-03 11:55:21,0,0,16.076116,,,1707.308285605,16.076116,0.3131716,0,0,7,2,16.104,1707.308285605,16.076116,0.3131716,0,-0.223694,-0.223694,-2.460634,113.9, -1.4, -1.1,0,0,1024,1024,1247,1024,0,0,34,0,258.8,-55.2,-12.6,99,4.085,4.099,4.083,4.06,0,0,17.458,89.51,1707.308285605,16.076116,6,P-GPS,
11900,2025-09-03 11:55:22,0,0,16.4042,,,1707.636369605,16.4042,0.223694,0,0,7,2,16.104,1707.636369605,16.4042,0.3131716,0,0,-0.223694,-2.460634,113.9, -1.4, -1.2,0,0,1024,1024,1244,1024,0,0,33,0,258.5,-55.2,-12.2,99,4.085,4.099,4.083,4.06,0,0,17.458,89.51,1707.636369605,16.4042,6,P-GPS,
12000,2025-09-03 11:55:22,0,0,16.732284,,,1707.964453605,16.732284,0.223694,0,0,7,2,16.104,1707.964453605,16.732284,0.3131716,0,0,-0.223694,-2.23694,114, -1.5, -1.4,0,0,1024,1024,1245,1024,0,0,33,0,258.4,-55.3,-12.7,99,4.085,4.099,4.083,4.06,0,0,17.458,89.51,1707.964453605,16.732284,6,P-GPS,
12100,2025-09-03 11:55:22,0,0,17.060368,,,1708.292537605,17.060368,0.223694,0,0,7,2,16.104,1708.292537605,17.060368,0.3131716,0,0,-0.223694,-2.23694,114.1, -1.5, -1.6,0,0,1024,1024,1240,1024,0,0,33,0,258.3,-55.3,-12.4,99,4.085,4.099,4.083,4.06,0,0,17.458,89.51,1708.292537605,17.060368,6,P-GPS,
12200,2025-09-03 11:55:22,0,0,17.388452,,,1708.620621605,17.388452,0.223694,0,0,7,2,16.013,1708.620621605,17.388452,0.3131716,0,0,-0.223694,-2.23694,114.1, -1, -1.5,0,0,1024,1024,1227,1024,0,0,31,0,258.2,-54.9,-12.4,99,4.057,4.075,4.07,4.057,0,0,18.53,89.51,1708.620621605,17.388452,6,P-GPS,
12300,2025-09-03 11:55:22,0,0,17.716536,,,1708.948705605,17.716536,0.223694,0,0,7,2,16.013,1708.948705605,17.716536,0.3131716,0,0,-0.223694,-2.013246,114, -1, -1.3,0,0,1024,1024,1216,1024,0,0,29,0,258,-55,-11.9,99,4.057,4.075,4.07,4.057,0,0,18.53,89.51,1708.948705605,17.716536,6,P-GPS,
12400,2025-09-03 11:55:22,0,0,18.04462,,,1709.276789605,18.04462,0.223694,0,0,7,2,16.013,1709.276789605,18.04462,0.3131716,0,0,-0.223694,-2.013246,113.9, -1.1, -1.2,0,0,1024,1024,1207,1024,0,0,28,0,258,-55.1,-12.1,99,4.057,4.075,4.07,4.057,0,0,18.53,89.51,1709.276789605,18.04462,6,P-GPS,
12500,2025-09-03 11:55:22,0,0,18.372704,,,1709.604873605,18.372704,0.223694,0,0,7,2,16.013,1709.604873605,18.372704,0.3131716,0,0,-0.223694,-1.789552,113.9, -1.4, -1,0,0,1024,1024,1208,1024,0,0,28,0,258.3,-55.4,-11.5,99,4.057,4.075,4.07,4.057,0,0,18.53,89.51,1709.604873605,18.372704,6,P-GPS,
12600,2025-09-03 11:55:22,0,0,18.700788,,,1709.932957605,18.700788,0,0,0,7,2,16.013,1709.932957605,18.700788,0.3131716,0,0,0,-1.789552,113.8, -2.6, -0.9,0,0,1024,1024,1207,1024,0,0,28,0,258.5,-56.6,-11.2,99,4.057,4.075,4.07,4.057,0,0,18.53,89.51,1709.932957605,18.700788,6,P-GPS,
12700,2025-09-03 11:55:22,0,0,19.028872,,,1710.261041605,19.028872,0,0,0,7,2,16.013,1710.261041605,19.028872,0.3131716,0,0,0,-1.565858,113.8, -3.2, -0.8,0,0,1024,1024,1206,1024,0,0,28,0,258.3,-56.8,-10.8,99,4.057,4.075,4.07,4.057,0,0,18.53,89.51,1710.261041605,19.028872,6,P-GPS,
12800,2025-09-03 11:55:22,0,0,19.356956,,,1710.589125605,19.356956,0,0,0,7,2,16.013,1710.589125605,19.356956,0.3131716,0,0,0,-1.565858,113.7, -3, -0.7,0,0,1024,1024,1210,1024,0,0,28,0,257.9,-56.6,-10.6,99,4.057,4.075,4.07,4.057,0,0,18.53,89.51,1710.589125605,19.356956,6,P-GPS,
12900,2025-09-03 11:55:22,0,0,19.356956,,,1710.589125605,19.68504,0,0,0,7,2,16.013,1710.589125605,19.356956,0.3131716,0,0,0,-1.565858,113.6, -2.6, -0.4,0,0,1024,1024,1213,1024,0,0,29,0,258,-56.2,-10.3,99,4.057,4.075,4.07,4.057,0,0,18.53,89.51,1710.589125605,19.356956,6,P-GPS,
13000,2025-09-03 11:55:23,0,0,19.68504,,,1710.917209605,19.68504,0,0,0,7,2,16.013,1710.917209605,19.68504,0.3131716,0,0,0,-1.565858,113.5, -2.3, -0.2,0,0,1024,1024,1217,1024,0,0,29,0,258.3,-55.9,-10.2,99,4.057,4.075,4.07,4.057,0,0,18.53,89.51,1710.917209605,19.68504,6,P-GPS,
13100,2025-09-03 11:55:23,0,0,20.013124,,,1711.245293605,20.013124,0,0,0,7,2,16.013,1711.245293605,20.013124,0.3131716,0,0,0,-1.565858,113.6, -2.1, 0,0,0,1024,1024,1225,1024,0,0,30,0,257.8,-55.8,-9.9,99,4.057,4.075,4.07,4.057,0,0,18.53,89.51,1711.245293605,20.013124,6,P-GPS,
13200,2025-09-03 11:55:23,0,0,20.013124,,,1711.245293605,20.341208,0,0,0,7,2,16.121,1711.245293605,20.013124,0.3131716,0,0,0,-1.565858,113.6, -2.1, 0.1,0,0,1024,1024,1225,1024,0,0,30,0,258.2,-55.8,-9.7,99,4.057,4.075,4.07,4.057,0,0,16.664,89.51,1711.245293605,20.013124,6,P-GPS,
13300,2025-09-03 11:55:23,0,0,20.341208,,,1711.573377605,20.669292,0,0,0,7,2,16.121,1711.573377605,20.341208,0.3131716,0,0,0,-1.565858,113.7, -2, 0.3,0,0,1024,1024,1227,1024,0,0,31,0,258.2,-55.8,-9.7,99,4.057,4.075,4.07,4.057,0,0,16.664,89.51,1711.573377605,20.341208,6,P-GPS,
13400,2025-09-03 11:55:23,0,0,20.669292,,,1711.901461605,20.997376,0.223694,0,0,8,2,16.121,1711.901461605,20.669292,0.3131716,0,0,0.223694,-1.565858,113.8, -1.8, 0.4,0,0,1024,1024,1228,1024,0,0,31,0,259,-55.3,-10.1,99,4.057,4.075,4.07,4.057,0,0,16.664,89.51,1711.901461605,20.669292,6,P-GPS,
13500,2025-09-03 11:55:23,0,0,20.997376,,,1712.229545605,21.32546,0.223694,0,0,8,2,16.121,1712.229545605,20.997376,0.3131716,0,0,0.223694,-1.789552,113.9, -1.5, 0.7,0,0,1024,1024,1229,1024,0,0,31,0,258.5,-55.1,-9.7,99,4.057,4.075,4.07,4.057,0,0,16.664,89.51,1712.229545605,20.997376,6,P-GPS,
13600,2025-09-03 11:55:23,0,0,20.997376,,,1712.229545605,21.32546,0.223694,0,0,7,2,16.121,1712.229545605,20.997376,0.3131716,0,0,0.223694,-1.789552,113.9, -1, 1,0,0,1024,1024,1233,1024,0,0,32,0,258.7,-54.6,-9.6,99,4.057,4.075,4.07,4.057,0,0,16.664,89.51,1712.229545605,20.997376,6,P-GPS,"Braking now. Return sticks to midpoints, then continue flying."
13700,2025-09-03 11:55:23,0,0,21.32546,,,1712.557629605,21.653544,0.223694,0,0,7,2,16.121,1712.557629605,21.32546,0.3131716,0,0,0.223694,-1.789552,113.9, -0.7, 1.3,0,0,1024,1024,1235,1024,0,0,32,0,258.9,-54.3,-9.2,99,4.057,4.075,4.07,4.057,0,0,16.664,89.51,1712.557629605,21.32546,6,P-GPS,
13800,2025-09-03 11:55:23,0,0,21.653544,,,1712.885713605,21.981628,0.223694,0,0,7,2,16.121,1712.885713605,21.653544,0.3131716,0,0,0.223694,-1.789552,114, -0.6, 1.7,0,0,1024,1024,1237,1024,0,0,32,0,258.8,-54.4,-9.1,99,4.057,4.075,4.07,4.057,0,0,16.664,89.51,1712.885713605,21.653544,6,P-GPS,
13900,2025-09-03 11:55:23,0,0,21.981628,,,1713.213797605,22.309712,0.223694,0,0,7,2,16.121,1713.213797605,21.981628,0.3131716,0,0,0.223694,-1.789552,114, -0.6, 1.6,0,0,1024,1024,1235,1024,0,0,32,0,258.5,-54.4,-9,99,4.057,4.075,4.07,4.057,0,0,16.664,89.51,1713.213797605,21.981628,6,P-GPS,
14000,2025-09-03 11:55:24,0,0,22.309712,,,1713.541881605,22.637796,0,0,0,7,2,16.121,1713.541881605,22.309712,0.3131716,0,0,0,-2.013246,114, -0.7, 1.4,0,0,1024,1024,1234,1024,0,0,32,0,258.6,-54.5,-9,99,4.057,4.075,4.07,4.057,0,0,16.664,89.51,1713.541881605,22.309712,6,P-GPS,
14100,2025-09-03 11:55:24,0,0,22.637796,,,1713.869965605,22.96588,0,0,0,7,2,16.121,1713.869965605,22.637796,0.3131716,0,0,0,-2.013246,114.1, -1, 1.2,0,0,1024,1024,1230,1024,0,0,31,0,258.8,-54.5,-9.4,99,4.057,4.075,4.07,4.057,0,0,16.664,89.51,1713.869965605,22.637796,6,P-GPS,
14200,2025-09-03 11:55:24,0,0,22.96588,,,1714.198049605,23.293964,0.223694,0,0,8,2,16.151,1714.198049605,22.96588,0.3131716,0,0,0.223694,-2.013246,114.1, -0.8, 0.8,0,0,1024,1024,1232,1024,0,0,32,0,258.6,-54,-9.7,99,4.075,4.096,4.088,4.072,0,0,16.664,89.51,1714.198049605,22.96588,6,P-GPS,
14300,2025-09-03 11:55:24,0,0,23.293964,,,1714.526133605,23.622048,0.223694,0,0,8,2,16.151,1714.526133605,23.293964,0.3131716,0,0,0.223694,-2.013246,114.1, -0.3, 0.4,0,0,1024,1024,1232,1024,0,0,32,0,257.8,-53.8,-9.9,99,4.075,4.096,4.088,4.072,0,0,16.664,89.51,1714.526133605,23.293964,6,P-GPS,
14400,2025-09-03 11:55:24,0,0,23.622048,,,1714.854217605,23.950132,0.223694,0,0,8,2,16.151,1714.854217605,23.622048,0.3131716,0,0,0.223694,-2.013246,114.1, 0, 0.1,0,0,1024,1024,1232,1024,0,0,32,0,257.6,-53.7,-10,99,4.075,4.096,4.088,4.072,0,0,16.664,89.51,1714.854217605,23.622048,6,P-GPS,
14500,2025-09-03 11:55:24,0,0,23.950132,,,1715.182301605,24.278216,0.223694,0,0,8,2,16.151,1715.182301605,23.950132,0.3131716,0,0,0.223694,-2.013246,114.1, 0.1, 0.3,0,0,1024,1024,1229,1024,0,0,31,0,258,-53.5,-9.4,99,4.075,4.096,4.088,4.072,0,0,16.664,89.51,1715.182301605,23.950132,6,P-GPS,
14600,2025-09-03 11:55:24,0,0,24.278216,,,1715.510385605,24.6063,0.223694,0,0,8,2,16.151,1715.510385605,24.278216,0.3131716,0,0,0.223694,-2.013246,114, 0.2, 0.7,0,0,1024,1024,1229,1024,0,0,31,0,258,-53.5,-9.4,99,4.075,4.096,4.088,4.072,0,0,16.664,89.51,1715.510385605,24.278216,6,P-GPS,
14700,2025-09-03 11:55:24,0,0,24.6063,,,1715.838469605,24.934384,0,0,0,8,2,16.151,1715.838469605,24.6063,0.3131716,0,0,0,-2.013246,113.9, 0.1, 0.9,0,0,1024,1024,1230,1024,0,0,31,0,257.9,-53.6,-9.4,99,4.075,4.096,4.088,4.072,0,0,16.664,89.51,1715.838469605,24.6063,6,P-GPS,
14800,2025-09-03 11:55:24,0,0,24.6063,,,1715.838469605,25.262468,0,0,0,8,2,16.151,1715.838469605,24.6063,0.3131716,0,0,0,-1.789552,113.9, -0.1, 1.1,0,0,1024,1024,1229,1024,0,0,31,0,257.7,-53.8,-8.9,99,4.075,4.096,4.088,4.072,0,0,16.664,89.51,1715.838469605,24.6063,6,P-GPS,
14900,2025-09-03 11:55:25,0,0,24.934384,,,1716.166553605,25.590552,0,0,0,8,2,16.151,1716.166553605,24.934384,0.3131716,0,0,0,-1.789552,113.8, -0.2, 1.2,0,0,1024,1024,1228,1024,0,0,31,0,257.7,-53.9,-9.1,99,4.075,4.096,4.088,4.072,0,0,16.664,89.51,1716.166553605,24.934384,6,P-GPS,
15000,2025-09-03 11:55:25,0,0,25.262468,,,1716.494637605,25.918636,0,0,0,8,2,16.151,1716.494637605,25.262468,0.3131716,0,0,0,-1.789552,113.8, -0.3, 1.1,0,0,1024,1024,1231,1024,0,0,31,0,257.8,-54,-9.4,99,4.075,4.096,4.088,4.072,0,0,16.664,89.51,1716.494637605,25.262468,6,P-GPS,
15100,2025-09-03 11:55:25,0,0,25.590552,,,1716.822721605,26.24672,0,0,0,8,2,16.151,1716.822721605,25.590552,0.3131716,0,0,0,-1.789552,113.7, 0, 0.6,0,0,1024,1024,1233,1024,0,0,32,0,256.6,-53.9,-9.6,99,4.075,4.096,4.088,4.072,0,0,16.664,89.51,1716.822721605,25.590552,6,P-GPS,
15200,2025-09-03 11:55:25,0,0,25.918636,,,1717.150805605,26.574804,0,0,0,8,2,16.154,1717.150805605,25.918636,0.3131716,0,0,0,-1.789552,113.6, 0.3, 0.2,0,0,1024,1024,1226,1024,0,0,31,0,255.9,-53.9,-9.4,99,4.049,4.074,4.066,4.048,0,0,18.23,89.51,1717.150805605,25.918636,6,P-GPS,
15300,2025-09-03 11:55:25,0,0,26.24672,,,1717.478889605,26.902888,0,0,0,8,2,16.154,1717.478889605,26.24672,0.3131716,0,0,0,-1.789552,113.5, 0.3, 0,0,0,1024,1024,1217,1024,0,0,29,0,256.2,-53.7,-9.8,99,4.049,4.074,4.066,4.048,0,0,18.23,89.51,1717.478889605,26.24672,6,P-GPS,
15400,2025-09-03 11:55:25,0,0,26.574804,,,1717.806973605,27.230972,0,0,0,8,2,16.154,1717.806973605,26.574804,0.3131716,0,0,0,-2.013246,113.5, 0.3, 0,0,0,1024,1024,1213,1024,0,0,29,0,256.8,-53.5,-10.1,99,4.049,4.074,4.066,4.048,0,0,18.23,89.51,1717.806973605,26.574804,6,P-GPS,
15500,2025-09-03 11:55:25,0,0,26.902888,,,1718.135057605,27.559056,0,0,0,8,2,16.154,1718.135057605,26.902888,0.3131716,0,0,0,-1.789552,113.4, 0.3, 0,0,0,1024,1024,1227,1024,0,0,31,0,256.1,-53.6,-9.6,99,4.049,4.074,4.066,4.048,0,0,18.23,89.51,1718.135057605,26.902888,6,P-GPS,
15600,2025-09-03 11:55:25,0,0,27.230972,,,1718.463141605,27.88714,0,0,0,7,2,16.154,1718.463141605,27.230972,0.3131716,0,0,0,-1.789552,113.4, 0.1, 0.2,0,0,1024,1024,1226,1024,0,0,31,0,255.6,-54.1,-9.3,99,4.049,4.074,4.066,4.048,0,0,18.23,89.51,1718.463141605,27.230972,6,P-GPS,
15700,2025-09-03 11:55:25,0,0,27.230972,,,1718.463141605,28.215224,0,0,0,7,2,16.154,1718.463141605,27.230972,0.3131716,0,0,0,-1.789552,113.4, 0, 0,0,0,1024,1024,1228,1024,0,0,31,0,255.7,-54.1,-10.2,99,4.049,4.074,4.066,4.048,0,0,18.23,89.51,1718.463141605,27.230972,6,P-GPS,
15800,2025-09-03 11:55:25,0,0,27.559056,,,1718.791225605,28.543308,0,0,0,7,2,16.154,1718.791225605,27.559056,0.3131716,0,0,0,-1.789552,113.3, 0, -0.3,0,0,1024,1024,1228,1024,0,0,31,0,255.7,-53.9,-9.9,99,4.049,4.074,4.066,4.048,0,0,18.23,89.51,1718.791225605,27.559056,6,P-GPS,
15900,2025-09-03 11:55:25,0,0,27.88714,,,1719.119309605,28.871392,0,0,0,7,2,16.154,1719.119309605,27.88714,0.3131716,0,0,0,-1.789552,113.4, 0, -0.4,0,0,1024,1024,1226,1024,0,0,31,0,255.7,-53.9,-9.9,99,4.049,4.074,4.066,4.048,0,0,18.23,89.51,1719.119309605,27.88714,6,P-GPS,
16000,2025-09-03 11:55:26,0,0,28.215224,,,1719.447393605,29.199476,0,0,0,7,2,16.154,1719.447393605,28.215224,0.3131716,0,0,0,-1.789552,113.3, 0.2, -0.2,0,0,1024,1024,1226,1024,0,0,31,0,255.6,-53.9,-9.6,99,4.049,4.074,4.066,4.048,0,0,18.23,89.51,1719.447393605,28.215224,6,P-GPS,
16100,2025-09-03 11:55:26,0,0,28.543308,,,1719.775477605,29.199476,0,0,0,7,2,16.154,1719.775477605,28.543308,0.3131716,0,0,0,-1.789552,113.3, 0.3, 0,0,0,1024,1024,1225,1024,0,0,30,0,255.6,-53.7,-9.3,99,4.049,4.074,4.066,4.048,0,0,18.23,89.51,1719.775477605,28.543308,6,P-GPS,
16200,2025-09-03 11:55:26,0,0,28.871392,,,1720.103561605,29.52756,0,0,0,8,2,16.147,1720.103561605,28.871392,0.3131716,0,0,0,-1.789552,113.3, 0.4, -0.1,0,0,1024,1024,1223,1024,0,0,30,0,255.7,-53.6,-9.4,99,4.051,4.074,4.065,4.046,0,0,17.546,89.51,1720.103561605,28.871392,6,P-GPS,
16300,2025-09-03 11:55:26,0,0,28.871392,,,1720.103561605,29.855644,0,0,0,8,2,16.147,1720.103561605,28.871392,0.3131716,0,0,0,-1.789552,113.4, 0.3, -0.5,0,0,1024,1024,1226,1024,0,0,31,0,255.1,-53.7,-9.6,99,4.051,4.074,4.065,4.046,0,0,17.546,89.51,1720.103561605,28.871392,6,P-GPS,
16400,2025-09-03 11:55:26,0,0,29.199476,,,1720.431645605,30.183728,0,0,0,9,2,16.147,1720.431645605,29.199476,0.3131716,0,0,0,-1.789552,113.4, 0.3, -0.5,0,0,1024,1024,1225,1024,0,0,30,0,255.5,-53.5,-9.5,99,4.051,4.074,4.065,4.046,0,0,17.546,89.51,1720.431645605,29.199476,6,P-GPS,
16500,2025-09-03 11:55:26,0,0,29.52756,,,1720.759729605,30.511812,0,0,0,9,2,16.147,1720.759729605,29.52756,0.3131716,0,0,0,-1.789552,113.4, 0.2, -0.3,0,0,1024,1024,1226,1024,0,0,31,0,255.5,-53.7,-9.7,99,4.051,4.074,4.065,4.046,0,0,17.546,89.51,1720.759729605,29.52756,6,P-GPS,
16600,2025-09-03 11:55:26,0,0,29.855644,,,1721.087813605,30.839896,0,0,0,8,2,16.147,1721.087813605,29.855644,0.3131716,0,0,0,-1.789552,113.4, 0.2, 0,0,0,1024,1024,1228,1024,0,0,31,0,255,-53.8,-8.7,99,4.051,4.074,4.065,4.046,0,0,17.546,89.51,1721.087813605,29.855644,6,P-GPS,
16700,2025-09-03 11:55:26,0,0,30.183728,,,1721.415897605,31.16798,0,0,0,8,2,16.147,1721.415897605,30.183728,0.3131716,0,0,0,-1.789552,113.5, 0.2, 0.5,0,0,1024,1024,1228,1024,0,0,31,0,255.7,-53.6,-8.6,99,4.051,4.074,4.065,4.046,0,0,17.546,89.51,1721.415897605,30.183728,6,P-GPS,
16800,2025-09-03 11:55:26,0,0,30.183728,,,1721.415897605,31.16798,0,0,0,8,2,16.147,1721.415897605,30.183728,0.3131716,0,0,0,-1.789552,113.5, 0, 0.7,0,0,1024,1024,1228,1024,0,0,31,0,256.2,-53.7,-9.2,99,4.051,4.074,4.065,4.046,0,0,17.546,89.51,1721.415897605,30.183728,6,P-GPS,
16900,2025-09-03 11:55:26,0,0,30.511812,,,1721.743981605,31.496064,0,0,0,8,2,16.147,1721.743981605,30.511812,0.3131716,0,0,0,-1.789552,113.6, 0, 0.8,0,0,1024,1024,1228,1024,0,0,31,0,255.5,-54,-8.1,99,4.051,4.074,4.065,4.046,0,0,17.546,89.51,1721.743981605,30.511812,6,P-GPS,
17000,2025-09-03 11:55:27,0,0,30.839896,,,1722.072065605,31.496064,0,0,0,8,2,16.147,1722.072065605,30.839896,0.3131716,0,0,0,-1.789552,113.7, -0.1, 0.9,0,0,1024,1024,1227,1024,0,0,31,0,255.2,-53.9,-8.8,99,4.051,4.074,4.065,4.046,0,0,17.546,89.51,1722.072065605,30.839896,6,P-GPS,
17100,2025-09-03 11:55:27,0,0,30.839896,,,1722.072065605,31.824148,0,0,0,8,2,16.147,1722.072065605,30.839896,0.3131716,0,0,0,-1.789552,113.7, 0, 0.5,0,0,1024,1024,1229,1024,0,0,31,0,256.3,-53.4,-9.8,99,4.051,4.074,4.065,4.046,0,0,17.546,89.51,1722.072065605,30.839896,6,P-GPS,
17200,2025-09-03 11:55:27,0,0,31.16798,,,1722.400149605,31.824148,0,0,0,8,2,16.139,1722.400149605,31.16798,0.3131716,0,0,0,-1.789552,113.8, 0.1, 0.4,0,0,1024,1024,1230,1024,0,0,31,0,255.4,-53.6,-9.4,99,4.046,4.069,4.06,4.04,0,0,17.632,89.51,1722.400149605,31.16798,6,P-GPS,
17300,2025-09-03 11:55:27,0,0,31.496064,,,1722.728233605,32.152232,0,0,0,8,2,16.139,1722.728233605,31.496064,0.3131716,0,0,0,-1.789552,113.9, 0.1, 0.2,0,0,1024,1024,1228,1024,0,0,31,0,255.4,-53.6,-9.4,99,4.046,4.069,4.06,4.04,0,0,17.632,89.51,1722.728233605,31.496064,6,P-GPS,
17400,2025-09-03 11:55:27,0,0,31.824148,,,1723.056317605,32.480316,0,0,0,7,2,16.139,1723.056317605,31.824148,0.3131716,0,0,0,-1.789552,113.9, 0, 0.2,0,0,1024,1024,1230,1024,0,0,31,0,255.2,-53.6,-9.1,99,4.046,4.069,4.06,4.04,0,0,17.632,89.51,1723.056317605,31.824148,6,P-GPS,
17500,2025-09-03 11:55:27,0,0,31.824148,,,1723.056317605,32.8084,0,0,0,7,2,16.139,1723.056317605,31.824148,0.3131716,0,0,0,-1.789552,114, 0, 0.1,0,0,1024,1024,1231,1024,0,0,31,0,255.8,-53.6,-9.8,99,4.046,4.069,4.06,4.04,0,0,17.632,89.51,1723.056317605,31.824148,6,P-GPS,
17600,2025-09-03 11:55:27,0,0,32.152232,,,1723.384401605,33.136484,0,0,0,9,2,16.139,1723.384401605,32.152232,0.3131716,0,0,0,-1.789552,114, 0, 0,0,0,1024,1024,1229,1024,0,0,31,0,255.5,-53.7,-10,99,4.046,4.069,4.06,4.04,0,0,17.632,89.51,1723.384401605,32.152232,6,P-GPS,
17700,2025-09-03 11:55:27,0,0,32.480316,,,1723.712485605,33.464568,0,0,0,9,2,16.139,1723.712485605,32.480316,0.3131716,0,0,0,-1.789552,114.1, 0, 0,0,0,1024,1024,1231,1024,0,0,31,0,254.7,-53.8,-9.6,99,4.046,4.069,4.06,4.04,0,0,17.632,89.51,1723.712485605,32.480316,6,P-GPS,
17800,2025-09-03 11:55:27,0,0,32.8084,,,1724.040569605,33.464568,0,0,0,9,2,16.139,1724.040569605,32.8084,0.3131716,0,0,0,-1.789552,114.1, 0, 0,0,0,1024,1024,1231,1024,0,0,31,0,254.8,-53.7,-9.3,99,4.046,4.069,4.06,4.04,0,0,17.632,89.51,1724.040569605,32.8084,6,P-GPS,
17900,2025-09-03 11:55:28,0,0,33.136484,,,1724.368653605,33.792652,0,0,0,9,2,16.139,1724.368653605,33.136484,0.3131716,0,0,0,-2.013246,114.1, 0, 0,0,0,1024,1024,1230,1024,0,0,31,0,254.5,-53.7,-9.6,99,4.046,4.069,4.06,4.04,0,0,17.632,89.51,1724.368653605,33.136484,6,P-GPS,
18000,2025-09-03 11:55:28,48.1508957615652,11.5719007742981,33.464568,,,1724.696737605,33.792652,0,0,0,9,2,16.139,1724.696737605,33.464568,0.3131716,0,0,0,-1.789552,114.1, 0, -0.1,0,0,1024,1024,1229,1024,0,0,31,0,254.7,-53.7,-10,99,4.046,4.069,4.06,4.04,0,0,17.632,89.51,1724.696737605,33.464568,6,P-GPS,
18100,2025-09-03 11:55:28,48.1508974905819,11.5718991618292,33.464568,,,1724.696737605,25.262468,0,0.74296918388,0.74296918388,9,2,16.139,1724.696737605,33.464568,0.3131716,0.74296918388,0,0,-1.789552,114.1, 0, -0.1,0,0,1024,1024,1228,1024,0,0,31,0,254.6,-53.8,-9.7,99,4.046,4.069,4.06,4.04,0,0,17.632,89.51,1724.696737605,33.464568,6,P-GPS,
18200,2025-09-03 11:55:28,48.1508992175142,11.5718975521593,33.792652,,,1725.024821605,25.590552,0,1.48493443072,1.48493443072,9,2,16.115,1725.024821605,33.792652,0.3131716,1.48493443072,0,0,-1.789552,114.1, 0, -0.1,0,0,1024,1024,1228,1024,0,0,31,0,254.4,-53.8,-9.5,99,4.046,4.069,4.06,4.04,0,0,17.632,89.51,1725.024821605,33.792652,6,P-GPS,
18300,2025-09-03 11:55:28,48.1499800175218,11.5719968180882,33.792652,,,1725.024821605,25.918636,0,334.9245514,337.72310792,9,2,16.115,1725.024821605,33.792652,0.3131716,334.9245514,0,0,-1.789552,114.1, -0.1, -0.1,0,0,1024,1024,1228,1024,0,0,31,0,254.1,-53.8,-9.7,99,4.046,4.069,4.06,4.04,0,0,17.632,89.51,1725.024821605,33.792652,6,P-GPS,
18400,2025-09-03 11:55:28,48.1489094147074,11.5721125834936,34.120736,,,1725.352905605,26.24672,0,726.54857968,729.3471362,9,2,16.115,1725.352905605,34.120736,0.3131716,726.54857968,0,0,-1.789552,114.1, 0, -0.3,0,0,1024,1024,1228,1024,0,0,31,0,254.2,-53.7,-8.9,99,4.046,4.069,4.06,4.04,0,0,17.632,89.51,1725.352905605,34.120736,6,P-GPS,
18500,2025-09-03 11:55:28,48.1487492116392,11.5721320285866,34.44882,,,1725.680989605,26.24672,0,785.187033,787.98887036,9,2,16.115,1725.680989605,34.44882,0.3131716,785.187033,0,0,-1.789552,114.1, 0.1, -0.3,0,0,1024,1024,1227,1024,0,0,31,0,254.9,-53.5,-9.6,99,4.046,4.069,4.06,4.04,0,0,17.632,89.51,1725.680989605,34.44882,6,P-GPS,
18600,2025-09-03 11:55:28,48.1487496356256,11.5721343922777,34.776904,,,1726.009073605,26.574804,0,785.07548444,788.58598324,9,2,16.115,1726.009073605,34.776904,0.3131716,785.187033,0,0,-1.789552,114.1, 0.1, -0.2,0,0,1024,1024,1227,1024,0,0,31,0,254.9,-53.5,-9.6,99,4.046,4.069,4.06,4.04,0,0,17.632,89.51,1726.009073605,34.776904,6,P-GPS,
18700,2025-09-03 11:55:28,48.1487518735972,11.5721437506236,34.776904,,,1726.009073605,26.902888,0,784.42915896,791.00396232,9,2,16.115,1726.009073605,34.776904,0.3131716,785.187033,0,0,-1.789552,114.1, 0.1, -0.5,0,0,1024,1024,1227,1024,0,0,31,0,254.4,-53.7,-9.8,99,4.046,4.069,4.06,4.04,0,0,17.632,89.51,1726.009073605,34.776904,6,P-GPS,
18800,2025-09-03 11:55:28,48.1487519320645,11.57214450803,35.433072,,,1726.665241605,27.230972,0,784.42259728,791.1909702,9,2,16.115,1726.665241605,35.433072,0.3131716,785.187033,0,0,-1.789552,114, 0, -0.5,0,0,1024,1024,1228,1024,0,0,31,0,253.3,-53.9,-9,99,4.046,4.069,4.06,4.04,0,0,17.632,89.51,1726.665241605,35.433072,6,P-GPS,
18900,2025-09-03 11:55:28,48.1487519803919,11.5721452037298,35.433072,,,1726.665241605,27.230972,0,784.4160356,791.36157388,9,2,16.115,1726.665241605,35.433072,0.3131716,785.187033,0,0,-1.789552,114, 0, -0.6,0,0,1024,1024,1230,1024,0,0,31,0,253.2,-54,-9.3,99,4.046,4.069,4.06,4.04,0,0,17.632,89.51,1726.665241605,35.433072,6,P-GPS,
19000,2025-09-03 11:55:29,48.1487520322864,11.5721459340275,35.761156,,,1726.993325605,27.559056,0,784.41275476,791.53873924,9,2,16.115,1726.993325605,35.761156,0.3131716,785.187033,0,0,-1.789552,114, 0, -0.8,0,0,1024,1024,1232,1024,0,0,32,0,253.4,-53.8,-9.5,99,4.046,4.069,4.06,4.04,0,0,17.632,89.51,1726.993325605,35.761156,6,P-GPS,
19100,2025-09-03 11:55:29,48.1487520469504,11.5721467995924,36.08924,,,1727.321409605,27.559056,0,784.42259728,791.75199384,9,2,16.115,1727.321409605,36.08924,0.3131716,785.187033,0,0,-1.789552,114, 0.1, -0.8,0,0,1024,1024,1230,1024,0,0,31,0,253.4,-53.5,-9.9,99,4.046,4.069,4.06,4.04,0,0,17.632,89.51,1727.321409605,36.08924,6,P-GPS,
19200,2025-09-03 11:55:29,48.1487521151484,11.5721483428783,36.417324,,,1727.649493605,27.88714,0,784.42587812,792.1260096,9,2,16.087,1727.649493605,36.417324,0.3131716,785.187033,0,0,-2.013246,114, 0.3, -0.7,0,0,1024,1024,1232,1024,0,0,32,0,253.5,-53.4,-9.7,99,4.038,4.062,4.054,4.036,0,0,17.622,89.51,1727.649493605,36.417324,6,P-GPS,
19300,2025-09-03 11:55:29,48.1487521759553,11.5721491502137,36.417324,,,1727.649493605,28.215224,0,784.41931644,792.32614084,9,3,16.087,1727.649493605,36.417324,0.3131716,785.187033,0,0,-1.789552,114, 0.3, -0.5,0,0,1024,1024,1231,1024,0,0,31,0,253.4,-53.6,-9.7,99,4.038,4.062,4.054,4.036,0,0,17.622,89.51,1727.649493605,36.417324,6,P-GPS,
19400,2025-09-03 11:55:29,48.1487522474367,11.5721499876842,37.073492,,,1728.305661605,28.543308,0,784.40947392,792.52955292,9,3,16.087,1728.305661605,37.073492,0.3131716,785.187033,0,0,-1.789552,114, 0.3, -0.5,0,0,1024,1024,1230,1024,0,0,31,0,253.4,-53.5,-10,99,4.038,4.062,4.054,4.036,0,0,17.622,89.51,1728.305661605,37.073492,6,P-GPS,
19500,2025-09-03 11:55:29,48.1487523304644,11.5721503073277,37.073492,,,1728.305661605,28.871392,0,784.38650804,792.61485476,9,3,16.087,1728.305661605,37.073492,0.3131716,785.187033,0,0,-1.789552,114, 0.3, -0.6,0,0,1024,1024,1229,1024,0,0,31,0,252.7,-53.7,-9.5,99,4.038,4.062,4.054,4.036,0,0,17.622,89.51,1728.305661605,37.073492,6,P-GPS,
19600,2025-09-03 11:55:29,48.1487525248414,11.5721498952833,37.401576,,,1728.633745605,29.199476,0,784.30776788,792.73624584,9,3,16.087,1728.633745605,37.401576,0.3131716,785.187033,0,0,-1.789552,114, 0.2, -0.6,0,0,1024,1024,1232,1024,0,0,32,0,252.6,-53.9,-9.1,99,4.038,4.062,4.054,4.036,0,0,17.622,89.51,1728.633745605,37.401576,6,P-GPS,
19700,2025-09-03 11:55:29,48.1487526089054,11.5721499625291,37.401576,,,1728.633745605,29.199476,0,784.27824032,792.77233508,9,3,16.087,1728.633745605,37.401576,0.3131716,785.187033,0,0,-1.789552,114, 0.1, -0.3,0,0,1024,1024,1233,1024,0,0,32,0,253.2,-53.8,-9.7,99,4.038,4.062,4.054,4.036,0,0,17.622,89.51,1728.633745605,37.401576,6,P-GPS,
19800,2025-09-03 11:55:29,48.1487526953886,11.5721500236828,37.72966,,,1728.961829605,29.52756,0,784.24543192,792.80514348,9,3,16.087,1728.961829605,37.72966,0.3131716,785.187033,0,0,-1.789552,114, 0, -0.3,0,0,1024,1024,1231,1024,0,0,31,0,253,-54,-9.8,99,4.038,4.062,4.054,4.036,0,0,17.622,89.51,1728.961829605,37.72966,6,P-GPS,
19900,2025-09-03 11:55:29,48.148752759112,11.5721502821309,38.057744,,,1729.289913605,29.855644,0,784.22902772,792.87404112,9,3,16.087,1729.289913605,38.057744,0.3131716,785.187033,0,0,-1.789552,114, -0.1, -0.4,0,0,1024,1024,1232,1024,0,0,32,0,252.2,-54.1,-9.1,99,4.038,4.062,4.054,4.036,0,0,17.622,89.51,1729.289913605,38.057744,6,P-GPS,
20000,2025-09-03 11:55:30,48.1487528183211,11.572149755753,38.385828,,,1729.617997605,29.855644,0,784.19621932,793.00199388,9,3,16.087,1729.617997605,38.385828,0.3131716,785.187033,0,0,-2.013246,114, 0, -0.3,0,0,1024,1024,1232,1024,0,0,32,0,252.2,-54.1,-9.1,99,4.038,4.062,4.054,4.036,0,0,17.622,89.51,1729.617997605,38.385828,6,P-GPS,
20100,2025-09-03 11:55:30,48.1487529062435,11.5721502381046,38.713912,,,1729.946081605,30.183728,0,784.17325344,793.12338496,9,3,16.087,1729.946081605,38.713912,0.3131716,785.187033,0,0,-1.789552,113.9, -0.2, -0.4,0,0,1024,1024,1232,1024,0,0,32,0,251.8,-54.3,-9,99,4.038,4.062,4.054,4.036,0,0,17.622,89.51,1729.946081605,38.713912,6,P-GPS,
20200,2025-09-03 11:55:30,48.1487529963207,11.5721507610143,39.041996,,,1730.274165605,30.511812,0,784.15028756,793.2578994,9,3,16.103,1730.274165605,39.041996,0.3131716,785.187033,0,0,-2.013246,114, -0.5, -0.5,0,0,1024,1024,1231,1024,0,0,31,0,252.3,-54.6,-9.5,99,4.032,4.057,4.049,4.032,0,0,17.84,89.51,1730.274165605,39.041996,6,P-GPS,
20300,2025-09-03 11:55:30,48.1487530400195,11.5721512332872,39.041996,,,1730.274165605,30.511812,0,784.14372588,793.3727288,9,3,16.103,1730.274165605,39.041996,0.3131716,785.187033,0,0,-1.789552,114, -0.5, -0.7,0,0,1024,1024,1232,1024,0,0,32,0,252.3,-54.5,-9.6,99,4.032,4.057,4.049,4.032,0,0,17.84,89.51,1730.274165605,39.041996,6,P-GPS,
20400,2025-09-03 11:55:30,48.1487530852032,11.5721520883153,39.041996,,,1730.274165605,30.839896,0,784.14372588,793.58270256,9,3,16.103,1730.274165605,39.041996,0.3131716,785.187033,0,0,-1.789552,113.9, -0.4, -0.8,0,0,1024,1024,1229,1024,0,0,31,0,251.9,-54.4,-9.8,99,4.032,4.057,4.049,4.032,0,0,17.84,89.51,1730.274165605,39.041996,6,P-GPS,
20500,2025-09-03 11:55:30,48.148753195601,11.5721527419516,39.698164,,,1730.930333605,31.16798,0,784.11747916,793.74674456,9,3,16.103,1730.930333605,39.698164,0.3131716,785.187033,0,0,-1.789552,114, -0.3, -0.9,0,0,1024,1024,1228,1024,0,0,31,0,252,-54.4,-10,99,4.032,4.057,4.049,4.032,0,0,17.84,89.51,1730.930333605,39.698164,6,P-GPS,
20600,2025-09-03 11:55:30,48.148753320316,11.57215345321,39.698164,,,1730.930333605,31.496064,0,784.08467076,793.92390992,9,3,16.103,1730.930333605,39.698164,0.3131716,785.187033,0,0,-1.789552,113.9, -0.3, -1,0,0,1024,1024,1228,1024,0,0,31,0,251.6,-54.5,-9.9,99,4.032,4.057,4.049,4.032,0,0,17.84,89.51,1730.930333605,39.698164,6,P-GPS,
20700,2025-09-03 11:55:30,48.1487534326782,11.5721539321553,40.026248,,,1731.258417605,31.824148,0,784.05186236,794.04858184,9,3,16.103,1731.258417605,40.026248,0.3131716,785.187033,0,0,-1.789552,113.8, -0.2, -1.2,0,0,1024,1024,1225,1024,0,0,30,0,251.4,-54.2,-9.6,99,4.032,4.057,4.049,4.032,0,0,17.84,89.51,1731.258417605,40.026248,6,P-GPS,
20800,2025-09-03 11:55:30,48.1487535527324,11.5721544078875,40.682416,,,1731.914585605,31.824148,0,784.01905396,794.17325376,9,3,16.103,1731.914585605,40.682416,0.3131716,785.187033,0,0,-1.789552,113.8, -0.1, -1.3,0,0,1024,1024,1219,1024,0,0,30,0,251.5,-54,-9.8,99,4.032,4.057,4.049,4.032,0,0,17.84,89.51,1731.914585605,40.682416,6,P-GPS,
20900,2025-09-03 11:55:30,48.1487537851836,11.5721550576994,40.682416,,,1731.914585605,32.152232,0,783.94687548,794.35041912,9,3,16.103,1731.914585605,40.682416,0.3131716,785.187033,0,0,-1.789552,113.8, 0, -1.4,0,0,1024,1024,1225,1024,0,0,30,0,251.5,-53.8,-9.9,99,4.032,4.057,4.049,4.032,0,0,17.84,89.51,1731.914585605,40.682416,6,P-GPS,
21000,2025-09-03 11:55:31,48.1487538677382,11.5721555169879,41.338584,,,1732.570753605,32.480316,0,783.9239096,794.46852936,9,3,16.103,1732.570753605,41.338584,0.3131716,785.187033,0,0,-1.789552,113.8, 0.1, -1.6,0,0,1024,1024,1223,1024,0,0,30,0,251.5,-54,-9.9,99,4.032,4.057,4.049,4.032,0,0,17.84,89.51,1732.570753605,41.338584,6,P-GPS,
