time(millisecond),datetime(utc),latitude,longitude,height_above_takeoff(feet),height_above_ground_at_drone_location(feet),ground_elevation_at_drone_location(feet),altitude_above_seaLevel(feet),height_sonar(feet),speed(mph),distance(feet),mileage(feet),satellites,gpslevel,voltage(v),max_altitude(feet),max_ascent(feet),max_speed(mph),max_distance(feet), xSpeed(mph), ySpeed(mph), zSpeed(mph), compass_heading(degrees), pitch(degrees), roll(degrees),isPhoto,isVideo,rc_elevator,rc_aileron,rc_throttle,rc_rudder,rc_elevator(percent),rc_aileron(percent),rc_throttle(percent),rc_rudder(percent),gimbal_heading(degrees),gimbal_pitch(degrees),gimbal_roll(degrees),battery_percent,voltageCell1,voltageCell2,voltageCell3,voltageCell4,voltageCell5,voltageCell6,current(A),battery_temperature(f),altitude(feet),ascent(feet),flycStateRaw,flycState,message
0,2025-09-03 06:05:50,48.1487543032028,11.5721590846596,0,Available with any HD 360 subscription,Available with any HD 360 subscription,1692.8559691976,0.656168,0,0,0,11,4,0,1692.8559691976,0,0,0,0,0,0,111.7, -1.5, 0.1,0,0,1024,1024,1024,1024,0,0,0,0,303,-20,-43.9,98,4.267,4.265,4.264,4.26,0,0,0,76.91,1692.8559691976,0,41,Motors_Started,
100,2025-09-03 06:05:50,48.1487542093247,11.5721590446895,0,,,1692.8559691976,0.656168,0,0.035606628436,0.035606628436,11,4,16.987,1692.8559691976,0,0,0.035606628436,0,0,0,111.5, -1.5, 0.1,0,0,370,364,364,1684,-99,-100,-100,100,302.9,-20.2,-44.1,98,4.267,4.265,4.264,4.26,0,0,1.374,76.91,1692.8559691976,0,41,Motors_Started,"Setting new Return-To-Home altitude to 100m (328 ft). Data Recorder File Index is 233. Setting new Maximum Flight Altitude to 150m (492 ft)"
200,2025-09-03 06:05:50,48.1487541132424,11.5721589945973,0,,,1692.8559691976,0.656168,0,0.07269193146,0.072722443272,11,4,16.987,1692.8559691976,0,0,0.07269193146,0,0,0,111.6, -1.5, 0.1,0,0,661,540,604,1510,-55,-73,-64,74,302.9,-20.2,-44.1,98,4.267,4.265,4.264,4.26,0,0,1.374,76.91,1692.8559691976,0,41,Motors_Started,
300,2025-09-03 06:05:50,48.1487539758139,11.5721588283222,0,,,1692.8559691976,0.656168,0,0.134764440008,0.137161421712,11,4,16.987,1692.8559691976,0,0,0.134764440008,0,0,0,111.6, -1.5, 0.1,0,0,1024,1024,1024,1024,0,0,0,0,302.8,-20.2,-44.1,98,4.267,4.265,4.264,4.26,0,0,1.374,76.91,1692.8559691976,0,41,Motors_Started,
400,2025-09-03 06:05:51,48.1487538744408,11.5721587951006,0,,,1692.8559691976,0.656168,0,0.171580386068,0.175021002976,11,4,16.987,1692.8559691976,0,0,0.171580386068,0,0,0,111.6, -1.5, 0,0,0,1024,1024,1024,1024,0,0,0,0,302.7,-20.3,-44.1,98,4.267,4.265,4.264,4.26,0,0,1.374,76.91,1692.8559691976,0,41,Motors_Started,
500,2025-09-03 06:05:51,48.1487537667763,11.5721587843341,0,,,1692.8559691976,0.656168,0,0.208923563116,0.21438977064,11,4,16.987,1692.8559691976,0,0,0.208923563116,0,0,0,111.6, -1.5, 0,0,0,1024,1024,1024,1024,0,0,0,0,302.7,-20.3,-44,98,4.267,4.265,4.264,4.26,0,0,1.374,76.91,1692.8559691976,0,41,Motors_Started,
600,2025-09-03 06:05:51,48.148753691337,11.5721587858232,0,,,1692.8559691976,0.656168,0,0.234792330348,0.24191601824,11,4,16.987,1692.8559691976,0,0,0.234792330348,0,0,0,111.6, -1.5, 0,0,0,1024,1024,1024,1024,0,0,0,0,302.5,-20.4,-44.1,98,4.267,4.265,4.264,4.26,0,0,1.374,76.91,1692.8559691976,0,41,Motors_Started,
700,2025-09-03 06:05:51,48.1487536360928,11.5721587959385,0,,,1692.8559691976,0.656168,0,0.253338918868,0.262221793168,11,4,16.987,1692.8559691976,0,0,0.253338918868,0,0,0,111.6, -1.5, 0,0,0,1024,1024,1024,1024,0,0,0,0,302.5,-20.4,-44.1,98,4.267,4.265,4.264,4.26,0,0,1.374,76.91,1692.8559691976,0,41,Motors_Started,
800,2025-09-03 06:05:51,48.1487536240375,11.5721589068599,0,,,1692.8559691976,0.656168,0,0.251544627472,0.289579077508,11,4,16.987,1692.8559691976,0,0,0.253338918868,0,0,0,111.6, -1.5, 0.1,0,0,1024,1024,1024,1024,0,0,0,0,302.3,-20.5,-44.2,98,4.267,4.265,4.264,4.26,0,0,1.374,76.91,1692.8559691976,0,41,Motors_Started,
900,2025-09-03 06:05:51,48.1487535336124,11.5721589218999,0,,,1692.8559691976,0.656168,0,0.28356628204,0.322772976208,11,4,16.987,1692.8559691976,0,0,0.28356628204,0,0,0,111.6, -1.5, 0.1,0,0,1024,1024,1024,1024,0,0,0,0,302.4,-20.4,-44,98,4.267,4.265,4.264,4.26,0,0,1.374,76.91,1692.8559691976,0,41,Motors_Started,
1000,2025-09-03 06:05:51,48.1487534681229,11.5721589075219,0,,,1692.8559691976,0.656168,0,0.307714576776,0.34692258328,11,4,16.987,1692.8559691976,0,0,0.307714576776,0,0,0,111.6, -1.5, 0,0,0,1024,1024,1024,1024,0,0,0,0,302.1,-20.7,-44.1,98,4.267,4.265,4.264,4.26,0,0,1.374,76.91,1692.8559691976,0,41,Motors_Started,
1100,2025-09-03 06:05:51,48.1487534160257,11.5721588691756,0,,,1692.8559691976,0.656168,0,0.327908803144,0.36809712464,11,4,17.065,1692.8559691976,0,0,0.327908803144,0,0,0,111.6, -1.5, 0,0,0,1024,1024,1024,1024,0,0,0,0,302,-20.7,-44.2,98,4.267,4.265,4.264,4.26,0,0,1.374,76.91,1692.8559691976,0,41,Motors_Started,
1200,2025-09-03 06:05:51,48.1487534276634,11.5721588540881,0,,,1692.8559691976,0.656168,0,0.324333671796,0.37371064188,11,4,17.065,1692.8559691976,0,0,0.327908803144,0,0,0,111.6, -1.5, 0,0,0,1024,1024,1024,1024,0,0,0,0,302,-20.8,-44.2,98,4.267,4.265,4.264,4.26,0,0,1.374,76.91,1692.8559691976,0,41,Motors_Started,
1300,2025-09-03 06:05:51,48.1487533974444,11.5721589510094,0,,,1692.8559691976,0.656168,0,0.33206365892,0.3997539498,10,4,17.065,1692.8559691976,0,0,0.33206365892,0,0,0,111.6, -1.5, 0,0,0,1024,1024,1024,1024,0,0,0,0,301.8,-20.8,-44.3,98,4.267,4.265,4.264,4.26,0,0,1.374,76.91,1692.8559691976,0,41,Motors_Started,
1400,2025-09-03 06:05:52,48.1487533425617,11.5721590469028,0,,,1692.8559691976,0.656168,0,0.35061024744,0.43050854396,10,4,17.065,1692.8559691976,0,0,0.35061024744,0,0,0,111.6, -1.5, 0.1,0,0,1024,1024,1024,1024,0,0,0,0,301.8,-20.8,-44.2,98,4.267,4.265,4.264,4.26,0,0,1.374,76.91,1692.8559691976,0,41,Motors_Started,
1500,2025-09-03 06:05:52,48.1487532551298,11.57215913693,0,,,1692.8559691976,0.656168,0,0.38260171828,0.4692093326,10,4,17.065,1692.8559691976,0,0,0.38260171828,0,0,0,111.6, -1.5, 0.1,0,0,1024,1024,1024,1024,0,0,0,0,301.8,-20.8,-44.2,98,4.267,4.265,4.264,4.26,0,0,1.374,76.91,1692.8559691976,0,10,Assisted_Takeoff,
1600,2025-09-03 06:05:52,48.1487532812476,11.5721597210689,0,,,1692.8559691976,0.656168,0,0.40376313628,0.61172574136,10,4,17.065,1692.8559691976,0,0,0.40376313628,0,0,0,111.6, -1.5, 0.1,0,0,1024,1024,1024,1024,0,0,0,0,301.6,-21,-44.3,98,4.267,4.265,4.264,4.26,0,0,1.374,76.91,1692.8559691976,0,10,Assisted_Takeoff,
1700,2025-09-03 06:05:52,48.1487532683161,11.572159898878,0,,,1692.8559691976,0.656168,0,0.42643702152,0.655265769,10,4,17.065,1692.8559691976,0,0,0.42643702152,0,0,0,111.6, -1.5, 0.1,0,0,1024,1024,1024,1024,0,0,0,0,301.5,-21,-44.3,98,4.267,4.265,4.264,4.26,0,0,1.374,76.91,1692.8559691976,0,10,Assisted_Takeoff,
1800,2025-09-03 06:05:52,48.1487532754047,11.5721601129895,0,,,1692.8559691976,0.656168,0,0.45086615616,0.70745081004,10,4,17.065,1692.8559691976,0,0,0.45086615616,0,0,0,111.6, -1.5, 0.1,0,0,1024,1024,1024,1024,0,0,0,0,301.4,-21.1,-44.4,98,4.267,4.265,4.264,4.26,0,0,1.374,76.91,1692.8559691976,0,10,Assisted_Takeoff,
1900,2025-09-03 06:05:52,48.1487532945951,11.5721603651593,0,,,1692.8559691976,0.656168,0,0.48226379496,0.76923230808,10,4,17.065,1692.8559691976,0,0,0.48226379496,0,0,0,111.6, -1.5, 0.1,0,0,1024,1024,1024,1024,0,0,0,0,301.4,-21.1,-44.3,98,4.267,4.265,4.264,4.26,0,0,1.374,76.91,1692.8559691976,0,10,Assisted_Takeoff,
2000,2025-09-03 06:05:52,48.1487536996705,11.5721610066446,0,,,1692.8559691976,0.656168,0,0.51708991156,0.9842355958,10,4,17.065,1692.8559691976,0,0,0.51708991156,0,0,0,111.6, -1.5, 0.1,0,0,1024,1024,1024,1024,0,0,0,0,301.2,-21.2,-44.3,98,4.267,4.265,4.264,4.26,0,0,1.374,76.91,1692.8559691976,0,10,Assisted_Takeoff,
2100,2025-09-03 06:05:52,48.1487538237629,11.5721612679025,0,,,1692.8559691976,0.656168,0,0.55950789192,1.0623031836,10,4,16.949,1692.8559691976,0,0,0.55950789192,0,0,0,111.6, -1.5, 0.1,0,0,1024,1024,1024,1024,0,0,0,0,301.2,-21.2,-44.3,98,4.197,4.197,4.202,4.199,0,0,4.46,76.91,1692.8559691976,0,10,Assisted_Takeoff,
2200,2025-09-03 06:05:52,48.1487539030445,11.5721615379076,0,,,1692.8559691976,0.656168,0,0.61477364172,1.13411420952,10,4,16.949,1692.8559691976,0,0,0.61477364172,0,0,0,111.6, -1.6, 0.1,0,0,1024,1024,1024,1024,0,0,0,0,301.1,-21.3,-44.4,98,4.197,4.197,4.202,4.199,0,0,4.46,76.91,1692.8559691976,0,10,Assisted_Takeoff,
2300,2025-09-03 06:05:52,48.1487539475352,11.5721618332572,0,,,1692.8559691976,0.656168,0,0.68155185908,1.20781828012,10,4,16.949,1692.8559691976,0,0,0.68155185908,0,0,0,111.6, -1.6, 0.1,0,0,1024,1024,1024,1024,0,0,0,0,300.9,-21.4,-44.5,98,4.197,4.197,4.202,4.199,0,0,4.46,76.91,1692.8559691976,0,10,Assisted_Takeoff,
2400,2025-09-03 06:05:53,48.1487540239597,11.5721621154158,0,,,1692.8559691976,0.656168,0,0.74477036504,1.28194885992,10,4,16.949,1692.8559691976,0,0,0.74477036504,0,0,0,111.6, -1.5, 0.1,0,0,1024,1024,1024,1024,0,0,0,0,300.8,-21.5,-44.5,98,4.197,4.197,4.202,4.199,0,0,4.46,76.91,1692.8559691976,0,10,Assisted_Takeoff,
2500,2025-09-03 06:05:53,48.1487542660739,11.5721626447052,0,,,1692.8559691976,0.656168,0,0.86671918784,1.43816605652,11,4,16.949,1692.8559691976,0,0,0.86671918784,0,0,0,111.6, -1.5, 0.1,0,0,1024,1024,1024,1024,0,0,0,0,300.7,-21.5,-44.5,98,4.197,4.197,4.202,4.199,0,0,4.46,76.91,1692.8559691976,0,10,Assisted_Takeoff,
2600,2025-09-03 06:05:53,48.1487543739783,11.5721628823992,0,,,1692.8559691976,0.656168,0,0.92483270676,1.50814965456,11,4,16.949,1692.8559691976,0,0,0.92483270676,0,0,0,111.6, -1.6, 0.1,0,0,1024,1024,1024,1024,0,0,0,0,300.6,-21.6,-44.5,98,4.197,4.197,4.202,4.199,0,0,4.46,76.91,1692.8559691976,0,10,Assisted_Takeoff,
2700,2025-09-03 06:05:53,48.1487544953845,11.5721630981485,0,,,1692.8559691976,0.656168,0,0.97950462452,1.576853725,10,4,16.949,1692.8559691976,0,0,0.97950462452,0,0,0,111.6, -1.6, 0.1,0,0,1024,1024,1024,1024,0,0,0,0,300.5,-21.7,-44.5,98,4.197,4.197,4.202,4.199,0,0,4.46,76.91,1692.8559691976,0,10,Assisted_Takeoff,
2800,2025-09-03 06:05:53,48.1487546155693,11.5721633216307,0,,,1692.8559691976,0.656168,0,1.03767063688,1.64672905532,10,4,16.949,1692.8559691976,0,0,1.03767063688,0,0,0,111.6, -1.6, 0.1,0,0,1024,1024,1024,1024,0,0,0,0,300.4,-21.7,-44.5,98,4.197,4.197,4.202,4.199,0,0,4.46,76.91,1692.8559691976,0,10,Assisted_Takeoff,
2900,2025-09-03 06:05:53,48.1487548960147,11.5721635653198,0,,,1692.8559691976,0.656168,0,1.11195213532,1.76500005648,10,4,16.949,1692.8559691976,0,0,1.11195213532,0,0,0,111.6, -1.6, 0.1,0,0,1024,1024,1024,1024,0,0,0,0,300.4,-21.7,-44.5,98,4.197,4.197,4.202,4.199,0,0,4.46,76.91,1692.8559691976,0,10,Assisted_Takeoff,
3000,2025-09-03 06:05:53,48.1487548942303,11.5721637873796,0,,,1692.8559691976,0.656168,0,1.16490161208,1.81905845716,10,4,16.949,1692.8559691976,0,0,1.16490161208,0,0,0,111.6, -1.6, 0.1,0,0,1024,1024,1024,1024,0,0,0,0,300.3,-21.8,-44.5,98,4.197,4.197,4.202,4.199,0,0,4.46,76.91,1692.8559691976,0,10,Assisted_Takeoff,
3100,2025-09-03 06:05:53,48.1487548002422,11.5721640033713,0,,,1692.8559691976,0.656168,0,1.21100397576,1.88183076888,10,4,16.936,1692.8559691976,0,0,1.21100397576,0,0,0,111.6, -1.6, 0.1,0,0,1024,1024,1024,1024,0,0,0,0,300.3,-21.8,-44.4,98,4.246,4.246,4.242,4.237,0,0,2.408,76.91,1692.8559691976,0,10,Assisted_Takeoff,
3200,2025-09-03 06:05:53,48.1487546642268,11.5721641993948,0,,,1692.8559691976,0.656168,0,1.25201447576,1.95067591544,10,4,16.936,1692.8559691976,0,0,1.25201447576,0,0,0,111.6, -1.5, 0.1,0,0,1024,1024,1024,1024,0,0,0,0,300.2,-21.8,-44.4,98,4.246,4.246,4.242,4.237,0,0,2.408,76.91,1692.8559691976,0,10,Assisted_Takeoff,
3300,2025-09-03 06:05:53,48.148753942667,11.5721642818009,0,,,1692.8559691976,0.656168,0,1.27194557876,2.21470151444,10,4,16.936,1692.8559691976,0,0,1.27194557876,0,0,0,111.6, -1.5, 0.1,0,0,1024,1024,1024,1024,0,0,0,0,299.8,-22.1,-44.6,98,4.246,4.246,4.242,4.237,0,0,2.408,76.91,1692.8559691976,0,10,Assisted_Takeoff,
3400,2025-09-03 06:05:54,48.1487537771454,11.572164409746,0,,,1692.8559691976,0.656168,0,1.31040358524,2.28265099168,10,4,16.936,1692.8559691976,0,0,1.31040358524,0,0,0,111.6, -1.5, 0.1,0,0,1024,1024,1024,1024,0,0,0,0,300,-22,-44.5,98,4.246,4.246,4.242,4.237,0,0,2.408,76.91,1692.8559691976,0,10,Assisted_Takeoff,
3500,2025-09-03 06:05:54,48.1487536089068,11.5721645003443,0,,,1692.8559691976,0.656168,0,1.34244098784,2.34787409088,10,4,16.936,1692.8559691976,0,0,1.34244098784,0,0,0,111.6, -1.5, 0.1,0,0,1024,1024,1024,1024,0,0,0,0,299.8,-22.1,-44.6,98,4.246,4.246,4.242,4.237,0,0,2.408,76.91,1692.8559691976,0,10,Assisted_Takeoff,
3600,2025-09-03 06:05:54,48.1487534857948,11.5721645372908,0,,,1692.8559691976,0.656168,0,1.36041014852,2.39368117896,10,4,16.936,1692.8559691976,0,0,1.36041014852,0,0,0,111.6, -1.6, 0.1,0,0,1024,1024,1024,1024,0,0,0,0,299.7,-22.2,-44.7,98,4.246,4.246,4.242,4.237,0,0,2.408,76.91,1692.8559691976,0,10,Assisted_Takeoff,
3700,2025-09-03 06:05:54,48.1487531906238,11.5721641085301,0,,,1692.8559691976,0.656168,0,1.28855319084,2.5436516562,10,4,16.936,1692.8559691976,0,0,1.36041014852,0,0,0,111.6, -1.6, 0.1,0,0,1024,1024,1024,1024,0,0,0,0,299.5,-22.3,-44.7,98,4.246,4.246,4.242,4.237,0,0,2.408,76.91,1692.8559691976,0,10,Assisted_Takeoff,
3800,2025-09-03 06:05:54,48.1487530911927,11.5721641095259,0,,,1692.8559691976,0.656168,0,1.30066605212,2.57993118492,10,4,16.936,1692.8559691976,0,0,1.36041014852,0,0,0,111.6, -1.6, 0.1,0,0,1024,1024,1024,1024,0,0,0,0,299.5,-22.3,-44.6,98,4.246,4.246,4.242,4.237,0,0,2.408,76.91,1692.8559691976,0,10,Assisted_Takeoff,
3900,2025-09-03 06:05:54,48.1487529809853,11.5721641130719,0,,,1692.8559691976,0.656168,0,1.3156824568,2.62015100248,11,4,16.936,1692.8559691976,0,0,1.36041014852,0,0,0,111.6, -1.6, 0.1,0,0,1024,1024,1024,1024,0,0,0,0,299.4,-22.4,-44.7,98,4.246,4.246,4.242,4.237,0,0,2.408,76.91,1692.8559691976,0,10,Assisted_Takeoff,
4000,2025-09-03 06:05:54,48.1487528742701,11.5721641213163,0,,,1692.8559691976,0.656168,0,1.3322999114,2.6591372242,11,4,16.936,1692.8559691976,0,0,1.36041014852,0,0,0,111.6, -1.5, 0.1,0,0,1024,1024,1024,1024,0,0,0,0,299.3,-22.4,-44.7,98,4.246,4.246,4.242,4.237,0,0,2.408,76.91,1692.8559691976,0,10,Assisted_Takeoff,
4100,2025-09-03 06:05:54,48.148752761857,11.5721641409924,0,,,1692.8559691976,0.656168,0,1.3532316706,2.70042987644,12,4,16.973,1692.8559691976,0,0,1.36041014852,0,0,0,111.6, -1.5, 0.1,0,0,1024,1024,1024,1024,0,0,0,0,299.2,-22.5,-44.7,98,4.251,4.248,4.246,4.241,0,0,2.03,76.91,1692.8559691976,0,10,Assisted_Takeoff,
4200,2025-09-03 06:05:54,48.1487526619487,11.5721638588475,0,,,1692.8559691976,0.656168,0,1.3073655274,2.7781825036,12,4,16.973,1692.8559691976,0,0,1.36041014852,0,0,0,111.6, -1.5, 0.1,0,0,1024,1024,1024,1024,0,0,0,0,299,-22.6,-44.7,98,4.251,4.248,4.246,4.241,0,0,2.03,76.91,1692.8559691976,0,10,Assisted_Takeoff,
4300,2025-09-03 06:05:54,48.1487526054791,11.5721638410756,0,,,1692.8559691976,0.656168,0,1.31311355908,2.79923565388,11,4,16.973,1692.8559691976,0,0,1.36041014852,0,0,0,111.6, -1.5, 0.1,0,0,1024,1024,1024,1024,0,0,0,0,299,-22.6,-44.7,98,4.251,4.248,4.246,4.241,0,0,2.03,76.91,1692.8559691976,0,10,Assisted_Takeoff,
4400,2025-09-03 06:05:55,48.1487525886557,11.5721638740876,0,,,1692.8559691976,0.656168,0,1.3230971552,2.80934720276,11,4,16.973,1692.8559691976,0,0,1.36041014852,0,0,0,111.6, -1.5, 0.1,0,0,1024,1024,1024,1024,0,0,0,0,298.9,-22.6,-44.7,98,4.251,4.248,4.246,4.241,0,0,2.03,76.91,1692.8559691976,0,10,Assisted_Takeoff,
4500,2025-09-03 06:05:55,48.1487526059587,11.5721639560186,0,,,1692.8559691976,0.656168,0,1.33776907168,2.83026911944,12,4,16.973,1692.8559691976,0,0,1.36041014852,0,0,0,111.6, -1.6, 0.1,0,0,1024,1024,1024,1024,0,0,0,0,298.8,-22.7,-44.8,98,4.251,4.248,4.246,4.241,0,0,2.03,76.91,1692.8559691976,0,10,Assisted_Takeoff,
4600,2025-09-03 06:05:55,48.1487528055099,11.5721640265565,0,,,1692.8559691976,0.656168,0,1.32127956984,2.90507227144,12,4,16.973,1692.8559691976,0,0,1.36041014852,0,0,0,111.6, -1.6, 0.1,0,0,1024,1024,1024,1024,0,0,0,0,298.7,-22.8,-44.8,98,4.251,4.248,4.246,4.241,0,0,2.03,76.91,1692.8559691976,0,10,Assisted_Takeoff,
4700,2025-09-03 06:05:55,48.1487527349111,11.5721641524281,0,,,1692.8559691976,0.656168,0,1.35987209076,2.94510180028,12,4,16.973,1692.8559691976,0,0,1.36041014852,0,0,0,111.6, -1.6, 0.1,0,0,1024,1024,1024,1024,0,0,0,0,298.7,-22.8,-44.8,98,4.251,4.248,4.246,4.241,0,0,2.03,76.91,1692.8559691976,0,10,Assisted_Takeoff,
4800,2025-09-03 06:05:55,48.1487526733771,11.5721643037696,0,,,1692.8559691976,0.656168,0,1.40274610788,2.98824156544,12,4,16.973,1692.8559691976,0,0,1.40274610788,0,0,0,111.6, -1.5, 0.1,0,0,1024,1024,1024,1024,0,0,0,0,298.6,-22.8,-44.8,98,4.251,4.248,4.246,4.241,0,0,2.03,76.91,1692.8559691976,0,10,Assisted_Takeoff,
4900,2025-09-03 06:05:55,48.1487526149225,11.5721644884841,0,,,1692.8559691976,0.656168,0,1.45251316984,3.0380086274,12,4,16.973,1692.8559691976,0,0,1.45251316984,0,0,0,111.6, -1.5, 0.1,0,0,1024,1024,1024,1024,0,0,0,0,298.4,-22.9,-44.8,98,4.251,4.248,4.246,4.241,0,0,2.03,76.91,1692.8559691976,0,10,Assisted_Takeoff,
5000,2025-09-03 06:05:55,48.1487525365153,11.572164927233,0,,,1692.8559691976,0.656168,0,1.56148955128,3.14857621624,12,4,16.973,1692.8559691976,0,0,1.56148955128,0,0,0,111.6, -1.6, 0.1,0,0,1024,1024,1024,1024,0,0,0,0,298.4,-23,-44.8,98,4.251,4.248,4.246,4.241,0,0,2.03,76.91,1692.8559691976,0,10,Assisted_Takeoff,
5100,2025-09-03 06:05:55,48.1487524832766,11.5721650680093,0,,,1692.8559691976,0.656168,0,1.600721836,3.18796926212,12,4,16.955,1692.8559691976,0,0,1.600721836,0,0,0,111.6, -1.6, 0.1,0,0,1024,1024,1024,1024,0,0,0,0,298.2,-23.1,-44.9,98,4.251,4.248,4.246,4.241,0,0,2.03,76.91,1692.8559691976,0,10,Assisted_Takeoff,
5200,2025-09-03 06:05:55,48.1487524589851,11.5721651637521,0,,,1692.8559691976,0.656168,0,1.6256070074,3.21290364612,12,4,16.955,1692.8559691976,0,0,1.6256070074,0,0,0,111.6, -1.6, 0.1,0,0,1024,1024,1024,1024,0,0,0,0,298.2,-23.1,-44.8,98,4.251,4.248,4.246,4.241,0,0,2.03,76.91,1692.8559691976,0,10,Assisted_Takeoff,
5300,2025-09-03 06:05:55,48.1487524587164,11.5721652268168,0,,,1692.8559691976,0.656168,0,1.63963587924,3.22825469648,12,4,16.955,1692.8559691976,0,0,1.63963587924,0,0,0,111.6, -1.6, 0.1,0,0,1024,1024,1024,1024,0,0,0,0,298,-23.2,-45,98,4.251,4.248,4.246,4.241,0,0,2.03,76.91,1692.8559691976,0,10,Assisted_Takeoff,
5400,2025-09-03 06:05:56,48.1487525333211,11.5721650657857,0,,,1692.8559691976,0.656168,0,1.59274283312,3.27597779512,12,4,16.955,1692.8559691976,0,0,1.63963587924,0,0,0,111.6, -1.6, 0.1,0,0,1024,1024,1024,1024,0,0,0,0,298,-23.2,-44.9,98,4.251,4.248,4.246,4.241,0,0,2.03,76.91,1692.8559691976,0,10,Assisted_Takeoff,
5500,2025-09-03 06:05:56,48.1487524974799,11.5721650963118,0,,,1692.8559691976,0.656168,0,1.60485897524,3.291010604,12,4,16.955,1692.8559691976,0,0,1.63963587924,0,0,0,111.6, -1.6, 0.1,0,0,1024,1024,1024,1024,0,0,0,0,297.8,-23.3,-45,98,4.251,4.248,4.246,4.241,0,0,2.03,76.91,1692.8559691976,0,10,Assisted_Takeoff,
5600,2025-09-03 06:05:56,48.1487524782203,11.5721651229644,0,,,1692.8559691976,0.656168,0,1.6136647498,3.3005906568,12,4,16.955,1692.8559691976,0,0,1.63963587924,0,0,0,111.6, -1.6, 0.1,0,0,1024,1024,1024,1024,0,0,0,0,297.8,-23.3,-45,98,4.251,4.248,4.246,4.241,0,0,2.03,76.91,1692.8559691976,0,10,Assisted_Takeoff,
5700,2025-09-03 06:05:56,48.1487524749072,11.5721651537175,0,,,1692.8559691976,0.656168,0,1.62098430384,3.3081693972,12,4,16.955,1692.8559691976,0,0,1.63963587924,0,0,0,111.6, -1.6, 0,0,0,1024,1024,1024,1024,0,0,0,0,297.7,-23.4,-45,98,4.251,4.248,4.246,4.241,0,0,2.03,76.91,1692.8559691976,0,10,Assisted_Takeoff,
5800,2025-09-03 06:05:56,48.1487524535803,11.5721651842435,0,,,1692.8559691976,0.656168,0,1.63096461912,3.3189305524,12,4,16.955,1692.8559691976,0,0,1.63963587924,0,0,0,111.6, -1.6, 0.1,0,0,1024,1024,1024,1024,0,0,0,0,297.7,-23.5,-44.9,98,4.251,4.248,4.246,4.241,0,0,2.03,76.91,1692.8559691976,0,10,Assisted_Takeoff,
5900,2025-09-03 06:05:56,48.1487524462263,11.5721651210329,0,,,1692.8559691976,0.656168,0,1.61809060296,3.3345473508,12,4,16.955,1692.8559691976,0,0,1.63963587924,0,0,0,111.6, -1.6, 0.1,0,0,1024,1024,1024,1024,0,0,0,0,297.5,-23.5,-45,98,4.251,4.248,4.246,4.241,0,0,2.03,76.91,1692.8559691976,0,10,Assisted_Takeoff,
6000,2025-09-03 06:05:56,48.1487524217361,11.5721651348816,0,,,1692.8559691976,0.656168,0,1.62490818848,3.3440945952,12,4,16.955,1692.8559691976,0,0,1.63963587924,0,0,0,111.6, -1.5, 0.1,0,0,1024,1024,1024,1024,0,0,0,0,297.6,-23.5,-44.8,98,4.251,4.248,4.246,4.241,0,0,2.03,76.91,1692.8559691976,0,10,Assisted_Takeoff,
6100,2025-09-03 06:05:56,48.1487524106236,11.5721651323811,0,,,1692.8559691976,0.656168,0,1.62607288668,3.3481956452,12,4,16.956,1692.8559691976,0,0,1.63963587924,0,0,0,111.6, -1.5, 0.1,0,0,1024,1024,1024,1024,0,0,0,0,297.3,-23.7,-44.9,98,4.251,4.248,4.245,4.241,0,0,2.03,76.91,1692.8559691976,0,10,Assisted_Takeoff,
6200,2025-09-03 06:05:56,48.148752381871,11.5721651218145,0,,,1692.8559691976,0.656168,0,1.6282316794,3.3589896088,12,4,16.956,1692.8559691976,0,0,1.63963587924,0,0,0,111.6, -1.5, 0,0,0,1024,1024,1024,1024,0,0,0,0,297.3,-23.6,-44.9,98,4.251,4.248,4.245,4.241,0,0,2.03,76.91,1692.8559691976,0,10,Assisted_Takeoff,
6300,2025-09-03 06:05:56,48.1487523476899,11.5721649201345,0,,,1692.8559691976,0.656168,0,1.58961947344,3.4096457784,12,4,16.956,1692.8559691976,0,0,1.63963587924,0,0,0,111.6, -1.5, 0,0,0,1024,1024,1024,1024,0,0,0,0,297.1,-23.8,-45,98,4.251,4.248,4.245,4.241,0,0,2.03,76.91,1692.8559691976,0,10,Assisted_Takeoff,
6400,2025-09-03 06:05:57,48.1487523245278,11.5721649039041,0,,,1692.8559691976,0.656168,0,1.5899114682,3.418963364,12,4,16.956,1692.8559691976,0,0,1.63963587924,0,0,0,111.6, -1.5, 0.1,0,0,1024,1024,1024,1024,0,0,0,0,297,-23.9,-45.1,98,4.251,4.248,4.245,4.241,0,0,2.03,76.91,1692.8559691976,0,10,Assisted_Takeoff,
6500,2025-09-03 06:05:57,48.148752319136,11.572164891507,0,,,1692.8559691976,0.656168,0,1.58811684872,3.422572288,12,4,16.956,1692.8559691976,0,0,1.63963587924,0,0,0,111.6, -1.6, 0.1,0,0,1024,1024,1024,1024,0,0,0,0,296.9,-23.9,-45,98,4.251,4.248,4.245,4.241,0,0,2.03,76.91,1692.8559691976,0,10,Assisted_Takeoff,
6600,2025-09-03 06:05:57,48.1487522963418,11.5721648828285,0,,,1692.8559691976,0.656168,0,1.59004926348,3.4311680888,12,4,16.956,1692.8559691976,0,0,1.63963587924,0,0,0,111.6, -1.5, 0.1,0,0,1024,1024,1024,1024,0,0,0,0,296.8,-23.9,-45.1,98,4.251,4.248,4.245,4.241,0,0,2.03,76.91,1692.8559691976,0,10,Assisted_Takeoff,
6700,2025-09-03 06:05:57,48.1487522477645,11.5721648150399,0,,,1692.8559691976,0.656168,0,1.58373692732,3.455380688,12,4,16.956,1692.8559691976,0,0,1.63963587924,0,0,0,111.6, -1.5, 0.1,0,0,1024,1024,1024,1024,0,0,0,0,296.8,-24,-45.1,98,4.251,4.248,4.245,4.241,0,0,2.03,76.91,1692.8559691976,0,10,Assisted_Takeoff,
6800,2025-09-03 06:05:57,48.148752222338,11.5721648118959,0,,,1692.8559691976,0.656168,0,1.58747708492,3.4646982736,12,4,16.956,1692.8559691976,0,0,1.63963587924,0,0,0,111.6, -1.5, 0.1,0,0,1024,1024,1024,1024,0,0,0,0,296.7,-24,-45,98,4.251,4.248,4.245,4.241,0,0,2.03,76.91,1692.8559691976,0,10,Assisted_Takeoff,
6900,2025-09-03 06:05:57,48.1487522137748,11.5721648104756,0,,,1692.8559691976,0.656168,0,1.58867131068,3.4678150716,12,4,16.956,1692.8559691976,0,0,1.63963587924,0,0,0,111.6, -1.5, 0.1,0,0,1024,1024,1024,1024,0,0,0,0,296.5,-24.1,-45.1,98,4.251,4.248,4.245,4.241,0,0,2.03,76.91,1692.8559691976,0,10,Assisted_Takeoff,
7000,2025-09-03 06:05:57,48.1487522132725,11.5721647843742,0,,,1692.8559691976,0.656168,0,1.5831857462,3.4741799012,12,4,16.956,1692.8559691976,0,0,1.63963587924,0,0,0,111.6, -1.6, 0.1,0,0,1024,1024,1024,1024,0,0,0,0,296.4,-24.2,-45.2,98,4.251,4.248,4.245,4.241,0,0,2.03,76.91,1692.8559691976,0,10,Assisted_Takeoff,
7100,2025-09-03 06:05:57,48.1487523086048,11.5721646530524,0,,,1692.8559691976,0.656168,0,1.53849414372,3.5214239972,12,4,16.958,1692.8559691976,0,0,1.63963587924,0,0,0,111.6, -1.6, 0,0,0,1024,1024,1024,1024,0,0,0,0,296.4,-24.2,-45.2,98,4.25,4.247,4.245,4.24,0,0,2.034,76.91,1692.8559691976,0,10,Assisted_Takeoff,
7200,2025-09-03 06:05:57,48.148752291472,11.5721646250235,0,,,1692.8559691976,0.656168,0,1.53546264756,3.530675966,12,4,16.958,1692.8559691976,0,0,1.63963587924,0,0,0,111.6, -1.5, 0.1,0,0,1024,1024,1024,1024,0,0,0,0,296.3,-24.3,-45.2,98,4.25,4.247,4.245,4.24,0,0,2.034,76.91,1692.8559691976,0,10,Assisted_Takeoff,
7300,2025-09-03 06:05:57,48.1487522480992,11.5721646141921,0,,,1692.8559691976,0.656168,0,1.54078745088,3.5467192736,11,4,16.958,1692.8559691976,0,0,1.63963587924,0,0,0,111.6, -1.5, 0.1,0,0,1024,1024,1024,1024,0,0,0,0,296.2,-24.3,-45.1,98,4.25,4.247,4.245,4.24,0,0,2.034,76.91,1692.8559691976,0,10,Assisted_Takeoff,
7400,2025-09-03 06:05:57,48.1487522219464,11.5721645861962,0,,,1692.8559691976,0.656168,0,1.53952104664,3.5584318724,11,4,16.958,1692.8559691976,0,0,1.63963587924,0,0,0,111.6, -1.5, 0.1,0,0,1024,1024,1024,1024,0,0,0,0,296.1,-24.4,-45.1,98,4.25,4.247,4.245,4.24,0,0,2.034,76.91,1692.8559691976,0,10,Assisted_Takeoff,
7500,2025-09-03 06:05:58,48.1487522108054,11.572164539524,0,,,1692.8559691976,0.656168,0,1.53166999652,3.5705053636,11,4,16.958,1692.8559691976,0,0,1.63963587924,0,0,0,111.6, -1.5, 0.1,0,0,1024,1024,1024,1024,0,0,0,0,296,-24.5,-45.2,98,4.25,4.247,4.245,4.24,0,0,2.034,76.91,1692.8559691976,0,10,Assisted_Takeoff,
7600,2025-09-03 06:05:58,48.1487522340245,11.5721644766119,0,,,1692.8559691976,0.656168,0,1.51416999596,3.5880250492,11,4,16.958,1692.8559691976,0,0,1.63963587924,0,0,0,111.6, -1.6, 0.1,0,0,1024,1024,1024,1024,0,0,0,0,295.9,-24.5,-45.2,98,4.25,4.247,4.245,4.24,0,0,2.034,76.91,1692.8559691976,0,10,Assisted_Takeoff,
7700,2025-09-03 06:05:58,48.1487523414945,11.5721645690839,0,,,1692.8559691976,0.656168,0,1.51480975976,3.6332350244,11,4,16.958,1692.8559691976,0,0,1.63963587924,0,0,0,111.6, -1.6, 0.1,0,0,1024,1024,1024,1024,0,0,0,0,295.9,-24.5,-45.1,98,4.25,4.247,4.245,4.24,0,0,2.034,76.91,1692.8559691976,0,10,Assisted_Takeoff,
7800,2025-09-03 06:05:58,48.1487524653678,11.5721647381202,0,,,1692.8559691976,0.656168,0,1.53086947156,3.6943570736,11,4,16.958,1692.8559691976,0,0,1.63963587924,0,0,0,111.6, -1.5, 0.1,0,0,1024,1024,1024,1024,0,0,0,0,295.7,-24.7,-45.2,98,4.25,4.247,4.245,4.24,0,0,2.034,76.91,1692.8559691976,0,10,Assisted_Takeoff,
7900,2025-09-03 06:05:58,48.1487526091781,11.5721649849484,0,,,1692.8559691976,0.656168,0,1.56362865896,3.774114294,11,4,16.958,1692.8559691976,0,0,1.63963587924,0,0,0,111.6, -1.5, 0.1,0,0,1024,1024,1024,1024,0,0,0,0,295.5,-24.8,-45.3,98,4.25,4.247,4.245,4.24,0,0,2.034,76.91,1692.8559691976,0,10,Assisted_Takeoff,
8000,2025-09-03 06:05:58,48.1487531262897,11.5721657585311,0,,,1692.8559691976,0.656168,0,1.68039047372,4.040682544,11,4,16.958,1692.8559691976,0,0,1.68039047372,0,0,0,111.6, -1.6, 0,0,0,1024,1024,1024,1024,0,0,0,0,295.5,-24.8,-45.1,98,4.25,4.247,4.245,4.24,0,0,2.034,76.91,1692.8559691976,0,10,Assisted_Takeoff,
8100,2025-09-03 06:05:58,48.1487533188687,11.5721659899837,0,,,1692.8559691976,0.656168,0,1.7188812886,4.130741602,10,4,16.954,1692.8559691976,0,0,1.7188812886,0,0,0,111.6, -1.5, 0,0,0,1024,1024,1024,1024,0,0,0,0,295.4,-24.8,-45.1,98,4.25,4.247,4.245,4.24,0,0,2.034,76.91,1692.8559691976,0,10,Assisted_Takeoff,
8200,2025-09-03 06:05:58,48.1487535335636,11.5721662229881,0,,,1692.8559691976,0.656168,0,1.76020674924,4.2274607652,10,4,16.954,1692.8559691976,0,0,1.76020674924,0,0,0,111.6, -1.5, 0.1,0,0,1024,1024,1024,1024,0,0,0,0,295.3,-24.9,-45.2,98,4.25,4.247,4.245,4.24,0,0,2.034,76.91,1692.8559691976,0,10,Assisted_Takeoff,
8300,2025-09-03 06:05:58,48.1487537805741,11.5721664714983,0,,,1692.8559691976,0.656168,0,1.80823824684,4.3359909524,10,4,16.954,1692.8559691976,0,0,1.80823824684,0,0,0,111.6, -1.5, 0.1,0,0,1024,1024,1024,1024,0,0,0,0,295.2,-25,-45.3,98,4.25,4.247,4.245,4.24,0,0,2.034,76.91,1692.8559691976,0,10,Assisted_Takeoff,
8400,2025-09-03 06:05:59,48.1487540237276,11.5721668445449,0,,,1692.8559691976,0.656168,0,1.8917159398,4.4629594604,10,4,16.954,1692.8559691976,0,0,1.8917159398,0,0,0,111.6, -1.5, 0.1,0,0,1024,1024,1024,1024,0,0,0,0,295.2,-25,-45.3,98,4.25,4.247,4.245,4.24,0,0,2.034,76.91,1692.8559691976,0,10,Assisted_Takeoff,
8500,2025-09-03 06:05:59,48.1487540126615,11.5721669320433,0,,,1692.8559691976,0.656168,0,1.9132054418,4.4846130044,11,4,16.954,1692.8559691976,0,0,1.9132054418,0,0,0,111.6, -1.6, 0.1,0,0,1024,1024,1024,1024,0,0,0,0,295.1,-25,-45.2,98,4.25,4.247,4.245,4.24,0,0,2.034,76.91,1692.8559691976,0,10,Assisted_Takeoff,
8600,2025-09-03 06:05:59,48.1487539393474,11.572166946879,0,,,1692.8559691976,0.656168,0,1.91847775168,4.5116143176,11,4,16.954,1692.8559691976,0,0,1.91847775168,0,0,0,111.6, -1.6, 0.1,0,0,1024,1024,1024,1024,0,0,0,0,295,-25.1,-45.2,98,4.25,4.247,4.245,4.24,0,0,2.034,76.91,1692.8559691976,0,10,Assisted_Takeoff,
8700,2025-09-03 06:05:59,48.1487538337346,11.572166922369,0,,,1692.8559691976,0.656168,0,1.9155840508,4.5506235052,11,4,16.954,1692.8559691976,0,0,1.91847775168,0,0,0,111.6, -1.6, 0,0,0,1024,1024,1024,1024,0,0,0,0,294.9,-25.1,-45.2,98,4.25,4.247,4.245,4.24,0,0,2.034,76.91,1692.8559691976,0,10,Assisted_Takeoff,
8800,2025-09-03 06:05:59,48.1487533106426,11.5721665970915,0,,,1692.8559691976,0.656168,0,1.86424218564,4.757218,11,4,16.954,1692.8559691976,0,0,1.91847775168,0,0,0,111.6, -1.5, 0.1,0,0,1024,1024,1024,1024,0,0,0,0,294.7,-25.2,-45.4,98,4.25,4.247,4.245,4.24,0,0,2.034,76.91,1692.8559691976,0,10,Assisted_Takeoff,
8900,2025-09-03 06:05:59,48.1487532377828,11.5721666394481,0,,,1692.8559691976,0.656168,0,1.87967197616,4.785761308,11,4,16.954,1692.8559691976,0,0,1.91847775168,0,0,0,111.6, -1.5, 0.1,0,0,1024,1024,1024,1024,0,0,0,0,294.6,-25.3,-45.4,98,4.25,4.247,4.245,4.24,0,0,2.034,76.91,1692.8559691976,0,10,Assisted_Takeoff,
9000,2025-09-03 06:05:59,48.1487531324933,11.5721666232939,0,,,1692.8559691976,0.656168,0,1.88416016528,4.8243767948,11,4,16.954,1692.8559691976,0,0,1.91847775168,0,0,0,111.6, -1.6, 0.1,0,0,1024,1024,1024,1024,0,0,0,0,294.5,-25.4,-45.3,98,4.25,4.247,4.245,4.24,0,0,2.034,76.91,1692.8559691976,0,10,Assisted_Takeoff,
9100,2025-09-03 06:05:59,48.1487529936725,11.57216655692,0,,,1692.8559691976,0.656168,0,1.88065294732,4.8775264028,11,4,16.956,1692.8559691976,0,0,1.91847775168,0,0,0,111.6, -1.6, 0.1,0,0,1024,1024,1024,1024,0,0,0,0,294.4,-25.4,-45.3,98,4.25,4.248,4.245,4.24,0,0,2.028,76.91,1692.8559691976,0,10,Assisted_Takeoff,
9200,2025-09-03 06:05:59,48.1487528785993,11.5721665265842,0,,,1692.8559691976,0.656168,0,1.88465557212,4.9201445144,11,4,16.956,1692.8559691976,0,0,1.91847775168,0,0,0,111.6, -1.5, 0.1,0,0,1024,1024,1024,1024,0,0,0,0,294.4,-25.5,-45.2,98,4.25,4.248,4.245,4.24,0,0,2.028,76.91,1692.8559691976,0,10,Assisted_Takeoff,
9300,2025-09-03 06:05:59,48.1487525466687,11.5721663102578,0,,,1692.8559691976,0.656168,0,1.87202105728,5.0521983244,12,4,16.956,1692.8559691976,0,0,1.91847775168,0,0,0,111.6, -1.5, 0.1,0,0,1024,1024,1024,1024,0,0,0,0,294.3,-25.6,-45.3,98,4.25,4.248,4.245,4.24,0,0,2.028,76.91,1692.8559691976,0,10,Assisted_Takeoff,
9400,2025-09-03 06:06:00,48.1487524703492,11.57216631213,0,,,1692.8559691976,0.656168,0,1.88216213372,5.080052656,12,4,16.956,1692.8559691976,0,0,1.91847775168,0,0,0,111.6, -1.5, 0,0,0,1024,1024,1024,1024,0,0,0,0,294.2,-25.6,-45.3,98,4.25,4.248,4.245,4.24,0,0,2.028,76.91,1692.8559691976,0,10,Assisted_Takeoff,
9500,2025-09-03 06:06:00,48.1487524077665,11.5721663053661,0,,,1692.8559691976,0.656168,0,1.88886488984,5.1029529192,12,4,16.956,1692.8559691976,0,0,1.91847775168,0,0,0,111.6, -1.5, 0,0,0,1024,1024,1024,1024,0,0,0,0,293.9,-25.8,-45.4,98,4.25,4.248,4.245,4.24,0,0,2.028,76.91,1692.8559691976,0,10,Assisted_Takeoff,
9600,2025-09-03 06:06:00,48.1487523763334,11.57216629721,0,,,1692.8559691976,0.656168,0,1.89125006052,5.1145999012,12,4,16.956,1692.8559691976,0,0,1.91847775168,0,0,0,111.6, -1.5, 0.1,0,0,1024,1024,1024,1024,0,0,0,0,294.1,-25.7,-45.2,98,4.25,4.248,4.245,4.24,0,0,2.028,76.91,1692.8559691976,0,10,Assisted_Takeoff,
9700,2025-09-03 06:06:00,48.1487524841153,11.5721662262878,0,,,1692.8559691976,0.656168,0,1.86084651624,5.1575460968,12,4,16.956,1692.8559691976,0,0,1.91847775168,0,0,0,111.6, -1.5, 0.1,0,0,1024,1024,1024,1024,0,0,0,0,293.8,-25.8,-45.3,98,4.25,4.248,4.245,4.24,0,0,2.028,76.91,1692.8559691976,0,10,Assisted_Takeoff,
9800,2025-09-03 06:06:00,48.1487524674009,11.5721662168413,0,,,1692.8559691976,0.656168,0,1.86088588632,5.16404216,12,4,16.956,1692.8559691976,0,0,1.91847775168,0,0,0,111.6, -1.6, 0.1,0,0,1024,1024,1024,1024,0,0,0,0,293.8,-25.8,-45.3,98,4.25,4.248,4.245,4.24,0,0,2.028,76.91,1692.8559691976,0,10,Assisted_Takeoff,
9900,2025-09-03 06:06:00,48.148752431681,11.5721662079534,0,,,1692.8559691976,0.656168,0,1.86360242184,5.1772639452,12,4,16.956,1692.8559691976,0,0,1.91847775168,0,0,0,111.6, -1.6, 0.1,0,0,1024,1024,1024,1024,0,0,0,0,293.8,-25.8,-45.3,98,4.25,4.248,4.245,4.24,0,0,2.028,76.91,1692.8559691976,0,10,Assisted_Takeoff,
10000,2025-09-03 06:06:00,48.1487524122219,11.5721662219754,0,,,1692.8559691976,0.656168,0,1.86938654276,5.1851379612,12,4,16.956,1692.8559691976,0,0,1.91847775168,0,0,0,111.6, -1.5, 0.1,0,0,1024,1024,1024,1024,0,0,0,0,293.7,-25.9,-45.3,98,4.25,4.248,4.245,4.24,0,0,2.028,76.91,1692.8559691976,0,10,Assisted_Takeoff,
10100,2025-09-03 06:06:00,48.1487525226825,11.5721663394951,0,,,1692.8559691976,0.656168,0,1.88171593948,5.23458022,12,4,16.956,1692.8559691976,0,0,1.91847775168,0,0,0,111.6, -1.5, 0.1,0,0,1024,1024,1024,1024,0,0,0,0,293.5,-26,-45.3,98,4.25,4.248,4.245,4.24,0,0,2.024,76.91,1692.8559691976,0,10,Assisted_Takeoff,
10200,2025-09-03 06:06:00,48.1487525101166,11.572166372435,0,,,1692.8559691976,0.656168,0,1.89082355132,5.2437993804,12,4,16.956,1692.8559691976,0,0,1.91847775168,0,0,0,111.6, -1.5, 0.1,0,0,1024,1024,1024,1024,0,0,0,0,293.5,-26,-45.3,98,4.25,4.248,4.245,4.24,0,0,2.024,76.91,1692.8559691976,0,10,Assisted_Takeoff,
10300,2025-09-03 06:06:00,48.1487524709859,11.5721663852597,0,,,1692.8559691976,0.656168,0,1.89873037572,5.2584319268,12,4,16.956,1692.8559691976,0,0,1.91847775168,0,0,0,111.6, -1.5, 0.1,0,0,1024,1024,1024,1024,0,0,0,0,293.3,-26.2,-45.3,98,4.25,4.248,4.245,4.24,0,0,2.024,76.91,1692.8559691976,0,10,Assisted_Takeoff,
10400,2025-09-03 06:06:01,48.1487524463142,11.5721663906386,0,,,1692.8559691976,0.656168,0,1.90314310552,5.2675198536,12,4,16.956,1692.8559691976,0,0,1.91847775168,0,0,0,111.6, -1.5, 0.1,0,0,1024,1024,1024,1024,0,0,0,0,293.2,-26.2,-45.5,98,4.25,4.248,4.245,4.24,0,0,2.024,76.91,1692.8559691976,0,10,Assisted_Takeoff,
10500,2025-09-03 06:06:01,48.1487524599207,11.5721663608131,0,,,1692.8559691976,0.656168,0,1.89459323648,5.2763125048,12,4,16.956,1692.8559691976,0,0,1.91847775168,0,0,0,111.6, -1.5, 0.1,0,0,1024,1024,1024,1024,0,0,0,0,293.2,-26.3,-45.4,98,4.25,4.248,4.245,4.24,0,0,2.024,76.91,1692.8559691976,0,10,Assisted_Takeoff,
10600,2025-09-03 06:06:01,48.1487524392093,11.5721663363231,0,,,1692.8559691976,0.656168,0,1.89172250148,5.285925366,12,4,16.956,1692.8559691976,0,0,1.91847775168,0,0,0,111.6, -1.5, 0.1,0,0,1024,1024,1024,1024,0,0,0,0,293.1,-26.3,-45.4,98,4.25,4.248,4.245,4.24,0,0,2.024,76.91,1692.8559691976,0,10,Assisted_Takeoff,
10700,2025-09-03 06:06:01,48.1487523937969,11.5721662788114,0,,,1692.8559691976,0.656168,0,1.8847277506,5.3076117184,12,4,16.956,1692.8559691976,0,0,1.91847775168,0,0,0,111.6, -1.5, 0.1,0,0,1024,1024,1024,1024,0,0,0,0,292.9,-26.4,-45.4,98,4.25,4.248,4.245,4.24,0,0,2.024,76.91,1692.8559691976,0,10,Assisted_Takeoff,
10800,2025-09-03 06:06:01,48.1487523188803,11.5721662360929,0,,,1692.8559691976,0.656168,0,1.88539376112,5.3368768112,12,4,16.956,1692.8559691976,0,0,1.91847775168,0,0,0,111.6, -1.5, 0.1,0,0,1024,1024,1024,1024,0,0,0,0,292.8,-26.5,-45.4,98,4.25,4.248,4.245,4.24,0,0,2.024,76.91,1692.8559691976,0,10,Assisted_Takeoff,
10900,2025-09-03 06:06:01,48.1487522059632,11.5721662140913,0,,,1692.8559691976,0.656168,0,1.89669297408,5.3784122456,12,4,16.956,1692.8559691976,0,0,1.91847775168,0,0,0,111.6, -1.5, 0.1,0,0,1024,1024,1024,1024,0,0,0,0,292.7,-26.5,-45.4,98,4.25,4.248,4.245,4.24,0,0,2.024,76.91,1692.8559691976,0,10,Assisted_Takeoff,
11000,2025-09-03 06:06:01,48.1487519550493,11.5721660793181,0,,,1692.8559691976,0.656168,0,1.90607617648,5.4756563432,12,4,16.956,1692.8559691976,0,0,1.91847775168,0,0,0,111.6, -1.5, 0,0,0,1024,1024,1024,1024,0,0,0,0,292.6,-26.6,-45.4,98,4.25,4.248,4.245,4.24,0,0,2.024,76.91,1692.8559691976,0,10,Assisted_Takeoff,
11100,2025-09-03 06:06:01,48.1487518746815,11.5721660741295,0,,,1692.8559691976,0.656168,0,1.91831370968,5.5050198612,12,4,16.956,1692.8559691976,0,0,1.91847775168,0,0,0,111.6, -1.5, 0.1,0,0,1024,1024,1024,1024,0,0,0,0,292.5,-26.7,-45.5,98,4.249,4.247,4.245,4.239,0,0,2.024,76.91,1692.8559691976,0,10,Assisted_Takeoff,
11200,2025-09-03 06:06:01,48.1487518322972,11.5721660487624,0,,,1692.8559691976,0.656168,0,1.92005255488,5.52165372,12,4,16.956,1692.8559691976,0,0,1.92005255488,0,0,0,111.5, -1.5, 0.1,0,0,1024,1024,1024,1024,0,0,0,0,292.5,-26.7,-45.5,98,4.249,4.247,4.245,4.239,0,0,2.024,76.91,1692.8559691976,0,10,Assisted_Takeoff,
11300,2025-09-03 06:06:01,48.1487518222187,11.5721660009748,0,,,1692.8559691976,0.656168,0,1.91152565172,5.5338584448,12,4,16.956,1692.8559691976,0,0,1.92005255488,0,0,0,111.6, -1.5, 0.1,0,0,1024,1024,1024,1024,0,0,0,0,292.5,-26.7,-45.4,98,4.249,4.247,4.245,4.239,0,0,2.024,76.91,1692.8559691976,0,10,Assisted_Takeoff,
11400,2025-09-03 06:06:02,48.1487518635641,11.5721659432232,0,,,1692.8559691976,0.656168,0,1.8920112154,5.5544949284,12,4,16.956,1692.8559691976,0,0,1.92005255488,0,0,0,111.6, -1.5, 0,0,0,1024,1024,1024,1024,0,0,0,0,292.3,-26.8,-45.4,98,4.249,4.247,4.245,4.239,0,0,2.024,76.91,1692.8559691976,0,10,Assisted_Takeoff,
11500,2025-09-03 06:06:02,48.148751830435,11.5721659324383,0,,,1692.8559691976,0.656168,0,1.89542000816,5.5668636952,12,4,16.956,1692.8559691976,0,0,1.92005255488,0,0,0,111.6, -1.5, 0.1,0,0,1024,1024,1024,1024,0,0,0,0,292.3,-26.9,-45.4,98,4.249,4.247,4.245,4.239,0,0,2.024,76.91,1692.8559691976,0,10,Assisted_Takeoff,
11600,2025-09-03 06:06:02,48.1487518153809,11.5721659074074,0,,,1692.8559691976,0.656168,0,1.89269034928,5.5750657952,12,4,16.956,1692.8559691976,0,0,1.92005255488,0,0,0,111.5, -1.5, 0.1,0,0,1024,1024,1024,1024,0,0,0,0,292.1,-26.9,-45.4,98,4.249,4.247,4.245,4.239,0,0,2.024,76.91,1692.8559691976,0,10,Assisted_Takeoff,
11700,2025-09-03 06:06:02,48.1487518162806,11.5721658608878,0,,,1692.8559691976,0.656168,0,1.88260504712,5.5863846932,12,4,16.956,1692.8559691976,0,0,1.92005255488,0,0,0,111.5, -1.6, 0.1,0,0,1024,1024,1024,1024,0,0,0,0,292,-27,-45.5,98,4.249,4.247,4.245,4.239,0,0,2.024,76.91,1692.8559691976,0,10,Assisted_Takeoff,
11800,2025-09-03 06:06:02,48.1487519793774,11.5721658745495,0,,,1692.8559691976,0.656168,0,1.85761488884,5.645997556,12,4,16.956,1692.8559691976,0,0,1.92005255488,0,0,0,111.5, -1.6, 0.1,0,0,1024,1024,1024,1024,0,0,0,0,291.8,-27.2,-45.6,98,4.249,4.247,4.245,4.239,0,0,2.024,76.91,1692.8559691976,0,10,Assisted_Takeoff,
11900,2025-09-03 06:06:02,48.1487519909255,11.5721658722954,0,,,1692.8559691976,0.656168,0,1.85520675228,5.6502298396,12,4,16.956,1692.8559691976,0,0,1.92005255488,0,0,0,111.5, -1.6, 0.1,0,0,1024,1024,1024,1024,0,0,0,0,291.8,-27.1,-45.4,98,4.249,4.247,4.245,4.239,0,0,2.024,76.91,1692.8559691976,0,10,Assisted_Takeoff,
12000,2025-09-03 06:06:02,48.1487520020397,11.5721658539827,0,,,1692.8559691976,0.656168,0,1.8493931038,5.6562665852,12,4,16.956,1692.8559691976,0,0,1.92005255488,0,0,0,111.5, -1.5, 0.1,0,0,1024,1024,1024,1024,0,0,0,0,291.8,-27.2,-45.4,98,4.249,4.247,4.245,4.239,0,0,2.024,76.91,1692.8559691976,0,10,Assisted_Takeoff,
12100,2025-09-03 06:06:02,48.148752011435,11.5721658138152,0,,,1692.8559691976,0.656168,0,1.83912735544,5.6666340396,12,4,16.957,1692.8559691976,0,0,1.92005255488,0,0,0,111.5, -1.5, 0.1,0,0,1024,1024,1024,1024,0,0,0,0,291.5,-27.3,-45.5,98,4.249,4.247,4.244,4.239,0,0,2.036,76.91,1692.8559691976,0,10,Assisted_Takeoff,
12200,2025-09-03 06:06:02,48.1487519677324,11.5721655563344,0,,,1692.8559691976,0.656168,0,1.7910597686,5.731299396,12,4,16.957,1692.8559691976,0,0,1.92005255488,0,0,0,111.6, -1.5, 0.2,0,0,1024,1024,1024,1024,0,0,0,0,291.5,-27.3,-45.5,98,4.249,4.247,4.244,4.239,0,0,2.036,76.91,1692.8559691976,0,10,Assisted_Takeoff,
12300,2025-09-03 06:06:02,48.1487519174363,11.5721654384359,0,,,1692.8559691976,0.656168,0,1.77479664472,5.7653545152,12,4,16.957,1692.8559691976,0,0,1.92005255488,0,0,0,111.6, -1.5, 0.2,0,0,1024,1024,1024,1024,0,0,0,0,291.4,-27.4,-45.5,98,4.249,4.247,4.244,4.239,0,0,2.036,76.91,1692.8559691976,0,10,Assisted_Takeoff,
12400,2025-09-03 06:06:03,48.148751881547,11.5721652908443,0,,,1692.8559691976,0.656168,0,1.7501476938,5.8036091096,12,4,16.957,1692.8559691976,0,0,1.92005255488,0,0,0,111.5, -1.5, 0.1,0,0,1024,1024,1024,1024,0,0,0,0,291.4,-27.4,-45.4,98,4.249,4.247,4.244,4.239,0,0,2.036,76.91,1692.8559691976,0,10,Assisted_Takeoff,
12500,2025-09-03 06:06:03,48.1487518612916,11.572165101417,0,,,1692.8559691976,0.656168,0,1.71433076352,5.8502954628,12,4,16.957,1692.8559691976,0,0,1.92005255488,0,0,0,111.5, -1.5, 0.1,0,0,1024,1024,1024,1024,0,0,0,0,291.4,-27.4,-45.4,98,4.249,4.247,4.244,4.239,0,0,2.036,76.91,1692.8559691976,0,10,Assisted_Takeoff,
12600,2025-09-03 06:06:03,48.1487518490514,11.5721649825138,0,,,1692.8559691976,0.656168,0,1.6920276132,5.879593364,12,4,16.957,1692.8559691976,0,0,1.92005255488,0,0,0,111.5, -1.6, 0.1,0,0,1024,1024,1024,1024,0,0,0,0,291.2,-27.5,-45.5,98,4.249,4.247,4.244,4.239,0,0,2.036,76.91,1692.8559691976,0,10,Assisted_Takeoff,
12700,2025-09-03 06:06:03,48.148751902834,11.5721648972414,0,,,1692.8559691976,0.328084,0,1.664042048,5.908136672,12,4,16.957,1692.8559691976,0,0,1.92005255488,0,0,0,111.5, -1.6, 0.1,0,0,1024,1024,1024,1024,0,0,0,0,291.2,-27.5,-45.5,98,4.249,4.247,4.244,4.239,0,0,2.036,76.91,1692.8559691976,0,10,Assisted_Takeoff,
12800,2025-09-03 06:06:03,48.1487518789855,11.5721648462986,0,,,1692.8559691976,0.656168,0,1.658136536,5.9232941528,12,4,16.957,1692.8559691976,0,0,1.92005255488,0,0,0,111.5, -1.5, 0.1,0,0,1024,1024,1046,1024,0,0,3,0,290.9,-27.7,-45.5,98,4.249,4.247,4.244,4.239,0,0,2.036,76.91,1692.8559691976,0,10,Assisted_Takeoff,
12900,2025-09-03 06:06:03,48.1487518275323,11.5721647674843,0,,,1692.8559691976,0.656168,0,1.65212603712,5.950131424,12,4,16.957,1692.8559691976,0,0,1.92005255488,0,0,0,111.5, -1.5, 0.1,0,0,1024,1024,1054,1024,0,0,5,0,290.9,-27.7,-45.5,98,4.249,4.247,4.244,4.239,0,0,2.036,76.91,1692.8559691976,0,10,Assisted_Takeoff,
13000,2025-09-03 06:06:03,48.1487517935264,11.5721646355076,0,,,1692.8559691976,0.656168,0,1.6322507084,5.984580244,12,4,16.957,1692.8559691976,0,0,1.92005255488,0,0,0,111.5, -1.5, 0.1,0,0,1024,1024,1024,1024,0,0,0,0,290.8,-27.8,-45.5,98,4.249,4.247,4.244,4.239,0,0,2.036,76.91,1692.8559691976,0,10,Assisted_Takeoff,
13100,2025-09-03 06:06:03,48.1487517580304,11.5721642214694,0,,,1692.8559691976,0.656168,0,1.55753285824,6.0861878588,12,4,16.958,1692.8559691976,0,0,1.92005255488,0,0,0,111.5, -1.6, 0.1,0,0,1024,1024,1024,1024,0,0,0,0,290.7,-27.9,-45.5,98,4.248,4.246,4.244,4.239,0,0,2.04,76.91,1692.8559691976,0,10,Assisted_Takeoff,
13200,2025-09-03 06:06:03,48.1487517278235,11.5721640487828,0,,,1692.8559691976,0.656168,0,1.53072839544,6.1296589888,12,4,16.958,1692.8559691976,0,0,1.92005255488,0,0,0,111.5, -1.5, 0.1,0,0,1024,1024,1024,1024,0,0,0,0,290.6,-27.9,-45.5,98,4.248,4.246,4.244,4.239,0,0,2.04,76.91,1692.8559691976,0,10,Assisted_Takeoff,
13300,2025-09-03 06:06:03,48.1487516779891,11.572163905583,0,,,1692.8559691976,0.656168,0,1.51479335556,6.168963452,12,4,16.958,1692.8559691976,0,0,1.92005255488,0,0,0,111.5, -1.5, 0.1,0,0,1024,1024,1024,1024,0,0,0,0,290.6,-27.9,-45.4,98,4.248,4.246,4.244,4.239,0,0,2.04,76.91,1692.8559691976,0,10,Assisted_Takeoff,
13400,2025-09-03 06:06:03,48.1487516484686,11.5721637644744,0,,,1692.8559691976,0.656168,0,1.49529532344,6.2049542668,12,4,16.958,1692.8559691976,0,0,1.92005255488,0,0,0,111.5, -1.5, 0.1,0,0,1024,1024,1024,1024,0,0,0,0,290.4,-28,-45.5,98,4.248,4.246,4.244,4.239,0,0,2.04,76.91,1692.8559691976,0,10,Assisted_Takeoff,
13500,2025-09-03 06:06:04,48.1487516395008,11.5721635353378,0,,,1692.8559691976,0.656168,0,1.45543311744,6.260826972,11,4,16.958,1692.8559691976,0,0,1.92005255488,0,0,0,111.5, -1.5, 0.1,0,0,1024,1024,1138,1024,0,0,17,0,290.5,-28,-45.4,98,4.248,4.246,4.244,4.239,0,0,2.04,76.91,1692.8559691976,0,10,Assisted_Takeoff,
13600,2025-09-03 06:06:04,48.1487516602366,11.5721633850363,0,,,1692.8559691976,0.656168,0,1.42326776208,6.2981957396,11,4,16.958,1692.8559691976,0,0,1.92005255488,0,0,0,111.5, -1.5, 0.1,0,0,1024,1024,1159,1024,0,0,20,0,290.2,-28.1,-45.5,98,4.248,4.246,4.244,4.239,0,0,2.04,76.91,1692.8559691976,0,10,Assisted_Takeoff,
13700,2025-09-03 06:06:04,48.1487517161948,11.5721632253819,0,,,1692.8559691976,0.656168,0,1.38089899432,6.3420933788,11,4,16.958,1692.8559691976,0,0,1.92005255488,0,0,0,111.5, -1.5, 0.1,0,0,1024,1024,1149,1024,0,0,19,0,290.1,-28.2,-45.6,98,4.248,4.246,4.244,4.239,0,0,2.04,76.91,1692.8559691976,0,10,Assisted_Takeoff,
13800,2025-09-03 06:06:04,48.148751783816,11.5721631990013,0,,,1692.8559691976,0.656168,0,1.359416054,6.3675855056,11,4,16.958,1692.8559691976,0,0,1.92005255488,0,0,0,111.5, -1.5, 0.1,0,0,1024,1024,1151,1024,0,0,19,0,290,-28.3,-45.6,98,4.248,4.246,4.244,4.239,0,0,2.04,76.91,1692.8559691976,0,10,Assisted_Takeoff,
13900,2025-09-03 06:06:04,48.1487520934752,11.5721636181347,0,,,1692.8559691976,0.656168,0,1.36669623796,6.5198164816,11,4,16.958,1692.8559691976,0,0,1.92005255488,0,0,0,111.5, -1.6, 0.1,0,0,1024,1024,1154,1024,0,0,20,0,290,-28.3,-45.6,98,4.248,4.246,4.244,4.239,0,0,2.04,76.91,1692.8559691976,0,10,Assisted_Takeoff,
14000,2025-09-03 06:06:04,48.1487521870545,11.5721637515309,0,,,1692.8559691976,0.656168,0,1.37356959776,6.5669621524,11,4,16.958,1692.8559691976,0,0,1.92005255488,0,0,0,111.5, -1.6, 0.1,0,0,1024,1024,1134,1024,0,0,17,0,289.8,-28.4,-45.7,98,4.248,4.246,4.244,4.239,0,0,2.04,76.91,1692.8559691976,0,10,Assisted_Takeoff,
14100,2025-09-03 06:06:04,48.1487523109978,11.5721639410987,0,,,1692.8559691976,0.656168,0,1.3877625116,6.631561892,11,4,16.828,1692.8559691976,0,0,1.92005255488,0,0,0,111.5, -1.6, 0.1,0,0,1024,1024,1132,1024,0,0,16,0,289.7,-28.6,-45.7,98,4.249,4.246,4.244,4.238,0,0,2.042,76.91,1692.8559691976,0,10,Assisted_Takeoff,
14200,2025-09-03 06:06:04,48.1487524645463,11.5721641590491,0,,,1692.8559691976,0.656168,0,1.40564637044,6.7087272488,11,4,16.828,1692.8559691976,0,0,1.92005255488,0,0,0,111.5, -1.6, 0.1,0,0,1024,1024,1132,1024,0,0,16,0,289.7,-28.6,-45.7,98,4.249,4.246,4.244,4.238,0,0,2.042,76.91,1692.8559691976,0,10,Assisted_Takeoff,
14300,2025-09-03 06:06:04,48.1487526462993,11.5721643953324,0,,,1692.8559691976,0.656168,0,1.42712274908,6.7964897188,11,4,16.828,1692.8559691976,0,0,1.92005255488,0,0,0,111.5, -1.8, 0.1,0,0,1024,1024,1124,1024,0,0,15,0,289.4,-29,-45.7,98,4.249,4.246,4.244,4.238,0,0,2.042,76.91,1692.8559691976,0,10,Assisted_Takeoff,
14400,2025-09-03 06:06:05,48.1487531462992,11.5721652672587,0,,,1692.8559691976,0.656168,0,1.56308403952,7.0763781792,11,4,16.828,1692.8559691976,0,0,1.92005255488,0,0,0,111.4, -2.1, 0.1,0,0,1024,1024,1128,1024,0,0,16,0,289.1,-29.6,-45.7,98,4.249,4.246,4.244,4.238,0,0,2.042,76.91,1692.8559691976,0,10,Assisted_Takeoff,
14500,2025-09-03 06:06:05,48.1487533304119,11.5721654550739,0,,,1692.8559691976,0.656168,0,1.5908301034,7.1576117776,11,4,16.828,1692.8559691976,0,0,1.92005255488,0,0,0,111.3, -2.7, 0.2,0,0,1024,1024,1124,1024,0,0,15,0,288.4,-31.2,-45.7,98,4.249,4.246,4.244,4.238,0,0,2.042,76.91,1692.8559691976,0,10,Assisted_Takeoff,
14600,2025-09-03 06:06:05,48.148753491842,11.5721656483755,0,,,1692.8559691976,0.656168,0,1.62497708612,7.2330054808,11,4,16.828,1692.8559691976,0,0,1.92005255488,0,0,0,111.1, -4, 0.4,0,0,1024,1024,1123,1024,0,0,15,0,288.6,-32.6,-45.5,98,4.249,4.246,4.244,4.238,0,0,2.042,76.91,1692.8559691976,0,10,Assisted_Takeoff,
14700,2025-09-03 06:06:05,48.1487536396176,11.5721658915847,0,,,1692.8559691976,0.656168,0,1.67458338692,7.3130907852,11,4,16.828,1692.8559691976,0,0,1.92005255488,0,0,0,111.1, -6.4, 0.9,0,0,1024,1024,1125,1024,0,0,15,0,289.8,-35,-45.2,98,4.249,4.246,4.244,4.238,0,0,2.042,76.91,1692.8559691976,0,10,Assisted_Takeoff,
14800,2025-09-03 06:06:05,48.1487539718845,11.5721663959732,0,,,1692.8559691976,0.656168,0.3131716,1.78387144816,7.4856301608,11,4,16.828,1692.8559691976,0,0.3131716,1.92005255488,-0.223694,0.223694,0,111.8, -8.9, 2.2,0,0,1024,1024,1123,1024,0,0,15,0,292.7,-34.8,-44.8,98,4.249,4.246,4.244,4.238,0,0,2.042,76.91,1692.8559691976,0,10,Assisted_Takeoff,
14900,2025-09-03 06:06:05,48.148754062658,11.5721668601285,0,,,1692.8559691976,0.656168,0.6263432,1.89479336772,7.6033795084,11,4,16.828,1692.8559691976,0,0.6263432,1.92005255488,-0.447388,0.447388,-0.223694,112.5, -8.9, 3.3,0,0,1024,1024,1123,1024,0,0,15,0,291.8,-32.4,-45.2,98,4.249,4.246,4.244,4.238,0,0,2.042,76.91,1692.8559691976,0,6,P-GPS,
15000,2025-09-03 06:06:05,48.1487540278549,11.572167401896,0,,,1692.8559691976,0.656168,0.8052984,2.0271326108,7.7358598276,11,4,16.828,1692.8559691976,0,0.8052984,2.0271326108,-0.447388,0.671082,-0.671082,112.4, -3.5, 1.9,0,0,1024,1024,1120,1024,0,0,15,0,289.6,-27.5,-46.2,98,4.249,4.246,4.244,4.238,0,0,2.042,76.91,1692.8559691976,0,6,P-GPS,
15100,2025-09-03 06:06:05,48.1487538932022,11.5721680174023,0.328084,,,1693.1840531976,0.984252,1.11847,2.17961293064,7.893536998,9,4,16.52,1693.1840531976,0.328084,1.11847,2.17961293064,-0.671082,0.894776,-0.894776,112.2, 2.4, 0,0,0,1024,1024,1045,1024,0,0,3,0,287.8,-25.1,-45.6,98,4.249,4.246,4.244,4.238,0,0,2.042,76.91,1693.1840531976,0.328084,6,P-GPS,
15200,2025-09-03 06:06:05,48.1487535246714,11.572168436004,0.328084,,,1693.1840531976,0.984252,0.9395148,2.29402566396,8.0622377908,9,4,16.52,1693.1840531976,0.328084,1.11847,2.29402566396,-0.671082,0.671082,-0.894776,111.9, 5.4, -0.9,0,0,1024,1024,1046,1024,0,0,3,0,287.8,-25.1,-45.6,98,4.249,4.246,4.244,4.238,0,0,2.042,76.91,1693.1840531976,0.328084,6,P-GPS,
15300,2025-09-03 06:06:05,48.1487533094872,11.5721689114329,0.328084,,,1693.1840531976,0.984252,0.8052984,2.4194226496,8.2021,9,4,16.52,1693.1840531976,0.328084,1.11847,2.4194226496,-0.447388,0.671082,-0.894776,111.9, 6.1, -1.5,0,0,1024,1024,1063,1024,0,0,6,0,287.5,-24.9,-46.2,98,4.249,4.246,4.244,4.238,0,0,2.042,76.91,1693.1840531976,0.328084,6,P-GPS,
15400,2025-09-03 06:06:06,48.1487530539689,11.5721692563471,0.656168,,,1693.5121371976,1.312336,0.4921268,2.51766412256,8.3275593216,9,4,16.52,1693.5121371976,0.656168,1.11847,2.51766412256,-0.223694,0.447388,-0.671082,112, 5.1, -2.6,0,0,1024,1024,1073,1024,0,0,7,0,287.2,-26.5,-47.6,98,4.249,4.246,4.244,4.238,0,0,2.042,76.91,1693.5121371976,0.656168,6,P-GPS,
15500,2025-09-03 06:06:06,48.1487527597832,11.5721695323798,0.656168,,,1693.5121371976,1.312336,0.3131716,2.60485244556,8.4541997456,9,4,16.52,1693.5121371976,0.656168,1.11847,2.60485244556,-0.223694,0.223694,-0.671082,112.2, 3.6, -1.9,0,0,1024,1024,1065,1024,0,0,6,0,288.2,-27.4,-47.1,98,4.249,4.246,4.244,4.238,0,0,2.042,76.91,1693.5121371976,0.656168,6,P-GPS,
15600,2025-09-03 06:06:06,48.1487516508641,11.5721694084798,0.984252,,,1693.8402211976,1.312336,0,2.69297580796,8.85990842,9,4,16.52,1693.8402211976,0.984252,1.11847,2.69297580796,0,0,-0.447388,112.3, 2, -0.3,0,0,1024,1024,1076,1024,0,0,8,0,289.7,-28,-45.5,98,4.249,4.246,4.244,4.238,0,0,2.042,76.91,1693.8402211976,0.984252,6,P-GPS,
15700,2025-09-03 06:06:06,48.1487513367299,11.5721694712547,0.984252,,,1693.8402211976,1.312336,0,2.75029208276,8.9755252216,7,3,16.52,1693.8402211976,0.984252,1.11847,2.75029208276,0,0,-0.223694,112.3, 1.3, -0.1,0,0,1024,1024,1078,1024,0,0,8,0,289.7,-28.5,-45.5,98,4.249,4.246,4.244,4.238,0,0,2.042,76.91,1693.8402211976,0.984252,6,P-GPS,
15800,2025-09-03 06:06:06,48.1487510873174,11.5721695839292,0.984252,,,1693.8402211976,1.64042,0,2.81226058868,9.0705711564,7,3,16.52,1693.8402211976,0.984252,1.11847,2.81226058868,0,0,-0.223694,112.6, 1.2, -0.6,0,0,1024,1024,1079,1024,0,0,8,0,289.3,-28.8,-46.9,98,4.249,4.246,4.244,4.238,0,0,2.042,76.91,1693.8402211976,0.984252,6,P-GPS,
15900,2025-09-03 06:06:06,48.1487508947621,11.5721697520916,0.984252,,,1693.8402211976,1.64042,0,2.87915363544,9.1518703716,7,3,16.52,1693.8402211976,0.984252,1.11847,2.87915363544,0,0,0,112.8, 1, -1.6,0,0,1024,1024,1081,1024,0,0,9,0,289,-29,-48,98,4.249,4.246,4.244,4.238,0,0,2.042,76.91,1693.8402211976,0.984252,6,P-GPS,
16000,2025-09-03 06:06:06,48.1487506870264,11.5721695791956,0.984252,,,1693.8402211976,1.312336,0,2.87523303164,9.2385829728,7,3,16.52,1693.8402211976,0.984252,1.11847,2.87915363544,0,0,0,112.8, 0.6, -1.3,0,0,1024,1024,1083,1024,0,0,9,0,289.8,-29.1,-47.8,98,4.249,4.246,4.244,4.238,0,0,2.042,76.91,1693.8402211976,0.984252,6,P-GPS,
16100,2025-09-03 06:06:06,48.1487500803903,11.5721684050294,0.984252,,,1693.8402211976,1.312336,0,2.7425033686,9.600065924,7,3,16,1693.8402211976,0.984252,1.11847,2.87915363544,0,0,0,112.8, 0, -0.7,0,0,1024,1024,1095,1024,0,0,11,0,290.2,-29.5,-48.1,98,4.082,4.068,4.053,4.032,0,0,8.184,76.91,1693.8402211976,0.984252,6,P-GPS,
16200,2025-09-03 06:06:06,48.1487498919695,11.5721680400009,0.984252,,,1693.8402211976,1.312336,0,2.70971793448,9.712434694,7,3,16,1693.8402211976,0.984252,1.11847,2.87915363544,0,0,0,112.9, -0.6, -0.5,0,0,1024,1024,1098,1024,0,0,11,0,290.8,-28.7,-47.6,98,4.082,4.068,4.053,4.032,0,0,8.184,76.91,1693.8402211976,0.984252,6,P-GPS,
16300,2025-09-03 06:06:06,48.1487497257404,11.5721677438773,0.984252,,,1693.8402211976,1.312336,0,2.68930782884,9.8066276104,8,3,16,1693.8402211976,0.984252,1.11847,2.87915363544,0,0,0,112.7, -0.2, -0.4,0,0,1024,1024,1100,1024,0,0,12,0,290.9,-28.8,-47.2,98,4.082,4.068,4.053,4.032,0,0,8.184,76.91,1693.8402211976,0.984252,6,P-GPS,
16400,2025-09-03 06:06:07,48.148749647207,11.5721676023354,0.984252,,,1693.8402211976,1.312336,0,2.68045284168,9.8514438848,8,3,16,1693.8402211976,0.984252,1.11847,2.87915363544,0,0,0,112.7, -0.4, 0,0,0,1024,1024,1102,1024,0,0,12,0,290.3,-28.7,-48.1,98,4.082,4.068,4.053,4.032,0,0,8.184,76.91,1693.8402211976,0.984252,6,P-GPS,
16500,2025-09-03 06:06:07,48.1487498323839,11.5721675701483,0.984252,,,1693.8402211976,1.312336,0,2.63200139656,9.919455698,8,3,16,1693.8402211976,0.984252,1.11847,2.87915363544,0,0,0,112.6, 0, -1,0,0,1024,1024,1107,1024,0,0,13,0,290.3,-28.7,-48.1,98,4.082,4.068,4.053,4.032,0,0,8.184,76.91,1693.8402211976,0.984252,6,P-GPS,
16600,2025-09-03 06:06:07,48.1487498062539,11.5721675986505,0.984252,,,1693.8402211976,1.312336,0,2.6433563838,9.9312339136,8,3,16,1693.8402211976,0.984252,1.11847,2.87915363544,0,0,0,112.6, 0.6, -2.2,0,0,1024,1024,1110,1024,0,0,13,0,289.6,-28.4,-49.6,98,4.082,4.068,4.053,4.032,0,0,8.184,76.91,1693.8402211976,0.984252,6,P-GPS,
16700,2025-09-03 06:06:07,48.148749810268,11.5721677116565,0.984252,,,1693.8402211976,1.312336,0,2.66407816924,9.9587929696,8,3,16,1693.8402211976,0.984252,1.11847,2.87915363544,0,0,0,112.7, 0.3, -1.7,0,0,1024,1024,1108,1024,0,0,13,0,290.7,-27.8,-48.9,98,4.082,4.068,4.053,4.032,0,0,8.184,76.91,1693.8402211976,0.984252,6,P-GPS,
16800,2025-09-03 06:06:07,48.1487497505758,11.5721678158531,0.984252,,,1693.8402211976,1.312336,0,2.6974738396,9.9922247292,8,3,16,1693.8402211976,0.984252,1.11847,2.87915363544,0,0,-0.223694,112.6, -0.4, -0.6,0,0,1024,1024,1111,1024,0,0,13,0,291.2,-28.6,-48.1,98,4.082,4.068,4.053,4.032,0,0,8.184,76.91,1693.8402211976,0.984252,6,P-GPS,
16900,2025-09-03 06:06:07,48.1487497074294,11.5721684678276,0.984252,,,1693.8402211976,1.64042,0,2.83350402768,10.1517063616,8,3,16,1693.8402211976,0.984252,1.11847,2.87915363544,0,0,-0.223694,112.6, -0.3, -0.1,0,0,1024,1024,1111,1024,0,0,13,0,291.6,-27.8,-47.5,98,4.082,4.068,4.053,4.032,0,0,8.184,76.91,1693.8402211976,0.984252,6,P-GPS,"To take off in non-P mode, toggle Flight Mode Switch to another mode and then toggle it back."
17000,2025-09-03 06:06:07,48.1487495320345,11.5721684930294,0.984252,,,1693.8402211976,1.64042,0,2.87671597132,10.2160108256,8,3,16,1693.8402211976,0.984252,1.11847,2.87915363544,0,0,-0.223694,112.5, 0.4, -0.9,0,0,1024,1024,1111,1024,0,0,13,0,290.5,-27.8,-48.8,98,4.082,4.068,4.053,4.032,0,0,8.184,76.91,1693.8402211976,0.984252,6,P-GPS,
17100,2025-09-03 06:06:07,48.1487493253158,11.572168471307,1.312336,,,1694.1683051976,1.64042,0,2.9188321144,10.2916013792,8,3,15.695,1694.1683051976,1.312336,1.11847,2.9188321144,0,0,-0.447388,112.5, 0.1, -1.8,0,0,1024,1024,1112,1024,0,0,13,0,290.3,-28.8,-49.4,98,3.988,3.978,3.965,3.947,0,0,15.338,76.91,1694.1683051976,1.312336,6,P-GPS,
17200,2025-09-03 06:06:07,48.1487491256596,11.5721684467616,1.312336,,,1694.1683051976,1.64042,0,2.96010180076,10.3646984944,8,3,15.695,1694.1683051976,1.312336,1.11847,2.96010180076,0,0,-0.447388,112.4, 0, -1.7,0,0,1024,1024,1115,1024,0,0,14,0,290.6,-28.8,-49.2,98,3.988,3.978,3.965,3.947,0,0,15.338,76.91,1694.1683051976,1.312336,6,P-GPS,
17300,2025-09-03 06:06:07,48.148748720576,11.572168428729,1.312336,,,1694.1683051976,1.64042,0,3.05326781424,10.5125659532,8,3,15.695,1694.1683051976,1.312336,1.11847,3.05326781424,0,0,-0.447388,112.3, -0.1, -1.3,0,0,1024,1024,1117,1024,0,0,14,0,290.6,-28.7,-49,98,3.988,3.978,3.965,3.947,0,0,15.338,76.91,1694.1683051976,1.312336,6,P-GPS,
17400,2025-09-03 06:06:08,48.1487485602125,11.57216836777,1.312336,,,1694.1683051976,1.968504,0,3.08170613536,10.5729006008,8,3,15.695,1694.1683051976,1.312336,1.11847,3.08170613536,0,0,-0.447388,112.3, 0, -1.6,0,0,1024,1024,1120,1024,0,0,15,0,290.3,-28.7,-49.8,98,3.988,3.978,3.965,3.947,0,0,15.338,76.91,1694.1683051976,1.312336,6,P-GPS,
17500,2025-09-03 06:06:08,48.1487484281734,11.5721682671322,1.312336,,,1694.1683051976,1.968504,0,3.0969325138,10.626968844,9,3,15.695,1694.1683051976,1.312336,1.11847,3.0969325138,0,0,-0.447388,112.4, 0.1, -1.4,0,0,1024,1024,1122,1024,0,0,15,0,291.5,-27.9,-48.3,98,3.988,3.978,3.965,3.947,0,0,15.338,76.91,1694.1683051976,1.312336,6,P-GPS,
17600,2025-09-03 06:06:08,48.1487483070831,11.5721681528616,1.64042,,,1694.4963891976,1.968504,0,3.10785443016,10.6791670084,9,3,15.695,1694.4963891976,1.64042,1.11847,3.10785443016,0,0,-0.447388,112.5, 0, -1.1,0,0,1024,1024,1125,1024,0,0,15,0,290.9,-28.7,-49.2,98,3.988,3.978,3.965,3.947,0,0,15.338,76.91,1694.4963891976,1.64042,6,P-GPS,
17700,2025-09-03 06:06:08,48.1487481853293,11.5721680155534,1.64042,,,1694.4963891976,1.968504,0,3.11587280312,10.734744438,10,3,15.695,1694.4963891976,1.64042,1.11847,3.11587280312,0,0,-0.447388,112.3, 0, -1,0,0,1024,1024,1126,1024,0,0,15,0,290.8,-29.1,-49.1,98,3.988,3.978,3.965,3.947,0,0,15.338,76.91,1694.4963891976,1.64042,6,P-GPS,
17800,2025-09-03 06:06:08,48.1487481445449,11.5721677466393,1.64042,,,1694.4963891976,1.968504,0,3.08138789388,10.8019032328,10,3,15.695,1694.4963891976,1.64042,1.11847,3.11587280312,0,0,-0.447388,112.2, -0.3, -1.1,0,0,1024,1024,1127,1024,0,0,16,0,290.8,-29.1,-49.1,98,3.988,3.978,3.965,3.947,0,0,15.338,76.91,1694.4963891976,1.64042,6,P-GPS,
17900,2025-09-03 06:06:08,48.1487480240205,11.5721675980037,1.64042,,,1694.4963891976,2.296588,0,3.08921269728,10.8588258068,9,3,15.695,1694.4963891976,1.64042,1.11847,3.11587280312,0,0,-0.447388,112.3, -0.9, -0.9,0,0,1024,1024,1126,1024,0,0,15,0,291.1,-29.3,-49.1,98,3.988,3.978,3.965,3.947,0,0,15.338,76.91,1694.4963891976,1.64042,6,P-GPS,
18000,2025-09-03 06:06:08,48.1487478472521,11.5721674438706,1.968504,,,1694.8244731976,2.296588,0,3.11268382664,10.9334321084,9,3,15.695,1694.8244731976,1.968504,1.11847,3.11587280312,0,0,-0.447388,112.3, -1.2, -0.7,0,0,1024,1024,1125,1024,0,0,15,0,290.7,-30,-49.5,98,3.988,3.978,3.965,3.947,0,0,15.338,76.91,1694.8244731976,1.968504,6,P-GPS,
18100,2025-09-03 06:06:08,48.1487475938263,11.5721672696986,1.968504,,,1694.8244731976,2.296588,0,3.15629275192,11.0351709568,9,3,15.623,1694.8244731976,1.968504,1.11847,3.15629275192,0,0,-0.447388,112.4, -1.3, -0.9,0,0,1024,1024,1125,1024,0,0,15,0,290.6,-30.5,-49.5,98,3.943,3.933,3.918,3.9,0,0,17.276,76.91,1694.8244731976,1.968504,6,P-GPS,
18200,2025-09-03 06:06:08,48.1487471255314,11.5721670026237,1.968504,,,1694.8244731976,2.296588,0,3.25161755812,11.2179793616,9,3,15.623,1694.8244731976,1.968504,1.11847,3.25161755812,0,0,-0.447388,112.4, -1.2, -1.4,0,0,1024,1024,1127,1024,0,0,16,0,289.9,-30.6,-50,98,3.943,3.933,3.918,3.9,0,0,17.276,76.91,1694.8244731976,1.968504,6,P-GPS,
